{
"type": "FeatureCollection",
"name": "dhenkanal_facilities_snapped",
"crs": { "type": "name", "properties": { "name": "urn:ogc:def:crs:OGC:1.3:CRS84" } },
"features": [
{ "type": "Feature", "properties": { "Statename": "Odisha", "Districtname": "Dhenkanal", "Subdistrictname": "Balimi", "Blockname": "Hindol", "Healthblockname": "Hindol", "Healthfacilitytype": "community health centre", "Facilityname": "Khajuria Kata", "NIN": 8842427554, "latitude": 20.60497, "longitude": 85.20396, "facility_type_standardized": "chc", "snapped_lon": 85.202467, "snapped_lat": 20.606747 }, "geometry": { "type": "Point", "coordinates": [ 85.202467, 20.606747 ] } },
{ "type": "Feature", "properties": { "Statename": "Odisha", "Districtname": "Dhenkanal", "Subdistrictname": "Dhenkanal Sadar", "Blockname": "Dhenkanal Sadar", "Healthblockname": "Dhenkanal", "Healthfacilitytype": "community health centre", "Facilityname": "Beltikiri", "NIN": 8454555841, "latitude": 20.69492, "longitude": 85.69339, "facility_type_standardized": "chc", "snapped_lon": 85.690086, "snapped_lat": 20.694616 }, "geometry": { "type": "Point", "coordinates": [ 85.690086, 20.694616 ] } },
{ "type": "Feature", "properties": { "Statename": "Odisha", "Districtname": "Dhenkanal", "Subdistrictname": "Motunga", "Blockname": "Odapada", "Healthblockname": "Odapada", "Healthfacilitytype": "community health centre", "Facilityname": "Odapada", "NIN": 7655643786, "latitude": 20.76504, "longitude": 85.43342, "facility_type_standardized": "chc", "snapped_lon": 85.429437, "snapped_lat": 20.759782 }, "geometry": { "type": "Point", "coordinates": [ 85.429437, 20.759782 ] } },
{ "type": "Feature", "properties": { "Statename": "Odisha", "Districtname": "Dhenkanal", "Subdistrictname": "Gandia", "Blockname": "Gondia", "Healthblockname": "Gandia", "Healthfacilitytype": "community health centre", "Facilityname": "Sriram Chandra Pur", "NIN": 3512137252, "latitude": 20.77449, "longitude": 85.8071, "facility_type_standardized": "chc", "snapped_lon": 85.802608, "snapped_lat": 20.771753 }, "geometry": { "type": "Point", "coordinates": [ 85.802608, 20.771753 ] } },
{ "type": "Feature", "properties": { "Statename": "Odisha", "Districtname": "Dhenkanal", "Subdistrictname": "Tumusingha", "Blockname": "Kamakhyanagar", "Healthblockname": "Kamakhyanagar", "Healthfacilitytype": "community health centre", "Facilityname": "Analaberini", "NIN": 2438717379, "latitude": 20.81045, "longitude": 85.54333, "facility_type_standardized": "chc", "snapped_lon": 85.546435, "snapped_lat": 20.820453 }, "geometry": { "type": "Point", "coordinates": [ 85.546435, 20.820453 ] } },
{ "type": "Feature", "properties": { "Statename": "Odisha", "Districtname": "Dhenkanal", "Subdistrictname": "Kamakshyanagar", "Blockname": "Bhuban", "Healthblockname": "Bhuban", "Healthfacilitytype": "community health centre", "Facilityname": "Jiral", "NIN": 6148268342, "latitude": 20.86384, "longitude": 85.68102, "facility_type_standardized": "chc", "snapped_lon": 85.675088, "snapped_lat": 20.861644 }, "geometry": { "type": "Point", "coordinates": [ 85.675088, 20.861644 ] } },
{ "type": "Feature", "properties": { "Statename": "Odisha", "Districtname": "Dhenkanal", "Subdistrictname": "Bhuban", "Blockname": "Notmapped", "Healthblockname": "Bhuban", "Healthfacilitytype": "community health centre", "Facilityname": "Bhuban", "NIN": 7474363624, "latitude": 20.88373, "longitude": 85.82959, "facility_type_standardized": "chc", "snapped_lon": 85.832541, "snapped_lat": 20.890881 }, "geometry": { "type": "Point", "coordinates": [ 85.832541, 20.890881 ] } },
{ "type": "Feature", "properties": { "Statename": "Odisha", "Districtname": "Dhenkanal", "Subdistrictname": "Kamakshyanagar", "Blockname": "Bhuban", "Healthblockname": "Bhuban", "Healthfacilitytype": "community health centre", "Facilityname": "Mathakar Gola", "NIN": 5152361183, "latitude": 20.90047, "longitude": 85.68536, "facility_type_standardized": "chc", "snapped_lon": 85.684207, "snapped_lat": 20.902039 }, "geometry": { "type": "Point", "coordinates": [ 85.684207, 20.902039 ] } },
{ "type": "Feature", "properties": { "Statename": "Odisha", "Districtname": "Dhenkanal", "Subdistrictname": "Parajang", "Blockname": "Parjang", "Healthblockname": "Parajanga", "Healthfacilitytype": "community health centre", "Facilityname": "Parjanga", "NIN": 1782684540, "latitude": 20.91935, "longitude": 85.31496, "facility_type_standardized": "chc", "snapped_lon": 85.31607, "snapped_lat": 20.920518 }, "geometry": { "type": "Point", "coordinates": [ 85.31607, 20.920518 ] } },
{ "type": "Feature", "properties": { "Statename": "Odisha", "Districtname": "Dhenkanal", "Subdistrictname": "Kankadahad", "Blockname": "Kankada Had", "Healthblockname": "Kankadahada", "Healthfacilitytype": "community health centre", "Facilityname": "Birasal", "NIN": 5683773757, "latitude": 20.99388, "longitude": 85.67733, "facility_type_standardized": "chc", "snapped_lon": 85.675069, "snapped_lat": 20.988265 }, "geometry": { "type": "Point", "coordinates": [ 85.675069, 20.988265 ] } },
{ "type": "Feature", "properties": { "Statename": "Odisha", "Districtname": "Dhenkanal", "Subdistrictname": "Dhenkanal Sadar", "Blockname": "Dhenkanal Sadar", "Healthblockname": "Dhenkanal", "Healthfacilitytype": "district hospital", "Facilityname": "Dhenkanal", "NIN": 1135138160, "latitude": 20.66298, "longitude": 85.59695, "facility_type_standardized": "dh", "snapped_lon": 85.611171, "snapped_lat": 20.665152 }, "geometry": { "type": "Point", "coordinates": [ 85.611171, 20.665152 ] } },
{ "type": "Feature", "properties": { "Statename": "Odisha", "Districtname": "Dhenkanal", "Subdistrictname": "Dhenkanal Sadar", "Blockname": "Dhenkanal Sadar", "Healthblockname": "Dhenkanal", "Healthfacilitytype": "primary health centre", "Facilityname": "Dhirapatna", "NIN": 7534127886, "latitude": 20.529, "longitude": 85.55741, "facility_type_standardized": "phc", "snapped_lon": 85.550674, "snapped_lat": 20.521927 }, "geometry": { "type": "Point", "coordinates": [ 85.550674, 20.521927 ] } },
{ "type": "Feature", "properties": { "Statename": "Odisha", "Districtname": "Dhenkanal", "Subdistrictname": "Dhenkanal Sadar", "Blockname": "Odapada", "Healthblockname": "Odapada", "Healthfacilitytype": "primary health centre", "Facilityname": "Kalanga", "NIN": 2283283683, "latitude": 20.54506, "longitude": 85.4147, "facility_type_standardized": "phc", "snapped_lon": 85.41296, "snapped_lat": 20.55115 }, "geometry": { "type": "Point", "coordinates": [ 85.41296, 20.55115 ] } },
{ "type": "Feature", "properties": { "Statename": "Odisha", "Districtname": "Dhenkanal", "Subdistrictname": "Dhenkanal Sadar", "Blockname": "Dhenkanal Sadar", "Healthblockname": "Dhenkanal", "Healthfacilitytype": "primary health centre", "Facilityname": "Baladiabandha", "NIN": 1111462584, "latitude": 20.59481, "longitude": 85.64831, "facility_type_standardized": "phc", "snapped_lon": 85.645107, "snapped_lat": 20.596889 }, "geometry": { "type": "Point", "coordinates": [ 85.645107, 20.596889 ] } },
{ "type": "Feature", "properties": { "Statename": "Odisha", "Districtname": "Dhenkanal", "Subdistrictname": "Rasol", "Blockname": "Hindol", "Healthblockname": "Hindol", "Healthfacilitytype": "primary health centre", "Facilityname": "Rasola", "NIN": 1656316138, "latitude": 20.6257, "longitude": 85.32392, "facility_type_standardized": "phc", "snapped_lon": 85.328937, "snapped_lat": 20.624273 }, "geometry": { "type": "Point", "coordinates": [ 85.328937, 20.624273 ] } },
{ "type": "Feature", "properties": { "Statename": "Odisha", "Districtname": "Dhenkanal", "Subdistrictname": "Dhenkanal Sadar", "Blockname": "Odapada", "Healthblockname": "Odapada", "Healthfacilitytype": "primary health centre", "Facilityname": "Balarampur", "NIN": 8214864574, "latitude": 20.67635, "longitude": 85.4947, "facility_type_standardized": "phc", "snapped_lon": 85.49435, "snapped_lat": 20.680751 }, "geometry": { "type": "Point", "coordinates": [ 85.49435, 20.680751 ] } },
{ "type": "Feature", "properties": { "Statename": "Odisha", "Districtname": "Dhenkanal", "Subdistrictname": "Balimi", "Blockname": "Hindol", "Healthblockname": "Hindol", "Healthfacilitytype": "primary health centre", "Facilityname": "Dudurakot", "NIN": 3553777834, "latitude": 20.68983, "longitude": 85.26433, "facility_type_standardized": "phc", "snapped_lon": 85.262711, "snapped_lat": 20.680424 }, "geometry": { "type": "Point", "coordinates": [ 85.262711, 20.680424 ] } },
{ "type": "Feature", "properties": { "Statename": "Odisha", "Districtname": "Dhenkanal", "Subdistrictname": "Hindol", "Blockname": "Hindol", "Healthblockname": "Hindol", "Healthfacilitytype": "primary health centre", "Facilityname": "Hatura", "NIN": 3377346725, "latitude": 20.69015, "longitude": 85.21233, "facility_type_standardized": "phc", "snapped_lon": 85.214597, "snapped_lat": 20.690686 }, "geometry": { "type": "Point", "coordinates": [ 85.214597, 20.690686 ] } },
{ "type": "Feature", "properties": { "Statename": "Odisha", "Districtname": "Dhenkanal", "Subdistrictname": "Gandia", "Blockname": "Gondia", "Healthblockname": "Gandia", "Healthfacilitytype": "primary health centre", "Facilityname": "Deogan", "NIN": 4342637735, "latitude": 20.69537, "longitude": 85.74825, "facility_type_standardized": "phc", "snapped_lon": 85.741239, "snapped_lat": 20.698966 }, "geometry": { "type": "Point", "coordinates": [ 85.741239, 20.698966 ] } },
{ "type": "Feature", "properties": { "Statename": "Odisha", "Districtname": "Dhenkanal", "Subdistrictname": "Dhenkanal Sadar", "Blockname": "Dhenkanal Sadar", "Healthblockname": "Dhenkanal", "Healthfacilitytype": "primary health centre", "Facilityname": "Tarabha", "NIN": 8482356576, "latitude": 20.72663, "longitude": 85.60364, "facility_type_standardized": "phc", "snapped_lon": 85.608344, "snapped_lat": 20.718214 }, "geometry": { "type": "Point", "coordinates": [ 85.608344, 20.718214 ] } },
{ "type": "Feature", "properties": { "Statename": "Odisha", "Districtname": "Dhenkanal", "Subdistrictname": "Rasol", "Blockname": "Hindol", "Healthblockname": "Hindol", "Healthfacilitytype": "primary health centre", "Facilityname": "Bedapada", "NIN": 2628776821, "latitude": 20.72767, "longitude": 85.40669, "facility_type_standardized": "phc", "snapped_lon": 85.403802, "snapped_lat": 20.727274 }, "geometry": { "type": "Point", "coordinates": [ 85.403802, 20.727274 ] } },
{ "type": "Feature", "properties": { "Statename": "Odisha", "Districtname": "Dhenkanal", "Subdistrictname": "Nihalprasad", "Blockname": "Gondia", "Healthblockname": "Gandia", "Healthfacilitytype": "primary health centre", "Facilityname": "Khankira", "NIN": 6627346833, "latitude": 20.73182, "longitude": 85.95284, "facility_type_standardized": "phc", "snapped_lon": 85.95169, "snapped_lat": 20.733519 }, "geometry": { "type": "Point", "coordinates": [ 85.95169, 20.733519 ] } },
{ "type": "Feature", "properties": { "Statename": "Odisha", "Districtname": "Dhenkanal", "Subdistrictname": "Motunga", "Blockname": "Odapada", "Healthblockname": "Odapada", "Healthfacilitytype": "primary health centre", "Facilityname": "Nimidha", "NIN": 3374285280, "latitude": 20.75666, "longitude": 85.34184, "facility_type_standardized": "phc", "snapped_lon": 85.340178, "snapped_lat": 20.772921 }, "geometry": { "type": "Point", "coordinates": [ 85.340178, 20.772921 ] } },
{ "type": "Feature", "properties": { "Statename": "Odisha", "Districtname": "Dhenkanal", "Subdistrictname": "Bhusan Steel Limited", "Blockname": "Hindol", "Healthblockname": "Hindol", "Healthfacilitytype": "primary health centre", "Facilityname": "Paika Puruna Kota", "NIN": 1368673867, "latitude": 20.76743, "longitude": 85.24043, "facility_type_standardized": "phc", "snapped_lon": 85.238889, "snapped_lat": 20.783565 }, "geometry": { "type": "Point", "coordinates": [ 85.238889, 20.783565 ] } },
{ "type": "Feature", "properties": { "Statename": "Odisha", "Districtname": "Dhenkanal", "Subdistrictname": "Dhenkanal Sadar", "Blockname": "Dhenkanal Sadar", "Healthblockname": "Dhenkanal", "Healthfacilitytype": "primary health centre", "Facilityname": "Banasingh", "NIN": 8715248343, "latitude": 20.7828, "longitude": 85.64397, "facility_type_standardized": "phc", "snapped_lon": 85.641726, "snapped_lat": 20.787774 }, "geometry": { "type": "Point", "coordinates": [ 85.641726, 20.787774 ] } },
{ "type": "Feature", "properties": { "Statename": "Odisha", "Districtname": "Dhenkanal", "Subdistrictname": "Dhenkanal Sadar", "Blockname": "Dhenkanal Sadar", "Healthblockname": "Dhenkanal", "Healthfacilitytype": "primary health centre", "Facilityname": "Sankarpur", "NIN": 6666428583, "latitude": 20.7867, "longitude": 85.63506, "facility_type_standardized": "phc", "snapped_lon": 85.633887, "snapped_lat": 20.793307 }, "geometry": { "type": "Point", "coordinates": [ 85.633887, 20.793307 ] } },
{ "type": "Feature", "properties": { "Statename": "Odisha", "Districtname": "Dhenkanal", "Subdistrictname": "Gandia", "Blockname": "Gondia", "Healthblockname": "Gandia", "Healthfacilitytype": "primary health centre", "Facilityname": "Joranda", "NIN": 6858537548, "latitude": 20.78776, "longitude": 85.72739, "facility_type_standardized": "phc", "snapped_lon": 85.730052, "snapped_lat": 20.781484 }, "geometry": { "type": "Point", "coordinates": [ 85.730052, 20.781484 ] } },
{ "type": "Feature", "properties": { "Statename": "Odisha", "Districtname": "Dhenkanal", "Subdistrictname": "Gandia", "Blockname": "Gondia", "Healthblockname": "Gandia", "Healthfacilitytype": "primary health centre", "Facilityname": "Kendupada", "NIN": 7416483456, "latitude": 20.80075, "longitude": 85.69554, "facility_type_standardized": "phc", "snapped_lon": 85.693184, "snapped_lat": 20.799245 }, "geometry": { "type": "Point", "coordinates": [ 85.693184, 20.799245 ] } },
{ "type": "Feature", "properties": { "Statename": "Odisha", "Districtname": "Dhenkanal", "Subdistrictname": "Tumusingha", "Blockname": "Kamakhyanagar", "Healthblockname": "Kamakhyanagar", "Healthfacilitytype": "primary health centre", "Facilityname": "Sirimula", "NIN": 7811764682, "latitude": 20.80095, "longitude": 85.467, "facility_type_standardized": "phc", "snapped_lon": 85.470994, "snapped_lat": 20.793619 }, "geometry": { "type": "Point", "coordinates": [ 85.470994, 20.793619 ] } },
{ "type": "Feature", "properties": { "Statename": "Odisha", "Districtname": "Dhenkanal", "Subdistrictname": "Tumusingha", "Blockname": "Kamakhyanagar", "Healthblockname": "Kamakhyanagar", "Healthfacilitytype": "primary health centre", "Facilityname": "Kantiokateni", "NIN": 1211826563, "latitude": 20.80277, "longitude": 85.49964, "facility_type_standardized": "phc", "snapped_lon": 85.480159, "snapped_lat": 20.803783 }, "geometry": { "type": "Point", "coordinates": [ 85.480159, 20.803783 ] } },
{ "type": "Feature", "properties": { "Statename": "Odisha", "Districtname": "Dhenkanal", "Subdistrictname": "Nihalprasad", "Blockname": "Gondia", "Healthblockname": "Gandia", "Healthfacilitytype": "primary health centre", "Facilityname": "Pingua", "NIN": 5354883729, "latitude": 20.81604, "longitude": 85.9507, "facility_type_standardized": "phc", "snapped_lon": 85.945688, "snapped_lat": 20.820559 }, "geometry": { "type": "Point", "coordinates": [ 85.945688, 20.820559 ] } },
{ "type": "Feature", "properties": { "Statename": "Odisha", "Districtname": "Dhenkanal", "Subdistrictname": "Tumusingha", "Blockname": "Kamakhyanagar", "Healthblockname": "Kamakhyanagar", "Healthfacilitytype": "primary health centre", "Facilityname": "Guneibili", "NIN": 1313217356, "latitude": 20.83004, "longitude": 85.6338, "facility_type_standardized": "phc", "snapped_lon": 85.633164, "snapped_lat": 20.83274 }, "geometry": { "type": "Point", "coordinates": [ 85.633164, 20.83274 ] } },
{ "type": "Feature", "properties": { "Statename": "Odisha", "Districtname": "Dhenkanal", "Subdistrictname": "Parajang", "Blockname": "Parjang", "Healthblockname": "Parajanga", "Healthfacilitytype": "primary health centre", "Facilityname": "Kumusi", "NIN": 8574277326, "latitude": 20.84045, "longitude": 85.3843, "facility_type_standardized": "phc", "snapped_lon": 85.375742, "snapped_lat": 20.84833 }, "geometry": { "type": "Point", "coordinates": [ 85.375742, 20.84833 ] } },
{ "type": "Feature", "properties": { "Statename": "Odisha", "Districtname": "Dhenkanal", "Subdistrictname": "Parajang", "Blockname": "Parjang", "Healthblockname": "Parajanga", "Healthfacilitytype": "primary health centre", "Facilityname": "Patrapada (Lodhanichhaka)", "NIN": 5772844410, "latitude": 20.84884, "longitude": 85.33578, "facility_type_standardized": "phc", "snapped_lon": 85.333767, "snapped_lat": 20.847936 }, "geometry": { "type": "Point", "coordinates": [ 85.333767, 20.847936 ] } },
{ "type": "Feature", "properties": { "Statename": "Odisha", "Districtname": "Dhenkanal", "Subdistrictname": "Gandia", "Blockname": "Gondia", "Healthblockname": "Gandia", "Healthfacilitytype": "primary health centre", "Facilityname": "Karamul", "NIN": 8528385456, "latitude": 20.85699, "longitude": 85.75578, "facility_type_standardized": "phc", "snapped_lon": 85.739308, "snapped_lat": 20.833262 }, "geometry": { "type": "Point", "coordinates": [ 85.739308, 20.833262 ] } },
{ "type": "Feature", "properties": { "Statename": "Odisha", "Districtname": "Dhenkanal", "Subdistrictname": "Bhuban", "Blockname": "Bhuban", "Healthblockname": "Bhuban", "Healthfacilitytype": "primary health centre", "Facilityname": "Mahulapal", "NIN": 5343822879, "latitude": 20.86649, "longitude": 85.88947, "facility_type_standardized": "phc", "snapped_lon": 85.884996, "snapped_lat": 20.862123 }, "geometry": { "type": "Point", "coordinates": [ 85.884996, 20.862123 ] } },
{ "type": "Feature", "properties": { "Statename": "Odisha", "Districtname": "Dhenkanal", "Subdistrictname": "Bhuban", "Blockname": "Bhuban", "Healthblockname": "Bhuban", "Healthfacilitytype": "primary health centre", "Facilityname": "Marthapur", "NIN": 4236745776, "latitude": 20.86776, "longitude": 85.72139, "facility_type_standardized": "phc", "snapped_lon": 85.714345, "snapped_lat": 20.86996 }, "geometry": { "type": "Point", "coordinates": [ 85.714345, 20.86996 ] } },
{ "type": "Feature", "properties": { "Statename": "Odisha", "Districtname": "Dhenkanal", "Subdistrictname": "Bhuban", "Blockname": "Bhuban", "Healthblockname": "Bhuban", "Healthfacilitytype": "primary health centre", "Facilityname": "Baruan", "NIN": 4437746318, "latitude": 20.94046, "longitude": 85.76959, "facility_type_standardized": "phc", "snapped_lon": 85.767122, "snapped_lat": 20.92265 }, "geometry": { "type": "Point", "coordinates": [ 85.767122, 20.92265 ] } },
{ "type": "Feature", "properties": { "Statename": "Odisha", "Districtname": "Dhenkanal", "Subdistrictname": "Kamakshyanagar", "Blockname": "Parjang", "Healthblockname": "Parajanga", "Healthfacilitytype": "primary health centre", "Facilityname": "Muktapasi", "NIN": 3242366882, "latitude": 20.94081, "longitude": 85.42033, "facility_type_standardized": "phc", "snapped_lon": 85.421973, "snapped_lat": 20.941722 }, "geometry": { "type": "Point", "coordinates": [ 85.421973, 20.941722 ] } },
{ "type": "Feature", "properties": { "Statename": "Odisha", "Districtname": "Dhenkanal", "Subdistrictname": "Bhuban", "Blockname": "Bhuban", "Healthblockname": "Bhuban", "Healthfacilitytype": "primary health centre", "Facilityname": "Odisa", "NIN": 7616758863, "latitude": 20.97078, "longitude": 85.74537, "facility_type_standardized": "phc", "snapped_lon": 85.7422, "snapped_lat": 20.979875 }, "geometry": { "type": "Point", "coordinates": [ 85.7422, 20.979875 ] } },
{ "type": "Feature", "properties": { "Statename": "Odisha", "Districtname": "Dhenkanal", "Subdistrictname": "Parajang", "Blockname": "Parjang", "Healthblockname": "Parajanga", "Healthfacilitytype": "primary health centre", "Facilityname": "Dadarghati", "NIN": 3686817663, "latitude": 21.02793, "longitude": 85.28704, "facility_type_standardized": "phc", "snapped_lon": 85.289135, "snapped_lat": 21.029675 }, "geometry": { "type": "Point", "coordinates": [ 85.289135, 21.029675 ] } },
{ "type": "Feature", "properties": { "Statename": "Odisha", "Districtname": "Dhenkanal", "Subdistrictname": "Kankadahad", "Blockname": "Kankada Had", "Healthblockname": "Kankadahada", "Healthfacilitytype": "primary health centre", "Facilityname": "Kantapal", "NIN": 8451822483, "latitude": 21.08005, "longitude": 85.52967, "facility_type_standardized": "phc", "snapped_lon": 85.533457, "snapped_lat": 21.084961 }, "geometry": { "type": "Point", "coordinates": [ 85.533457, 21.084961 ] } },
{ "type": "Feature", "properties": { "Statename": "Odisha", "Districtname": "Dhenkanal", "Subdistrictname": "Parajang", "Blockname": "Kankada Had", "Healthblockname": "Kankadahada", "Healthfacilitytype": "primary health centre", "Facilityname": "Pangatira", "NIN": 1786684264, "latitude": 21.13303, "longitude": 85.35859, "facility_type_standardized": "phc", "snapped_lon": 85.353204, "snapped_lat": 21.133111 }, "geometry": { "type": "Point", "coordinates": [ 85.353204, 21.133111 ] } },
{ "type": "Feature", "properties": { "Statename": "Odisha", "Districtname": "Dhenkanal", "Subdistrictname": "Hindol", "Blockname": "Notmapped", "Healthblockname": "Hindol", "Healthfacilitytype": "sub district hospital", "Facilityname": "Hindol", "NIN": 6574133887, "latitude": 20.69306, "longitude": 85.29275, "facility_type_standardized": "sdh", "snapped_lon": 85.301026, "snapped_lat": 20.687371 }, "geometry": { "type": "Point", "coordinates": [ 85.301026, 20.687371 ] } },
{ "type": "Feature", "properties": { "Statename": "Odisha", "Districtname": "Dhenkanal", "Subdistrictname": "Kamakshyanagar", "Blockname": "Notmapped", "Healthblockname": "Kamakhyanagar", "Healthfacilitytype": "sub district hospital", "Facilityname": "Kamakhya Nagar", "NIN": 7576273747, "latitude": 20.93258, "longitude": 85.53765, "facility_type_standardized": "sdh", "snapped_lon": 85.540441, "snapped_lat": 20.926646 }, "geometry": { "type": "Point", "coordinates": [ 85.540441, 20.926646 ] } },
{ "type": "Feature", "properties": { "Statename": "Odisha", "Districtname": "Dhenkanal", "Subdistrictname": "Bhusan Steel Limited", "Blockname": "Odapada", "Healthblockname": "Odapada", "Healthfacilitytype": "health sub centre", "Facilityname": "Manapur", "NIN": 3543646479, "latitude": 20.51377, "longitude": 85.42372, "facility_type_standardized": "hsc", "snapped_lon": 85.413865, "snapped_lat": 20.523312 }, "geometry": { "type": "Point", "coordinates": [ 85.413865, 20.523312 ] } },
{ "type": "Feature", "properties": { "Statename": "Odisha", "Districtname": "Dhenkanal", "Subdistrictname": "Dhenkanal Sadar", "Blockname": "Dhenkanal Sadar", "Healthblockname": "Dhenkanal", "Healthfacilitytype": "health sub centre", "Facilityname": "Chandrasekharprasad", "NIN": 4386545828, "latitude": 20.5335, "longitude": 85.48675, "facility_type_standardized": "hsc", "snapped_lon": 85.493684, "snapped_lat": 20.537399 }, "geometry": { "type": "Point", "coordinates": [ 85.493684, 20.537399 ] } },
{ "type": "Feature", "properties": { "Statename": "Odisha", "Districtname": "Dhenkanal", "Subdistrictname": "Dhenkanal Sadar", "Blockname": "Dhenkanal Sadar", "Healthblockname": "Dhenkanal", "Healthfacilitytype": "health sub centre", "Facilityname": "Dhirapatna", "NIN": 2741123125, "latitude": 20.5414, "longitude": 85.56669, "facility_type_standardized": "hsc", "snapped_lon": 85.581388, "snapped_lat": 20.536073 }, "geometry": { "type": "Point", "coordinates": [ 85.581388, 20.536073 ] } },
{ "type": "Feature", "properties": { "Statename": "Odisha", "Districtname": "Dhenkanal", "Subdistrictname": "Dhenkanal Sadar", "Blockname": "Odapada", "Healthblockname": "Odapada", "Healthfacilitytype": "health sub centre", "Facilityname": "Kalanga", "NIN": 3336675842, "latitude": 20.54333, "longitude": 85.40687, "facility_type_standardized": "hsc", "snapped_lon": 85.41296, "snapped_lat": 20.55115 }, "geometry": { "type": "Point", "coordinates": [ 85.41296, 20.55115 ] } },
{ "type": "Feature", "properties": { "Statename": "Odisha", "Districtname": "Dhenkanal", "Subdistrictname": "Dhenkanal Sadar", "Blockname": "Dhenkanal Sadar", "Healthblockname": "Dhenkanal", "Healthfacilitytype": "health sub centre", "Facilityname": "Baliamba", "NIN": 6868122489, "latitude": 20.55325, "longitude": 85.52399, "facility_type_standardized": "hsc", "snapped_lon": 85.513919, "snapped_lat": 20.555442 }, "geometry": { "type": "Point", "coordinates": [ 85.513919, 20.555442 ] } },
{ "type": "Feature", "properties": { "Statename": "Odisha", "Districtname": "Dhenkanal", "Subdistrictname": "Rasol", "Blockname": "Hindol", "Healthblockname": "Hindol", "Healthfacilitytype": "health sub centre", "Facilityname": "Khaliborei", "NIN": 8642876315, "latitude": 20.55634, "longitude": 85.34992, "facility_type_standardized": "hsc", "snapped_lon": 85.353743, "snapped_lat": 20.554726 }, "geometry": { "type": "Point", "coordinates": [ 85.353743, 20.554726 ] } },
{ "type": "Feature", "properties": { "Statename": "Odisha", "Districtname": "Dhenkanal", "Subdistrictname": "Dhenkanal Sadar", "Blockname": "Dhenkanal Sadar", "Healthblockname": "Dhenkanal", "Healthfacilitytype": "health sub centre", "Facilityname": "Bhapur", "NIN": 3254577780, "latitude": 20.56254, "longitude": 85.476, "facility_type_standardized": "hsc", "snapped_lon": 85.47838, "snapped_lat": 20.569504 }, "geometry": { "type": "Point", "coordinates": [ 85.47838, 20.569504 ] } },
{ "type": "Feature", "properties": { "Statename": "Odisha", "Districtname": "Dhenkanal", "Subdistrictname": "Dhenkanal Sadar", "Blockname": "Dhenkanal Sadar", "Healthblockname": "Dhenkanal", "Healthfacilitytype": "health sub centre", "Facilityname": "Talabarkote", "NIN": 8884762116, "latitude": 20.57382, "longitude": 85.63243, "facility_type_standardized": "hsc", "snapped_lon": 85.631728, "snapped_lat": 20.571784 }, "geometry": { "type": "Point", "coordinates": [ 85.631728, 20.571784 ] } },
{ "type": "Feature", "properties": { "Statename": "Odisha", "Districtname": "Dhenkanal", "Subdistrictname": "Dhenkanal Sadar", "Blockname": "Dhenkanal Sadar", "Healthblockname": "Dhenkanal", "Healthfacilitytype": "health sub centre", "Facilityname": "Patrabhaga", "NIN": 3888158619, "latitude": 20.57894, "longitude": 85.60154, "facility_type_standardized": "hsc", "snapped_lon": 85.593458, "snapped_lat": 20.57328 }, "geometry": { "type": "Point", "coordinates": [ 85.593458, 20.57328 ] } },
{ "type": "Feature", "properties": { "Statename": "Odisha", "Districtname": "Dhenkanal", "Subdistrictname": "Dhenkanal Sadar", "Blockname": "Dhenkanal Sadar", "Healthblockname": "Dhenkanal", "Healthfacilitytype": "health sub centre", "Facilityname": "Koilipangi", "NIN": 3678148358, "latitude": 20.57964, "longitude": 85.4982, "facility_type_standardized": "hsc", "snapped_lon": 85.499133, "snapped_lat": 20.575551 }, "geometry": { "type": "Point", "coordinates": [ 85.499133, 20.575551 ] } },
{ "type": "Feature", "properties": { "Statename": "Odisha", "Districtname": "Dhenkanal", "Subdistrictname": "Dhenkanal Sadar", "Blockname": "Dhenkanal Sadar", "Healthblockname": "Dhenkanal", "Healthfacilitytype": "health sub centre", "Facilityname": "Nadiali", "NIN": 7475425448, "latitude": 20.58202, "longitude": 85.65348, "facility_type_standardized": "hsc", "snapped_lon": 85.65852, "snapped_lat": 20.591082 }, "geometry": { "type": "Point", "coordinates": [ 85.65852, 20.591082 ] } },
{ "type": "Feature", "properties": { "Statename": "Odisha", "Districtname": "Dhenkanal", "Subdistrictname": "Dhenkanal Sadar", "Blockname": "Odapada", "Healthblockname": "Odapada", "Healthfacilitytype": "health sub centre", "Facilityname": "Kottam", "NIN": 6868234532, "latitude": 20.58371, "longitude": 85.41168, "facility_type_standardized": "hsc", "snapped_lon": 85.408215, "snapped_lat": 20.585954 }, "geometry": { "type": "Point", "coordinates": [ 85.408215, 20.585954 ] } },
{ "type": "Feature", "properties": { "Statename": "Odisha", "Districtname": "Dhenkanal", "Subdistrictname": "Rasol", "Blockname": "Hindol", "Healthblockname": "Hindol", "Healthfacilitytype": "health sub centre", "Facilityname": "Gandanali", "NIN": 3828357420, "latitude": 20.59193, "longitude": 85.36621, "facility_type_standardized": "hsc", "snapped_lon": 85.367816, "snapped_lat": 20.589689 }, "geometry": { "type": "Point", "coordinates": [ 85.367816, 20.589689 ] } },
{ "type": "Feature", "properties": { "Statename": "Odisha", "Districtname": "Dhenkanal", "Subdistrictname": "Dhenkanal Sadar", "Blockname": "Dhenkanal Sadar", "Healthblockname": "Dhenkanal", "Healthfacilitytype": "health sub centre", "Facilityname": "Baladiabandha", "NIN": 1357251568, "latitude": 20.59644, "longitude": 85.64822, "facility_type_standardized": "hsc", "snapped_lon": 85.645107, "snapped_lat": 20.596889 }, "geometry": { "type": "Point", "coordinates": [ 85.645107, 20.596889 ] } },
{ "type": "Feature", "properties": { "Statename": "Odisha", "Districtname": "Dhenkanal", "Subdistrictname": "Dhenkanal Sadar", "Blockname": "Odapada", "Healthblockname": "Odapada", "Healthfacilitytype": "health sub centre", "Facilityname": "Ghatipiri", "NIN": 3464633589, "latitude": 20.60438, "longitude": 85.45665, "facility_type_standardized": "hsc", "snapped_lon": 85.454257, "snapped_lat": 20.575961 }, "geometry": { "type": "Point", "coordinates": [ 85.454257, 20.575961 ] } },
{ "type": "Feature", "properties": { "Statename": "Odisha", "Districtname": "Dhenkanal", "Subdistrictname": "Rasol", "Blockname": "Hindol", "Healthblockname": "Hindol", "Healthfacilitytype": "health sub centre", "Facilityname": "Kunua", "NIN": 2831778366, "latitude": 20.60997, "longitude": 85.35782, "facility_type_standardized": "hsc", "snapped_lon": 85.354127, "snapped_lat": 20.621217 }, "geometry": { "type": "Point", "coordinates": [ 85.354127, 20.621217 ] } },
{ "type": "Feature", "properties": { "Statename": "Odisha", "Districtname": "Dhenkanal", "Subdistrictname": "Rasol", "Blockname": "Hindol", "Healthblockname": "Hindol", "Healthfacilitytype": "health sub centre", "Facilityname": "Naukiari", "NIN": 3217511330, "latitude": 20.61259, "longitude": 85.33296, "facility_type_standardized": "hsc", "snapped_lon": 85.340321, "snapped_lat": 20.612576 }, "geometry": { "type": "Point", "coordinates": [ 85.340321, 20.612576 ] } },
{ "type": "Feature", "properties": { "Statename": "Odisha", "Districtname": "Dhenkanal", "Subdistrictname": "Dhenkanal Sadar", "Blockname": "Dhenkanal Sadar", "Healthblockname": "Dhenkanal", "Healthfacilitytype": "health sub centre", "Facilityname": "Govindapur", "NIN": 8484317311, "latitude": 20.61317, "longitude": 85.64854, "facility_type_standardized": "hsc", "snapped_lon": 85.643631, "snapped_lat": 20.621293 }, "geometry": { "type": "Point", "coordinates": [ 85.643631, 20.621293 ] } },
{ "type": "Feature", "properties": { "Statename": "Odisha", "Districtname": "Dhenkanal", "Subdistrictname": "Hindol", "Blockname": "Hindol", "Healthblockname": "Hindol", "Healthfacilitytype": "health sub centre", "Facilityname": "Madhapur", "NIN": 3868443213, "latitude": 20.61892, "longitude": 85.28839, "facility_type_standardized": "hsc", "snapped_lon": 85.28508, "snapped_lat": 20.616885 }, "geometry": { "type": "Point", "coordinates": [ 85.28508, 20.616885 ] } },
{ "type": "Feature", "properties": { "Statename": "Odisha", "Districtname": "Dhenkanal", "Subdistrictname": "Hindol", "Blockname": "Hindol", "Healthblockname": "Hindol", "Healthfacilitytype": "health sub centre", "Facilityname": "Rajmohanpur", "NIN": 2637387362, "latitude": 20.62476, "longitude": 85.24316, "facility_type_standardized": "hsc", "snapped_lon": 85.241358, "snapped_lat": 20.631726 }, "geometry": { "type": "Point", "coordinates": [ 85.241358, 20.631726 ] } },
{ "type": "Feature", "properties": { "Statename": "Odisha", "Districtname": "Dhenkanal", "Subdistrictname": "Rasol", "Blockname": "Hindol", "Healthblockname": "Hindol", "Healthfacilitytype": "health sub centre", "Facilityname": "Rasol", "NIN": 8363732283, "latitude": 20.62495, "longitude": 85.31112, "facility_type_standardized": "hsc", "snapped_lon": 85.311053, "snapped_lat": 20.616236 }, "geometry": { "type": "Point", "coordinates": [ 85.311053, 20.616236 ] } },
{ "type": "Feature", "properties": { "Statename": "Odisha", "Districtname": "Dhenkanal", "Subdistrictname": "Balimi", "Blockname": "Hindol", "Healthblockname": "Hindol", "Healthfacilitytype": "health sub centre", "Facilityname": "Khajurikata", "NIN": 3867417424, "latitude": 20.62587, "longitude": 85.19939, "facility_type_standardized": "hsc", "snapped_lon": 85.202639, "snapped_lat": 20.619176 }, "geometry": { "type": "Point", "coordinates": [ 85.202639, 20.619176 ] } },
{ "type": "Feature", "properties": { "Statename": "Odisha", "Districtname": "Dhenkanal", "Subdistrictname": "Dhenkanal Sadar", "Blockname": "Dhenkanal Sadar", "Healthblockname": "Dhenkanal", "Healthfacilitytype": "health sub centre", "Facilityname": "Bhaliabol kateni", "NIN": 4218827584, "latitude": 20.63175, "longitude": 85.52761, "facility_type_standardized": "hsc", "snapped_lon": 85.526073, "snapped_lat": 20.633324 }, "geometry": { "type": "Point", "coordinates": [ 85.526073, 20.633324 ] } },
{ "type": "Feature", "properties": { "Statename": "Odisha", "Districtname": "Dhenkanal", "Subdistrictname": "Hindol", "Blockname": "Hindol", "Healthblockname": "Hindol", "Healthfacilitytype": "health sub centre", "Facilityname": "Nuakote", "NIN": 2814767287, "latitude": 20.6347, "longitude": 85.15723, "facility_type_standardized": "hsc", "snapped_lon": 85.15499, "snapped_lat": 20.631666 }, "geometry": { "type": "Point", "coordinates": [ 85.15499, 20.631666 ] } },
{ "type": "Feature", "properties": { "Statename": "Odisha", "Districtname": "Dhenkanal", "Subdistrictname": "Dhenkanal Sadar", "Blockname": "Dhenkanal Sadar", "Healthblockname": "Dhenkanal", "Healthfacilitytype": "health sub centre", "Facilityname": "Kankadahad", "NIN": 2834436632, "latitude": 20.63491, "longitude": 85.54981, "facility_type_standardized": "hsc", "snapped_lon": 85.552047, "snapped_lat": 20.632537 }, "geometry": { "type": "Point", "coordinates": [ 85.552047, 20.632537 ] } },
{ "type": "Feature", "properties": { "Statename": "Odisha", "Districtname": "Dhenkanal", "Subdistrictname": "Hindol", "Blockname": "Hindol", "Healthblockname": "Hindol", "Healthfacilitytype": "health sub centre", "Facilityname": "Baunsapokhari", "NIN": 4628358667, "latitude": 20.64147, "longitude": 85.17103, "facility_type_standardized": "hsc", "snapped_lon": 85.167862, "snapped_lat": 20.640691 }, "geometry": { "type": "Point", "coordinates": [ 85.167862, 20.640691 ] } },
{ "type": "Feature", "properties": { "Statename": "Odisha", "Districtname": "Dhenkanal", "Subdistrictname": "Dhenkanal Sadar", "Blockname": "Odapada", "Healthblockname": "Odapada", "Healthfacilitytype": "health sub centre", "Facilityname": "Kandabindha", "NIN": 4267778522, "latitude": 20.65423, "longitude": 85.49294, "facility_type_standardized": "hsc", "snapped_lon": 85.498384, "snapped_lat": 20.670533 }, "geometry": { "type": "Point", "coordinates": [ 85.498384, 20.670533 ] } },
{ "type": "Feature", "properties": { "Statename": "Odisha", "Districtname": "Dhenkanal", "Subdistrictname": "Rasol", "Blockname": "Hindol", "Healthblockname": "Hindol", "Healthfacilitytype": "health sub centre", "Facilityname": "Chitalpur", "NIN": 4235873462, "latitude": 20.66214, "longitude": 85.32243, "facility_type_standardized": "hsc", "snapped_lon": 85.323636, "snapped_lat": 20.660608 }, "geometry": { "type": "Point", "coordinates": [ 85.323636, 20.660608 ] } },
{ "type": "Feature", "properties": { "Statename": "Odisha", "Districtname": "Dhenkanal", "Subdistrictname": "Rasol", "Blockname": "Hindol", "Healthblockname": "Hindol", "Healthfacilitytype": "health sub centre", "Facilityname": "Brahmanipal", "NIN": 8435681823, "latitude": 20.66364, "longitude": 85.43506, "facility_type_standardized": "hsc", "snapped_lon": 85.446859, "snapped_lat": 20.699361 }, "geometry": { "type": "Point", "coordinates": [ 85.446859, 20.699361 ] } },
{ "type": "Feature", "properties": { "Statename": "Odisha", "Districtname": "Dhenkanal", "Subdistrictname": "Dhenkanal Sadar", "Blockname": "Odapada", "Healthblockname": "Odapada", "Healthfacilitytype": "health sub centre", "Facilityname": "Indipur", "NIN": 4876851181, "latitude": 20.66505, "longitude": 85.53319, "facility_type_standardized": "hsc", "snapped_lon": 85.52859, "snapped_lat": 20.66693 }, "geometry": { "type": "Point", "coordinates": [ 85.52859, 20.66693 ] } },
{ "type": "Feature", "properties": { "Statename": "Odisha", "Districtname": "Dhenkanal", "Subdistrictname": "Dhenkanal Sadar", "Blockname": "Odapada", "Healthblockname": "Odapada", "Healthfacilitytype": "health sub centre", "Facilityname": "Balarampur", "NIN": 4728666365, "latitude": 20.67007, "longitude": 85.47966, "facility_type_standardized": "hsc", "snapped_lon": 85.49435, "snapped_lat": 20.680751 }, "geometry": { "type": "Point", "coordinates": [ 85.49435, 20.680751 ] } },
{ "type": "Feature", "properties": { "Statename": "Odisha", "Districtname": "Dhenkanal", "Subdistrictname": "Dhenkanal Sadar", "Blockname": "Odapada", "Healthblockname": "Odapada", "Healthfacilitytype": "health sub centre", "Facilityname": "Besalia", "NIN": 8137768415, "latitude": 20.67181, "longitude": 85.55367, "facility_type_standardized": "hsc", "snapped_lon": 85.543147, "snapped_lat": 20.677544 }, "geometry": { "type": "Point", "coordinates": [ 85.543147, 20.677544 ] } },
{ "type": "Feature", "properties": { "Statename": "Odisha", "Districtname": "Dhenkanal", "Subdistrictname": "Dhenkanal Sadar", "Blockname": "Dhenkanal Sadar", "Healthblockname": "Dhenkanal", "Healthfacilitytype": "health sub centre", "Facilityname": "Kaimati", "NIN": 6872385544, "latitude": 20.67484, "longitude": 85.66995, "facility_type_standardized": "hsc", "snapped_lon": 85.669777, "snapped_lat": 20.672051 }, "geometry": { "type": "Point", "coordinates": [ 85.669777, 20.672051 ] } },
{ "type": "Feature", "properties": { "Statename": "Odisha", "Districtname": "Dhenkanal", "Subdistrictname": "Rasol", "Blockname": "Hindol", "Healthblockname": "Hindol", "Healthfacilitytype": "health sub centre", "Facilityname": "Chhotapada", "NIN": 1343876767, "latitude": 20.67719, "longitude": 85.12451, "facility_type_standardized": "hsc", "snapped_lon": 85.130683, "snapped_lat": 20.685699 }, "geometry": { "type": "Point", "coordinates": [ 85.130683, 20.685699 ] } },
{ "type": "Feature", "properties": { "Statename": "Odisha", "Districtname": "Dhenkanal", "Subdistrictname": "Balimi", "Blockname": "Hindol", "Healthblockname": "Hindol", "Healthfacilitytype": "health sub centre", "Facilityname": "Dudurkote", "NIN": 5617828685, "latitude": 20.68319, "longitude": 85.26159, "facility_type_standardized": "hsc", "snapped_lon": 85.262711, "snapped_lat": 20.680424 }, "geometry": { "type": "Point", "coordinates": [ 85.262711, 20.680424 ] } },
{ "type": "Feature", "properties": { "Statename": "Odisha", "Districtname": "Dhenkanal", "Subdistrictname": "Dhenkanal Sadar", "Blockname": "Dhenkanal Sadar", "Healthblockname": "Dhenkanal", "Healthfacilitytype": "health sub centre", "Facilityname": "Kankadapal", "NIN": 4678723141, "latitude": 20.69119, "longitude": 85.6177, "facility_type_standardized": "hsc", "snapped_lon": 85.62185, "snapped_lat": 20.6953 }, "geometry": { "type": "Point", "coordinates": [ 85.62185, 20.6953 ] } },
{ "type": "Feature", "properties": { "Statename": "Odisha", "Districtname": "Dhenkanal", "Subdistrictname": "Dhenkanal Sadar", "Blockname": "Dhenkanal Sadar", "Healthblockname": "Dhenkanal", "Healthfacilitytype": "health sub centre", "Facilityname": "Beltikiri", "NIN": 5788556677, "latitude": 20.69328, "longitude": 85.6908, "facility_type_standardized": "hsc", "snapped_lon": 85.690086, "snapped_lat": 20.694616 }, "geometry": { "type": "Point", "coordinates": [ 85.690086, 20.694616 ] } },
{ "type": "Feature", "properties": { "Statename": "Odisha", "Districtname": "Dhenkanal", "Subdistrictname": "Hindol", "Blockname": "Hindol", "Healthblockname": "Hindol", "Healthfacilitytype": "health sub centre", "Facilityname": "Hatura", "NIN": 7683485317, "latitude": 20.69426, "longitude": 85.2142, "facility_type_standardized": "hsc", "snapped_lon": 85.214597, "snapped_lat": 20.690686 }, "geometry": { "type": "Point", "coordinates": [ 85.214597, 20.690686 ] } },
{ "type": "Feature", "properties": { "Statename": "Odisha", "Districtname": "Dhenkanal", "Subdistrictname": "Balimi", "Blockname": "Hindol", "Healthblockname": "Hindol", "Healthfacilitytype": "health sub centre", "Facilityname": "Gulehi", "NIN": 6753638730, "latitude": 20.69455, "longitude": 85.23377, "facility_type_standardized": "hsc", "snapped_lon": 85.233482, "snapped_lat": 20.686766 }, "geometry": { "type": "Point", "coordinates": [ 85.233482, 20.686766 ] } },
{ "type": "Feature", "properties": { "Statename": "Odisha", "Districtname": "Dhenkanal", "Subdistrictname": "Dhenkanal Sadar", "Blockname": "Dhenkanal Sadar", "Healthblockname": "Dhenkanal", "Healthfacilitytype": "health sub centre", "Facilityname": "Balabhadrapur", "NIN": 1512722271, "latitude": 20.69709, "longitude": 85.58218, "facility_type_standardized": "hsc", "snapped_lon": 85.577662, "snapped_lat": 20.69569 }, "geometry": { "type": "Point", "coordinates": [ 85.577662, 20.69569 ] } },
{ "type": "Feature", "properties": { "Statename": "Odisha", "Districtname": "Dhenkanal", "Subdistrictname": "Gandia", "Blockname": "Gondia", "Healthblockname": "Gandia", "Healthfacilitytype": "health sub centre", "Facilityname": "Deogaon", "NIN": 3673843326, "latitude": 20.70036, "longitude": 85.74968, "facility_type_standardized": "hsc", "snapped_lon": 85.741239, "snapped_lat": 20.698966 }, "geometry": { "type": "Point", "coordinates": [ 85.741239, 20.698966 ] } },
{ "type": "Feature", "properties": { "Statename": "Odisha", "Districtname": "Dhenkanal", "Subdistrictname": "Dhenkanal Sadar", "Blockname": "Dhenkanal Sadar", "Healthblockname": "Dhenkanal", "Healthfacilitytype": "health sub centre", "Facilityname": "Derasingh", "NIN": 6382521117, "latitude": 20.7004, "longitude": 85.62582, "facility_type_standardized": "hsc", "snapped_lon": 85.62185, "snapped_lat": 20.6953 }, "geometry": { "type": "Point", "coordinates": [ 85.62185, 20.6953 ] } },
{ "type": "Feature", "properties": { "Statename": "Odisha", "Districtname": "Dhenkanal", "Subdistrictname": "Motunga", "Blockname": "Odapada", "Healthblockname": "Odapada", "Healthfacilitytype": "health sub centre", "Facilityname": "Dhalapur", "NIN": 1113661431, "latitude": 20.70206, "longitude": 85.52476, "facility_type_standardized": "hsc", "snapped_lon": 85.525029, "snapped_lat": 20.697662 }, "geometry": { "type": "Point", "coordinates": [ 85.525029, 20.697662 ] } },
{ "type": "Feature", "properties": { "Statename": "Odisha", "Districtname": "Dhenkanal", "Subdistrictname": "Gandia", "Blockname": "Gondia", "Healthblockname": "Gandia", "Healthfacilitytype": "health sub centre", "Facilityname": "Sorisiapada", "NIN": 2763443765, "latitude": 20.70287, "longitude": 85.85391, "facility_type_standardized": "hsc", "snapped_lon": 85.85666, "snapped_lat": 20.699586 }, "geometry": { "type": "Point", "coordinates": [ 85.85666, 20.699586 ] } },
{ "type": "Feature", "properties": { "Statename": "Odisha", "Districtname": "Dhenkanal", "Subdistrictname": "Rasol", "Blockname": "Hindol", "Healthblockname": "Hindol", "Healthfacilitytype": "health sub centre", "Facilityname": "Khanditiri", "NIN": 7267657869, "latitude": 20.7035, "longitude": 85.37077, "facility_type_standardized": "hsc", "snapped_lon": 85.374326, "snapped_lat": 20.698688 }, "geometry": { "type": "Point", "coordinates": [ 85.374326, 20.698688 ] } },
{ "type": "Feature", "properties": { "Statename": "Odisha", "Districtname": "Dhenkanal", "Subdistrictname": "Hindol", "Blockname": "Hindol", "Healthblockname": "Hindol", "Healthfacilitytype": "health sub centre", "Facilityname": "Kansara", "NIN": 6767771857, "latitude": 20.71661, "longitude": 85.14803, "facility_type_standardized": "hsc", "snapped_lon": 85.146598, "snapped_lat": 20.714834 }, "geometry": { "type": "Point", "coordinates": [ 85.146598, 20.714834 ] } },
{ "type": "Feature", "properties": { "Statename": "Odisha", "Districtname": "Dhenkanal", "Subdistrictname": "Rasol", "Blockname": "Hindol", "Healthblockname": "Hindol", "Healthfacilitytype": "health sub centre", "Facilityname": "Karanda", "NIN": 6116176618, "latitude": 20.71747, "longitude": 85.3479, "facility_type_standardized": "hsc", "snapped_lon": 85.348194, "snapped_lat": 20.728155 }, "geometry": { "type": "Point", "coordinates": [ 85.348194, 20.728155 ] } },
{ "type": "Feature", "properties": { "Statename": "Odisha", "Districtname": "Dhenkanal", "Subdistrictname": "Rasol", "Blockname": "Hindol", "Healthblockname": "Hindol", "Healthfacilitytype": "health sub centre", "Facilityname": "Babandha", "NIN": 4454785140, "latitude": 20.7224, "longitude": 85.42966, "facility_type_standardized": "hsc", "snapped_lon": 85.436885, "snapped_lat": 20.719331 }, "geometry": { "type": "Point", "coordinates": [ 85.436885, 20.719331 ] } },
{ "type": "Feature", "properties": { "Statename": "Odisha", "Districtname": "Dhenkanal", "Subdistrictname": "Rasol", "Blockname": "Hindol", "Healthblockname": "Hindol", "Healthfacilitytype": "health sub centre", "Facilityname": "Bedapada", "NIN": 1653214310, "latitude": 20.72283, "longitude": 85.40488, "facility_type_standardized": "hsc", "snapped_lon": 85.407919, "snapped_lat": 20.72115 }, "geometry": { "type": "Point", "coordinates": [ 85.407919, 20.72115 ] } },
{ "type": "Feature", "properties": { "Statename": "Odisha", "Districtname": "Dhenkanal", "Subdistrictname": "Balimi", "Blockname": "Hindol", "Healthblockname": "Hindol", "Healthfacilitytype": "health sub centre", "Facilityname": "Patala", "NIN": 8243223487, "latitude": 20.72589, "longitude": 85.23057, "facility_type_standardized": "hsc", "snapped_lon": 85.23385, "snapped_lat": 20.729865 }, "geometry": { "type": "Point", "coordinates": [ 85.23385, 20.729865 ] } },
{ "type": "Feature", "properties": { "Statename": "Odisha", "Districtname": "Dhenkanal", "Subdistrictname": "Gandia", "Blockname": "Gondia", "Healthblockname": "Gandia", "Healthfacilitytype": "health sub centre", "Facilityname": "Bidharpur", "NIN": 7884614558, "latitude": 20.72597, "longitude": 85.78565, "facility_type_standardized": "hsc", "snapped_lon": 85.767366, "snapped_lat": 20.729104 }, "geometry": { "type": "Point", "coordinates": [ 85.767366, 20.729104 ] } },
{ "type": "Feature", "properties": { "Statename": "Odisha", "Districtname": "Dhenkanal", "Subdistrictname": "Balimi", "Blockname": "Hindol", "Healthblockname": "Hindol", "Healthfacilitytype": "health sub centre", "Facilityname": "Barasinga", "NIN": 7111654138, "latitude": 20.72817, "longitude": 85.31141, "facility_type_standardized": "hsc", "snapped_lon": 85.321258, "snapped_lat": 20.710987 }, "geometry": { "type": "Point", "coordinates": [ 85.321258, 20.710987 ] } },
{ "type": "Feature", "properties": { "Statename": "Odisha", "Districtname": "Dhenkanal", "Subdistrictname": "Dhenkanal Sadar", "Blockname": "Dhenkanal Sadar", "Healthblockname": "Dhenkanal", "Healthfacilitytype": "health sub centre", "Facilityname": "Gengutia", "NIN": 7858576650, "latitude": 20.72826, "longitude": 85.55997, "facility_type_standardized": "hsc", "snapped_lon": 85.558345, "snapped_lat": 20.72728 }, "geometry": { "type": "Point", "coordinates": [ 85.558345, 20.72728 ] } },
{ "type": "Feature", "properties": { "Statename": "Odisha", "Districtname": "Dhenkanal", "Subdistrictname": "Dhenkanal Sadar", "Blockname": "Odapada", "Healthblockname": "Odapada", "Healthfacilitytype": "health sub centre", "Facilityname": "Sadasivpur", "NIN": 6724662876, "latitude": 20.73178, "longitude": 85.5317, "facility_type_standardized": "hsc", "snapped_lon": 85.539264, "snapped_lat": 20.728474 }, "geometry": { "type": "Point", "coordinates": [ 85.539264, 20.728474 ] } },
{ "type": "Feature", "properties": { "Statename": "Odisha", "Districtname": "Dhenkanal", "Subdistrictname": "Gandia", "Blockname": "Gondia", "Healthblockname": "Gandia", "Healthfacilitytype": "health sub centre", "Facilityname": "Neulapoi", "NIN": 1836864544, "latitude": 20.73263, "longitude": 85.70921, "facility_type_standardized": "hsc", "snapped_lon": 85.712028, "snapped_lat": 20.733359 }, "geometry": { "type": "Point", "coordinates": [ 85.712028, 20.733359 ] } },
{ "type": "Feature", "properties": { "Statename": "Odisha", "Districtname": "Dhenkanal", "Subdistrictname": "Dhenkanal Sadar", "Blockname": "Dhenkanal Sadar", "Healthblockname": "Dhenkanal", "Healthfacilitytype": "health sub centre", "Facilityname": "Tarava", "NIN": 1823734775, "latitude": 20.73667, "longitude": 85.60619, "facility_type_standardized": "hsc", "snapped_lon": 85.599022, "snapped_lat": 20.740653 }, "geometry": { "type": "Point", "coordinates": [ 85.599022, 20.740653 ] } },
{ "type": "Feature", "properties": { "Statename": "Odisha", "Districtname": "Dhenkanal", "Subdistrictname": "Nihalprasad", "Blockname": "Gondia", "Healthblockname": "Gandia", "Healthfacilitytype": "health sub centre", "Facilityname": "Ratanpur", "NIN": 6238528746, "latitude": 20.73935, "longitude": 86.01647, "facility_type_standardized": "hsc", "snapped_lon": 86.008785, "snapped_lat": 20.746703 }, "geometry": { "type": "Point", "coordinates": [ 86.008785, 20.746703 ] } },
{ "type": "Feature", "properties": { "Statename": "Odisha", "Districtname": "Dhenkanal", "Subdistrictname": "Dhenkanal Sadar", "Blockname": "Odapada", "Healthblockname": "Odapada", "Healthfacilitytype": "health sub centre", "Facilityname": "Baulpur", "NIN": 8281717838, "latitude": 20.74162, "longitude": 85.5153, "facility_type_standardized": "hsc", "snapped_lon": 85.51136, "snapped_lat": 20.731472 }, "geometry": { "type": "Point", "coordinates": [ 85.51136, 20.731472 ] } },
{ "type": "Feature", "properties": { "Statename": "Odisha", "Districtname": "Dhenkanal", "Subdistrictname": "Balimi", "Blockname": "Hindol", "Healthblockname": "Hindol", "Healthfacilitytype": "health sub centre", "Facilityname": "Nua", "NIN": 5671587870, "latitude": 20.74241, "longitude": 85.3353, "facility_type_standardized": "hsc", "snapped_lon": 85.348194, "snapped_lat": 20.728155 }, "geometry": { "type": "Point", "coordinates": [ 85.348194, 20.728155 ] } },
{ "type": "Feature", "properties": { "Statename": "Odisha", "Districtname": "Dhenkanal", "Subdistrictname": "Motunga", "Blockname": "Odapada", "Healthblockname": "Odapada", "Healthfacilitytype": "health sub centre", "Facilityname": "Badalo", "NIN": 3567611151, "latitude": 20.74383, "longitude": 85.36919, "facility_type_standardized": "hsc", "snapped_lon": 85.37464, "snapped_lat": 20.743124 }, "geometry": { "type": "Point", "coordinates": [ 85.37464, 20.743124 ] } },
{ "type": "Feature", "properties": { "Statename": "Odisha", "Districtname": "Dhenkanal", "Subdistrictname": "Nihalprasad", "Blockname": "Gondia", "Healthblockname": "Gandia", "Healthfacilitytype": "health sub centre", "Facilityname": "Laulei", "NIN": 2321132660, "latitude": 20.7514, "longitude": 85.95246, "facility_type_standardized": "hsc", "snapped_lon": 85.957841, "snapped_lat": 20.739926 }, "geometry": { "type": "Point", "coordinates": [ 85.957841, 20.739926 ] } },
{ "type": "Feature", "properties": { "Statename": "Odisha", "Districtname": "Dhenkanal", "Subdistrictname": "Dhenkanal Sadar", "Blockname": "Dhenkanal Sadar", "Healthblockname": "Dhenkanal", "Healthfacilitytype": "health sub centre", "Facilityname": "Chaulia", "NIN": 4458462548, "latitude": 20.75164, "longitude": 85.64833, "facility_type_standardized": "hsc", "snapped_lon": 85.654179, "snapped_lat": 20.752739 }, "geometry": { "type": "Point", "coordinates": [ 85.654179, 20.752739 ] } },
{ "type": "Feature", "properties": { "Statename": "Odisha", "Districtname": "Dhenkanal", "Subdistrictname": "Dhenkanal Sadar", "Blockname": "Dhenkanal Sadar", "Healthblockname": "Dhenkanal", "Healthfacilitytype": "health sub centre", "Facilityname": "Tilapada", "NIN": 8188365574, "latitude": 20.75174, "longitude": 85.62591, "facility_type_standardized": "hsc", "snapped_lon": 85.622551, "snapped_lat": 20.745551 }, "geometry": { "type": "Point", "coordinates": [ 85.622551, 20.745551 ] } },
{ "type": "Feature", "properties": { "Statename": "Odisha", "Districtname": "Dhenkanal", "Subdistrictname": "Bhusan Steel Limited", "Blockname": "Hindol", "Healthblockname": "Hindol", "Healthfacilitytype": "health sub centre", "Facilityname": "Paikapurunakote", "NIN": 5643346777, "latitude": 20.75372, "longitude": 85.24511, "facility_type_standardized": "hsc", "snapped_lon": 85.261214, "snapped_lat": 20.74375 }, "geometry": { "type": "Point", "coordinates": [ 85.261214, 20.74375 ] } },
{ "type": "Feature", "properties": { "Statename": "Odisha", "Districtname": "Dhenkanal", "Subdistrictname": "Nihalprasad", "Blockname": "Gondia", "Healthblockname": "Gandia", "Healthfacilitytype": "health sub centre", "Facilityname": "Bega", "NIN": 4443234812, "latitude": 20.75524, "longitude": 85.96515, "facility_type_standardized": "hsc", "snapped_lon": 85.957841, "snapped_lat": 20.739926 }, "geometry": { "type": "Point", "coordinates": [ 85.957841, 20.739926 ] } },
{ "type": "Feature", "properties": { "Statename": "Odisha", "Districtname": "Dhenkanal", "Subdistrictname": "Motunga", "Blockname": "Odapada", "Healthblockname": "Odapada", "Healthfacilitytype": "health sub centre", "Facilityname": "Gunadei", "NIN": 5427486633, "latitude": 20.75909, "longitude": 85.46793, "facility_type_standardized": "hsc", "snapped_lon": 85.46524, "snapped_lat": 20.746329 }, "geometry": { "type": "Point", "coordinates": [ 85.46524, 20.746329 ] } },
{ "type": "Feature", "properties": { "Statename": "Odisha", "Districtname": "Dhenkanal", "Subdistrictname": "Tumusingha", "Blockname": "Kamakhyanagar", "Healthblockname": "Kamakhyanagar", "Healthfacilitytype": "health sub centre", "Facilityname": "Rai Narsingh Pur", "NIN": 6387681270, "latitude": 20.76069, "longitude": 85.54993, "facility_type_standardized": "hsc", "snapped_lon": 85.552764, "snapped_lat": 20.756102 }, "geometry": { "type": "Point", "coordinates": [ 85.552764, 20.756102 ] } },
{ "type": "Feature", "properties": { "Statename": "Odisha", "Districtname": "Dhenkanal", "Subdistrictname": "Gandia", "Blockname": "Gondia", "Healthblockname": "Gandia", "Healthfacilitytype": "health sub centre", "Facilityname": "Sriram Chandra Pur", "NIN": 8487162276, "latitude": 20.76414, "longitude": 85.79497, "facility_type_standardized": "hsc", "snapped_lon": 85.79753, "snapped_lat": 20.76245 }, "geometry": { "type": "Point", "coordinates": [ 85.79753, 20.76245 ] } },
{ "type": "Feature", "properties": { "Statename": "Odisha", "Districtname": "Dhenkanal", "Subdistrictname": "Tumusingha", "Blockname": "Kamakhyanagar", "Healthblockname": "Kamakhyanagar", "Healthfacilitytype": "health sub centre", "Facilityname": "Kotagara", "NIN": 7128186876, "latitude": 20.76611, "longitude": 85.52914, "facility_type_standardized": "hsc", "snapped_lon": 85.532118, "snapped_lat": 20.764092 }, "geometry": { "type": "Point", "coordinates": [ 85.532118, 20.764092 ] } },
{ "type": "Feature", "properties": { "Statename": "Odisha", "Districtname": "Dhenkanal", "Subdistrictname": "Tumusingha", "Blockname": "Kamakhyanagar", "Healthblockname": "Kamakhyanagar", "Healthfacilitytype": "health sub centre", "Facilityname": "Sogar", "NIN": 1622571261, "latitude": 20.76676, "longitude": 85.59835, "facility_type_standardized": "hsc", "snapped_lon": 85.598397, "snapped_lat": 20.765841 }, "geometry": { "type": "Point", "coordinates": [ 85.598397, 20.765841 ] } },
{ "type": "Feature", "properties": { "Statename": "Odisha", "Districtname": "Dhenkanal", "Subdistrictname": "Motunga", "Blockname": "Odapada", "Healthblockname": "Odapada", "Healthfacilitytype": "health sub centre", "Facilityname": "Nimidha", "NIN": 2478736560, "latitude": 20.76756, "longitude": 85.33527, "facility_type_standardized": "hsc", "snapped_lon": 85.340178, "snapped_lat": 20.772921 }, "geometry": { "type": "Point", "coordinates": [ 85.340178, 20.772921 ] } },
{ "type": "Feature", "properties": { "Statename": "Odisha", "Districtname": "Dhenkanal", "Subdistrictname": "Motunga", "Blockname": "Odapada", "Healthblockname": "Odapada", "Healthfacilitytype": "health sub centre", "Facilityname": "Odapada", "NIN": 4211165339, "latitude": 20.77076, "longitude": 85.43615, "facility_type_standardized": "hsc", "snapped_lon": 85.436519, "snapped_lat": 20.758958 }, "geometry": { "type": "Point", "coordinates": [ 85.436519, 20.758958 ] } },
{ "type": "Feature", "properties": { "Statename": "Odisha", "Districtname": "Dhenkanal", "Subdistrictname": "Gandia", "Blockname": "Gondia", "Healthblockname": "Gandia", "Healthfacilitytype": "health sub centre", "Facilityname": "Mathatentulia", "NIN": 8245642742, "latitude": 20.77233, "longitude": 85.83957, "facility_type_standardized": "hsc", "snapped_lon": 85.819142, "snapped_lat": 20.794591 }, "geometry": { "type": "Point", "coordinates": [ 85.819142, 20.794591 ] } },
{ "type": "Feature", "properties": { "Statename": "Odisha", "Districtname": "Dhenkanal", "Subdistrictname": "Tumusingha", "Blockname": "Kamakhyanagar", "Healthblockname": "Kamakhyanagar", "Healthfacilitytype": "health sub centre", "Facilityname": "Kantioputasahi", "NIN": 8457723420, "latitude": 20.7747, "longitude": 85.51009, "facility_type_standardized": "hsc", "snapped_lon": 85.512828, "snapped_lat": 20.778115 }, "geometry": { "type": "Point", "coordinates": [ 85.512828, 20.778115 ] } },
{ "type": "Feature", "properties": { "Statename": "Odisha", "Districtname": "Dhenkanal", "Subdistrictname": "Tumusingha", "Blockname": "Kamakhyanagar", "Healthblockname": "Kamakhyanagar", "Healthfacilitytype": "health sub centre", "Facilityname": "Guneibili", "NIN": 4677336424, "latitude": 20.77686, "longitude": 85.54887, "facility_type_standardized": "hsc", "snapped_lon": 85.551296, "snapped_lat": 20.776393 }, "geometry": { "type": "Point", "coordinates": [ 85.551296, 20.776393 ] } },
{ "type": "Feature", "properties": { "Statename": "Odisha", "Districtname": "Dhenkanal", "Subdistrictname": "Motunga", "Blockname": "Odapada", "Healthblockname": "Odapada", "Healthfacilitytype": "health sub centre", "Facilityname": "Bangurisingh", "NIN": 1773713886, "latitude": 20.77697, "longitude": 85.42433, "facility_type_standardized": "hsc", "snapped_lon": 85.419796, "snapped_lat": 20.764897 }, "geometry": { "type": "Point", "coordinates": [ 85.419796, 20.764897 ] } },
{ "type": "Feature", "properties": { "Statename": "Odisha", "Districtname": "Dhenkanal", "Subdistrictname": "Balimi", "Blockname": "Hindol", "Healthblockname": "Hindol", "Healthfacilitytype": "health sub centre", "Facilityname": "Galpada", "NIN": 7215773883, "latitude": 20.77733, "longitude": 85.29289, "facility_type_standardized": "hsc", "snapped_lon": 85.312138, "snapped_lat": 20.785418 }, "geometry": { "type": "Point", "coordinates": [ 85.312138, 20.785418 ] } },
{ "type": "Feature", "properties": { "Statename": "Odisha", "Districtname": "Dhenkanal", "Subdistrictname": "Bhusan Steel Limited", "Blockname": "Hindol", "Healthblockname": "Hindol", "Healthfacilitytype": "health sub centre", "Facilityname": "Khaliberana", "NIN": 8633852671, "latitude": 20.77942, "longitude": 85.23763, "facility_type_standardized": "hsc", "snapped_lon": 85.23866, "snapped_lat": 20.783582 }, "geometry": { "type": "Point", "coordinates": [ 85.23866, 20.783582 ] } },
{ "type": "Feature", "properties": { "Statename": "Odisha", "Districtname": "Dhenkanal", "Subdistrictname": "Motunga", "Blockname": "Odapada", "Healthblockname": "Odapada", "Healthfacilitytype": "health sub centre", "Facilityname": "Balaramprasad", "NIN": 3822757740, "latitude": 20.78276, "longitude": 85.39959, "facility_type_standardized": "hsc", "snapped_lon": 85.40126, "snapped_lat": 20.772421 }, "geometry": { "type": "Point", "coordinates": [ 85.40126, 20.772421 ] } },
{ "type": "Feature", "properties": { "Statename": "Odisha", "Districtname": "Dhenkanal", "Subdistrictname": "Gandia", "Blockname": "Gondia", "Healthblockname": "Gandia", "Healthfacilitytype": "health sub centre", "Facilityname": "Santhapur", "NIN": 8657843226, "latitude": 20.78896, "longitude": 85.76043, "facility_type_standardized": "hsc", "snapped_lon": 85.761809, "snapped_lat": 20.790025 }, "geometry": { "type": "Point", "coordinates": [ 85.761809, 20.790025 ] } },
{ "type": "Feature", "properties": { "Statename": "Odisha", "Districtname": "Dhenkanal", "Subdistrictname": "Gandia", "Blockname": "Gondia", "Healthblockname": "Gandia", "Healthfacilitytype": "health sub centre", "Facilityname": "Kabera Madhapur", "NIN": 1533114235, "latitude": 20.79059, "longitude": 85.73854, "facility_type_standardized": "hsc", "snapped_lon": 85.728126, "snapped_lat": 20.794634 }, "geometry": { "type": "Point", "coordinates": [ 85.728126, 20.794634 ] } },
{ "type": "Feature", "properties": { "Statename": "Odisha", "Districtname": "Dhenkanal", "Subdistrictname": "Gandia", "Blockname": "Gondia", "Healthblockname": "Gandia", "Healthfacilitytype": "health sub centre", "Facilityname": "Joranda", "NIN": 4486666656, "latitude": 20.79332, "longitude": 85.72895, "facility_type_standardized": "hsc", "snapped_lon": 85.728126, "snapped_lat": 20.794634 }, "geometry": { "type": "Point", "coordinates": [ 85.728126, 20.794634 ] } },
{ "type": "Feature", "properties": { "Statename": "Odisha", "Districtname": "Dhenkanal", "Subdistrictname": "Tumusingha", "Blockname": "Kamakhyanagar", "Healthblockname": "Kamakhyanagar", "Healthfacilitytype": "health sub centre", "Facilityname": "Tumusinga", "NIN": 5825486284, "latitude": 20.79436, "longitude": 85.48196, "facility_type_standardized": "hsc", "snapped_lon": 85.480159, "snapped_lat": 20.803783 }, "geometry": { "type": "Point", "coordinates": [ 85.480159, 20.803783 ] } },
{ "type": "Feature", "properties": { "Statename": "Odisha", "Districtname": "Dhenkanal", "Subdistrictname": "Dhenkanal Sadar", "Blockname": "Dhenkanal Sadar", "Healthblockname": "Dhenkanal", "Healthfacilitytype": "health sub centre", "Facilityname": "Ratnapur", "NIN": 3875478210, "latitude": 20.79575, "longitude": 85.63549, "facility_type_standardized": "hsc", "snapped_lon": 85.633887, "snapped_lat": 20.793307 }, "geometry": { "type": "Point", "coordinates": [ 85.633887, 20.793307 ] } },
{ "type": "Feature", "properties": { "Statename": "Odisha", "Districtname": "Dhenkanal", "Subdistrictname": "Tumusingha", "Blockname": "Kamakhyanagar", "Healthblockname": "Kamakhyanagar", "Healthfacilitytype": "health sub centre", "Facilityname": "Kantapal", "NIN": 4328836657, "latitude": 20.799, "longitude": 85.45522, "facility_type_standardized": "hsc", "snapped_lon": 85.449608, "snapped_lat": 20.796479 }, "geometry": { "type": "Point", "coordinates": [ 85.449608, 20.796479 ] } },
{ "type": "Feature", "properties": { "Statename": "Odisha", "Districtname": "Dhenkanal", "Subdistrictname": "Nihalprasad", "Blockname": "Gondia", "Healthblockname": "Gandia", "Healthfacilitytype": "health sub centre", "Facilityname": "Nihalprasad", "NIN": 2132415569, "latitude": 20.79901, "longitude": 85.9898, "facility_type_standardized": "hsc", "snapped_lon": 85.989735, "snapped_lat": 20.797204 }, "geometry": { "type": "Point", "coordinates": [ 85.989735, 20.797204 ] } },
{ "type": "Feature", "properties": { "Statename": "Odisha", "Districtname": "Dhenkanal", "Subdistrictname": "Dhenkanal Sadar", "Blockname": "Dhenkanal Sadar", "Healthblockname": "Dhenkanal", "Healthfacilitytype": "health sub centre", "Facilityname": "Banasingha", "NIN": 5258652113, "latitude": 20.80213, "longitude": 85.64317, "facility_type_standardized": "hsc", "snapped_lon": 85.651539, "snapped_lat": 20.80322 }, "geometry": { "type": "Point", "coordinates": [ 85.651539, 20.80322 ] } },
{ "type": "Feature", "properties": { "Statename": "Odisha", "Districtname": "Dhenkanal", "Subdistrictname": "Tumusingha", "Blockname": "Kamakhyanagar", "Healthblockname": "Kamakhyanagar", "Healthfacilitytype": "health sub centre", "Facilityname": "Kantiokateni", "NIN": 4427452380, "latitude": 20.8022, "longitude": 85.50458, "facility_type_standardized": "hsc", "snapped_lon": 85.512366, "snapped_lat": 20.786595 }, "geometry": { "type": "Point", "coordinates": [ 85.512366, 20.786595 ] } },
{ "type": "Feature", "properties": { "Statename": "Odisha", "Districtname": "Dhenkanal", "Subdistrictname": "Gandia", "Blockname": "Gondia", "Healthblockname": "Gandia", "Healthfacilitytype": "health sub centre", "Facilityname": "Sadangi", "NIN": 8452366688, "latitude": 20.80602, "longitude": 85.84277, "facility_type_standardized": "hsc", "snapped_lon": 85.835734, "snapped_lat": 20.810916 }, "geometry": { "type": "Point", "coordinates": [ 85.835734, 20.810916 ] } },
{ "type": "Feature", "properties": { "Statename": "Odisha", "Districtname": "Dhenkanal", "Subdistrictname": "Motunga", "Blockname": "Odapada", "Healthblockname": "Odapada", "Healthfacilitytype": "health sub centre", "Facilityname": "Bido", "NIN": 6218238787, "latitude": 20.80612, "longitude": 85.34296, "facility_type_standardized": "hsc", "snapped_lon": 85.34899, "snapped_lat": 20.817382 }, "geometry": { "type": "Point", "coordinates": [ 85.34899, 20.817382 ] } },
{ "type": "Feature", "properties": { "Statename": "Odisha", "Districtname": "Dhenkanal", "Subdistrictname": "Nihalprasad", "Blockname": "Gondia", "Healthblockname": "Gandia", "Healthfacilitytype": "health sub centre", "Facilityname": "Khandabandha", "NIN": 5546474379, "latitude": 20.8084, "longitude": 85.92537, "facility_type_standardized": "hsc", "snapped_lon": 85.919583, "snapped_lat": 20.800629 }, "geometry": { "type": "Point", "coordinates": [ 85.919583, 20.800629 ] } },
{ "type": "Feature", "properties": { "Statename": "Odisha", "Districtname": "Dhenkanal", "Subdistrictname": "Gandia", "Blockname": "Gondia", "Healthblockname": "Gandia", "Healthfacilitytype": "health sub centre", "Facilityname": "Kaluria", "NIN": 3223161419, "latitude": 20.80973, "longitude": 85.6777, "facility_type_standardized": "hsc", "snapped_lon": 85.679508, "snapped_lat": 20.81049 }, "geometry": { "type": "Point", "coordinates": [ 85.679508, 20.81049 ] } },
{ "type": "Feature", "properties": { "Statename": "Odisha", "Districtname": "Dhenkanal", "Subdistrictname": "Nihalprasad", "Blockname": "Gondia", "Healthblockname": "Gandia", "Healthfacilitytype": "health sub centre", "Facilityname": "Karanda", "NIN": 3433382821, "latitude": 20.81007, "longitude": 85.95667, "facility_type_standardized": "hsc", "snapped_lon": 85.959662, "snapped_lat": 20.801051 }, "geometry": { "type": "Point", "coordinates": [ 85.959662, 20.801051 ] } },
{ "type": "Feature", "properties": { "Statename": "Odisha", "Districtname": "Dhenkanal", "Subdistrictname": "Gandia", "Blockname": "Gondia", "Healthblockname": "Gandia", "Healthfacilitytype": "health sub centre", "Facilityname": "Khankira", "NIN": 7278671347, "latitude": 20.81015, "longitude": 85.72417, "facility_type_standardized": "hsc", "snapped_lon": 85.723771, "snapped_lat": 20.810681 }, "geometry": { "type": "Point", "coordinates": [ 85.723771, 20.810681 ] } },
{ "type": "Feature", "properties": { "Statename": "Odisha", "Districtname": "Dhenkanal", "Subdistrictname": "Tumusingha", "Blockname": "Kamakhyanagar", "Healthblockname": "Kamakhyanagar", "Healthfacilitytype": "health sub centre", "Facilityname": "Ichhabatipur", "NIN": 1548833340, "latitude": 20.81306, "longitude": 85.59793, "facility_type_standardized": "hsc", "snapped_lon": 85.589483, "snapped_lat": 20.81536 }, "geometry": { "type": "Point", "coordinates": [ 85.589483, 20.81536 ] } },
{ "type": "Feature", "properties": { "Statename": "Odisha", "Districtname": "Dhenkanal", "Subdistrictname": "Gandia", "Blockname": "Gondia", "Healthblockname": "Gandia", "Healthfacilitytype": "health sub centre", "Facilityname": "Raitala", "NIN": 3334443367, "latitude": 20.81546, "longitude": 85.77826, "facility_type_standardized": "hsc", "snapped_lon": 85.781647, "snapped_lat": 20.80364 }, "geometry": { "type": "Point", "coordinates": [ 85.781647, 20.80364 ] } },
{ "type": "Feature", "properties": { "Statename": "Odisha", "Districtname": "Dhenkanal", "Subdistrictname": "Gandia", "Blockname": "Gondia", "Healthblockname": "Gandia", "Healthfacilitytype": "health sub centre", "Facilityname": "Karamul", "NIN": 5344584759, "latitude": 20.8171, "longitude": 85.6926, "facility_type_standardized": "hsc", "snapped_lon": 85.679903, "snapped_lat": 20.809943 }, "geometry": { "type": "Point", "coordinates": [ 85.679903, 20.809943 ] } },
{ "type": "Feature", "properties": { "Statename": "Odisha", "Districtname": "Dhenkanal", "Subdistrictname": "Motunga", "Blockname": "Odapada", "Healthblockname": "Odapada", "Healthfacilitytype": "health sub centre", "Facilityname": "Khadagprasad", "NIN": 1814858377, "latitude": 20.81743, "longitude": 85.30532, "facility_type_standardized": "hsc", "snapped_lon": 85.304878, "snapped_lat": 20.819113 }, "geometry": { "type": "Point", "coordinates": [ 85.304878, 20.819113 ] } },
{ "type": "Feature", "properties": { "Statename": "Odisha", "Districtname": "Dhenkanal", "Subdistrictname": "Parajang", "Blockname": "Parjang", "Healthblockname": "Parajanga", "Healthfacilitytype": "health sub centre", "Facilityname": "Roda", "NIN": 4172745483, "latitude": 20.8204, "longitude": 85.35328, "facility_type_standardized": "hsc", "snapped_lon": 85.355203, "snapped_lat": 20.819358 }, "geometry": { "type": "Point", "coordinates": [ 85.355203, 20.819358 ] } },
{ "type": "Feature", "properties": { "Statename": "Odisha", "Districtname": "Dhenkanal", "Subdistrictname": "Tumusingha", "Blockname": "Kamakhyanagar", "Healthblockname": "Kamakhyanagar", "Healthfacilitytype": "health sub centre", "Facilityname": "Analaberini", "NIN": 8734163853, "latitude": 20.82171, "longitude": 85.54907, "facility_type_standardized": "hsc", "snapped_lon": 85.550624, "snapped_lat": 20.823454 }, "geometry": { "type": "Point", "coordinates": [ 85.550624, 20.823454 ] } },
{ "type": "Feature", "properties": { "Statename": "Odisha", "Districtname": "Dhenkanal", "Subdistrictname": "Motunga", "Blockname": "Odapada", "Healthblockname": "Odapada", "Healthfacilitytype": "health sub centre", "Facilityname": "Kurunti", "NIN": 6187368367, "latitude": 20.83063, "longitude": 85.28768, "facility_type_standardized": "hsc", "snapped_lon": 85.287825, "snapped_lat": 20.826224 }, "geometry": { "type": "Point", "coordinates": [ 85.287825, 20.826224 ] } },
{ "type": "Feature", "properties": { "Statename": "Odisha", "Districtname": "Dhenkanal", "Subdistrictname": "Nihalprasad", "Blockname": "Gondia", "Healthblockname": "Gandia", "Healthfacilitytype": "health sub centre", "Facilityname": "Pingua", "NIN": 4275584730, "latitude": 20.8323, "longitude": 85.95083, "facility_type_standardized": "hsc", "snapped_lon": 85.954055, "snapped_lat": 20.840842 }, "geometry": { "type": "Point", "coordinates": [ 85.954055, 20.840842 ] } },
{ "type": "Feature", "properties": { "Statename": "Odisha", "Districtname": "Dhenkanal", "Subdistrictname": "Kamakshyanagar", "Blockname": "Bhuban", "Healthblockname": "Bhuban", "Healthfacilitytype": "health sub centre", "Facilityname": "Goradia", "NIN": 8738625188, "latitude": 20.83499, "longitude": 85.66757, "facility_type_standardized": "hsc", "snapped_lon": 85.65879, "snapped_lat": 20.84541 }, "geometry": { "type": "Point", "coordinates": [ 85.65879, 20.84541 ] } },
{ "type": "Feature", "properties": { "Statename": "Odisha", "Districtname": "Dhenkanal", "Subdistrictname": "Nihalprasad", "Blockname": "Gondia", "Healthblockname": "Gandia", "Healthfacilitytype": "health sub centre", "Facilityname": "Kasipur", "NIN": 3236872861, "latitude": 20.83548, "longitude": 85.90788, "facility_type_standardized": "hsc", "snapped_lon": 85.908384, "snapped_lat": 20.823455 }, "geometry": { "type": "Point", "coordinates": [ 85.908384, 20.823455 ] } },
{ "type": "Feature", "properties": { "Statename": "Odisha", "Districtname": "Dhenkanal", "Subdistrictname": "Tumusingha", "Blockname": "Kamakhyanagar", "Healthblockname": "Kamakhyanagar", "Healthfacilitytype": "health sub centre", "Facilityname": "Tangar", "NIN": 7816483627, "latitude": 20.83951, "longitude": 85.46031, "facility_type_standardized": "hsc", "snapped_lon": 85.450684, "snapped_lat": 20.815911 }, "geometry": { "type": "Point", "coordinates": [ 85.450684, 20.815911 ] } },
{ "type": "Feature", "properties": { "Statename": "Odisha", "Districtname": "Dhenkanal", "Subdistrictname": "Parajang", "Blockname": "Parjang", "Healthblockname": "Parajanga", "Healthfacilitytype": "health sub centre", "Facilityname": "Sanda", "NIN": 1218112827, "latitude": 20.83984, "longitude": 85.40063, "facility_type_standardized": "hsc", "snapped_lon": 85.408857, "snapped_lat": 20.83749 }, "geometry": { "type": "Point", "coordinates": [ 85.408857, 20.83749 ] } },
{ "type": "Feature", "properties": { "Statename": "Odisha", "Districtname": "Dhenkanal", "Subdistrictname": "Gandia", "Blockname": "Gondia", "Healthblockname": "Gandia", "Healthfacilitytype": "health sub centre", "Facilityname": "Mandar", "NIN": 7716883355, "latitude": 20.84494, "longitude": 85.85958, "facility_type_standardized": "hsc", "snapped_lon": 85.855885, "snapped_lat": 20.844873 }, "geometry": { "type": "Point", "coordinates": [ 85.855885, 20.844873 ] } },
{ "type": "Feature", "properties": { "Statename": "Odisha", "Districtname": "Dhenkanal", "Subdistrictname": "Parajang", "Blockname": "Parjang", "Healthblockname": "Parajanga", "Healthfacilitytype": "health sub centre", "Facilityname": "Kumusi", "NIN": 3318817834, "latitude": 20.84654, "longitude": 85.37602, "facility_type_standardized": "hsc", "snapped_lon": 85.375742, "snapped_lat": 20.84833 }, "geometry": { "type": "Point", "coordinates": [ 85.375742, 20.84833 ] } },
{ "type": "Feature", "properties": { "Statename": "Odisha", "Districtname": "Dhenkanal", "Subdistrictname": "Parajang", "Blockname": "Parjang", "Healthblockname": "Parajanga", "Healthfacilitytype": "health sub centre", "Facilityname": "Patrapada", "NIN": 2837533443, "latitude": 20.8492, "longitude": 85.34196, "facility_type_standardized": "hsc", "snapped_lon": 85.333767, "snapped_lat": 20.847936 }, "geometry": { "type": "Point", "coordinates": [ 85.333767, 20.847936 ] } },
{ "type": "Feature", "properties": { "Statename": "Odisha", "Districtname": "Dhenkanal", "Subdistrictname": "Kamakshyanagar", "Blockname": "Bhuban", "Healthblockname": "Bhuban", "Healthfacilitytype": "health sub centre", "Facilityname": "Jiral", "NIN": 7344223867, "latitude": 20.85957, "longitude": 85.67385, "facility_type_standardized": "hsc", "snapped_lon": 85.675088, "snapped_lat": 20.861644 }, "geometry": { "type": "Point", "coordinates": [ 85.675088, 20.861644 ] } },
{ "type": "Feature", "properties": { "Statename": "Odisha", "Districtname": "Dhenkanal", "Subdistrictname": "Bhuban", "Blockname": "Bhuban", "Healthblockname": "Bhuban", "Healthfacilitytype": "health sub centre", "Facilityname": "Mahulapal", "NIN": 8722845180, "latitude": 20.86651, "longitude": 85.89273, "facility_type_standardized": "hsc", "snapped_lon": 85.891748, "snapped_lat": 20.873254 }, "geometry": { "type": "Point", "coordinates": [ 85.891748, 20.873254 ] } },
{ "type": "Feature", "properties": { "Statename": "Odisha", "Districtname": "Dhenkanal", "Subdistrictname": "Parajang", "Blockname": "Parjang", "Healthblockname": "Parajanga", "Healthfacilitytype": "health sub centre", "Facilityname": "Lodhani", "NIN": 3525223164, "latitude": 20.87124, "longitude": 85.31812, "facility_type_standardized": "hsc", "snapped_lon": 85.323092, "snapped_lat": 20.8827 }, "geometry": { "type": "Point", "coordinates": [ 85.323092, 20.8827 ] } },
{ "type": "Feature", "properties": { "Statename": "Odisha", "Districtname": "Dhenkanal", "Subdistrictname": "Kamakshyanagar", "Blockname": "Bhuban", "Healthblockname": "Bhuban", "Healthfacilitytype": "health sub centre", "Facilityname": "Arakhapal", "NIN": 4676276738, "latitude": 20.87335, "longitude": 85.68935, "facility_type_standardized": "hsc", "snapped_lon": 85.675067, "snapped_lat": 20.861674 }, "geometry": { "type": "Point", "coordinates": [ 85.675067, 20.861674 ] } },
{ "type": "Feature", "properties": { "Statename": "Odisha", "Districtname": "Dhenkanal", "Subdistrictname": "Kamakshyanagar", "Blockname": "Kamakhyanagar", "Healthblockname": "Kamakhyanagar", "Healthfacilitytype": "health sub centre", "Facilityname": "Bankual", "NIN": 8264584262, "latitude": 20.87424, "longitude": 85.66141, "facility_type_standardized": "hsc", "snapped_lon": 85.6618, "snapped_lat": 20.864742 }, "geometry": { "type": "Point", "coordinates": [ 85.6618, 20.864742 ] } },
{ "type": "Feature", "properties": { "Statename": "Odisha", "Districtname": "Dhenkanal", "Subdistrictname": "Bhuban", "Blockname": "Bhuban", "Healthblockname": "Bhuban", "Healthfacilitytype": "health sub centre", "Facilityname": "Marthapur", "NIN": 5674686729, "latitude": 20.87429, "longitude": 85.72629, "facility_type_standardized": "hsc", "snapped_lon": 85.714393, "snapped_lat": 20.870145 }, "geometry": { "type": "Point", "coordinates": [ 85.714393, 20.870145 ] } },
{ "type": "Feature", "properties": { "Statename": "Odisha", "Districtname": "Dhenkanal", "Subdistrictname": "Bhusan Steel Limited", "Blockname": "Odapada", "Healthblockname": "Odapada", "Healthfacilitytype": "health sub centre", "Facilityname": "Kamalanga", "NIN": 4275148478, "latitude": 20.87768, "longitude": 85.27575, "facility_type_standardized": "hsc", "snapped_lon": 85.276473, "snapped_lat": 20.871115 }, "geometry": { "type": "Point", "coordinates": [ 85.276473, 20.871115 ] } },
{ "type": "Feature", "properties": { "Statename": "Odisha", "Districtname": "Dhenkanal", "Subdistrictname": "Bhuban", "Blockname": "Bhuban", "Healthblockname": "Bhuban", "Healthfacilitytype": "health sub centre", "Facilityname": "Kingol", "NIN": 3378854222, "latitude": 20.88078, "longitude": 85.79231, "facility_type_standardized": "hsc", "snapped_lon": 85.783995, "snapped_lat": 20.882341 }, "geometry": { "type": "Point", "coordinates": [ 85.783995, 20.882341 ] } },
{ "type": "Feature", "properties": { "Statename": "Odisha", "Districtname": "Dhenkanal", "Subdistrictname": "Bhuban", "Blockname": "Bhuban", "Healthblockname": "Bhuban", "Healthfacilitytype": "health sub centre", "Facilityname": "Ektaali", "NIN": 8528813432, "latitude": 20.8813, "longitude": 85.87571, "facility_type_standardized": "hsc", "snapped_lon": 85.874323, "snapped_lat": 20.881761 }, "geometry": { "type": "Point", "coordinates": [ 85.874323, 20.881761 ] } },
{ "type": "Feature", "properties": { "Statename": "Odisha", "Districtname": "Dhenkanal", "Subdistrictname": "Parajang", "Blockname": "Parjang", "Healthblockname": "Parajanga", "Healthfacilitytype": "health sub centre", "Facilityname": "Kandarasingh", "NIN": 8753446320, "latitude": 20.8859, "longitude": 85.3056, "facility_type_standardized": "hsc", "snapped_lon": 85.316737, "snapped_lat": 20.891326 }, "geometry": { "type": "Point", "coordinates": [ 85.316737, 20.891326 ] } },
{ "type": "Feature", "properties": { "Statename": "Odisha", "Districtname": "Dhenkanal", "Subdistrictname": "Kamakshyanagar", "Blockname": "Kamakhyanagar", "Healthblockname": "Kamakhyanagar", "Healthfacilitytype": "health sub centre", "Facilityname": "Mahulpal", "NIN": 6727268465, "latitude": 20.88658, "longitude": 85.53543, "facility_type_standardized": "hsc", "snapped_lon": 85.529591, "snapped_lat": 20.883218 }, "geometry": { "type": "Point", "coordinates": [ 85.529591, 20.883218 ] } },
{ "type": "Feature", "properties": { "Statename": "Odisha", "Districtname": "Dhenkanal", "Subdistrictname": "Kamakshyanagar", "Blockname": "Kamakhyanagar", "Healthblockname": "Kamakhyanagar", "Healthfacilitytype": "health sub centre", "Facilityname": "Jagannathpur", "NIN": 2865237842, "latitude": 20.89013, "longitude": 85.63742, "facility_type_standardized": "hsc", "snapped_lon": 85.634769, "snapped_lat": 20.900973 }, "geometry": { "type": "Point", "coordinates": [ 85.634769, 20.900973 ] } },
{ "type": "Feature", "properties": { "Statename": "Odisha", "Districtname": "Dhenkanal", "Subdistrictname": "Kamakshyanagar", "Blockname": "Kamakhyanagar", "Healthblockname": "Kamakhyanagar", "Healthfacilitytype": "health sub centre", "Facilityname": "Kangeilo", "NIN": 1747241881, "latitude": 20.89159, "longitude": 85.61056, "facility_type_standardized": "hsc", "snapped_lon": 85.613523, "snapped_lat": 20.887477 }, "geometry": { "type": "Point", "coordinates": [ 85.613523, 20.887477 ] } },
{ "type": "Feature", "properties": { "Statename": "Odisha", "Districtname": "Dhenkanal", "Subdistrictname": "Bhuban", "Blockname": "Bhuban", "Healthblockname": "Bhuban", "Healthfacilitytype": "health sub centre", "Facilityname": "Jamunakote", "NIN": 1774742462, "latitude": 20.89592, "longitude": 85.71666, "facility_type_standardized": "hsc", "snapped_lon": 85.710948, "snapped_lat": 20.895262 }, "geometry": { "type": "Point", "coordinates": [ 85.710948, 20.895262 ] } },
{ "type": "Feature", "properties": { "Statename": "Odisha", "Districtname": "Dhenkanal", "Subdistrictname": "Kamakshyanagar", "Blockname": "Bhuban", "Healthblockname": "Bhuban", "Healthfacilitytype": "health sub centre", "Facilityname": "Mathakargola", "NIN": 3683873610, "latitude": 20.89597, "longitude": 85.68794, "facility_type_standardized": "hsc", "snapped_lon": 85.684207, "snapped_lat": 20.902039 }, "geometry": { "type": "Point", "coordinates": [ 85.684207, 20.902039 ] } },
{ "type": "Feature", "properties": { "Statename": "Odisha", "Districtname": "Dhenkanal", "Subdistrictname": "Bhuban", "Blockname": "Bhuban", "Healthblockname": "Bhuban", "Healthfacilitytype": "health sub centre", "Facilityname": "Surapratapapur", "NIN": 4574146470, "latitude": 20.9014, "longitude": 85.74257, "facility_type_standardized": "hsc", "snapped_lon": 85.739787, "snapped_lat": 20.921474 }, "geometry": { "type": "Point", "coordinates": [ 85.739787, 20.921474 ] } },
{ "type": "Feature", "properties": { "Statename": "Odisha", "Districtname": "Dhenkanal", "Subdistrictname": "Parajang", "Blockname": "Parjang", "Healthblockname": "Parajanga", "Healthfacilitytype": "health sub centre", "Facilityname": "Basoi", "NIN": 5424733771, "latitude": 20.90686, "longitude": 85.39024, "facility_type_standardized": "hsc", "snapped_lon": 85.385096, "snapped_lat": 20.941529 }, "geometry": { "type": "Point", "coordinates": [ 85.385096, 20.941529 ] } },
{ "type": "Feature", "properties": { "Statename": "Odisha", "Districtname": "Dhenkanal", "Subdistrictname": "Kamakshyanagar", "Blockname": "Kamakhyanagar", "Healthblockname": "Kamakhyanagar", "Healthfacilitytype": "health sub centre", "Facilityname": "Kadua", "NIN": 4776854137, "latitude": 20.91112, "longitude": 85.51753, "facility_type_standardized": "hsc", "snapped_lon": 85.517578, "snapped_lat": 20.913416 }, "geometry": { "type": "Point", "coordinates": [ 85.517578, 20.913416 ] } },
{ "type": "Feature", "properties": { "Statename": "Odisha", "Districtname": "Dhenkanal", "Subdistrictname": "Kamakshyanagar", "Blockname": "Kamakhyanagar", "Healthblockname": "Kamakhyanagar", "Healthfacilitytype": "health sub centre", "Facilityname": "Baisinga", "NIN": 4885261778, "latitude": 20.91595, "longitude": 85.5913, "facility_type_standardized": "hsc", "snapped_lon": 85.590058, "snapped_lat": 20.923065 }, "geometry": { "type": "Point", "coordinates": [ 85.590058, 20.923065 ] } },
{ "type": "Feature", "properties": { "Statename": "Odisha", "Districtname": "Dhenkanal", "Subdistrictname": "Bhuban", "Blockname": "Bhuban", "Healthblockname": "Bhuban", "Healthfacilitytype": "health sub centre", "Facilityname": "G.N. Prasad", "NIN": 4281717480, "latitude": 20.91862, "longitude": 85.7679, "facility_type_standardized": "hsc", "snapped_lon": 85.767122, "snapped_lat": 20.92265 }, "geometry": { "type": "Point", "coordinates": [ 85.767122, 20.92265 ] } },
{ "type": "Feature", "properties": { "Statename": "Odisha", "Districtname": "Dhenkanal", "Subdistrictname": "Parajang", "Blockname": "Parjang", "Healthblockname": "Parajanga", "Healthfacilitytype": "health sub centre", "Facilityname": "Parjanga", "NIN": 1586667485, "latitude": 20.91959, "longitude": 85.32557, "facility_type_standardized": "hsc", "snapped_lon": 85.326692, "snapped_lat": 20.928495 }, "geometry": { "type": "Point", "coordinates": [ 85.326692, 20.928495 ] } },
{ "type": "Feature", "properties": { "Statename": "Odisha", "Districtname": "Dhenkanal", "Subdistrictname": "Bhuban", "Blockname": "Bhuban", "Healthblockname": "Bhuban", "Healthfacilitytype": "health sub centre", "Facilityname": "Balibo", "NIN": 6517222169, "latitude": 20.92033, "longitude": 85.87823, "facility_type_standardized": "hsc", "snapped_lon": 85.875562, "snapped_lat": 20.921524 }, "geometry": { "type": "Point", "coordinates": [ 85.875562, 20.921524 ] } },
{ "type": "Feature", "properties": { "Statename": "Odisha", "Districtname": "Dhenkanal", "Subdistrictname": "Kamakshyanagar", "Blockname": "Kamakhyanagar", "Healthblockname": "Kamakhyanagar", "Healthfacilitytype": "health sub centre", "Facilityname": "Badasuanlo", "NIN": 4736466360, "latitude": 20.92272, "longitude": 85.63257, "facility_type_standardized": "hsc", "snapped_lon": 85.63103, "snapped_lat": 20.920337 }, "geometry": { "type": "Point", "coordinates": [ 85.63103, 20.920337 ] } },
{ "type": "Feature", "properties": { "Statename": "Odisha", "Districtname": "Dhenkanal", "Subdistrictname": "Parajang", "Blockname": "Parjang", "Healthblockname": "Parajanga", "Healthfacilitytype": "health sub centre", "Facilityname": "Barihapur", "NIN": 3386475630, "latitude": 20.92487, "longitude": 85.35091, "facility_type_standardized": "hsc", "snapped_lon": 85.358582, "snapped_lat": 20.92994 }, "geometry": { "type": "Point", "coordinates": [ 85.358582, 20.92994 ] } },
{ "type": "Feature", "properties": { "Statename": "Odisha", "Districtname": "Dhenkanal", "Subdistrictname": "Bhuban", "Blockname": "Bhuban", "Healthblockname": "Bhuban", "Healthfacilitytype": "health sub centre", "Facilityname": "Dayanbil", "NIN": 1322113372, "latitude": 20.92549, "longitude": 85.74174, "facility_type_standardized": "hsc", "snapped_lon": 85.739716, "snapped_lat": 20.921621 }, "geometry": { "type": "Point", "coordinates": [ 85.739716, 20.921621 ] } },
{ "type": "Feature", "properties": { "Statename": "Odisha", "Districtname": "Dhenkanal", "Subdistrictname": "Parajang", "Blockname": "Parjang", "Healthblockname": "Parajanga", "Healthfacilitytype": "health sub centre", "Facilityname": "Saranga", "NIN": 1817515552, "latitude": 20.92737, "longitude": 85.26231, "facility_type_standardized": "hsc", "snapped_lon": 85.260382, "snapped_lat": 20.924726 }, "geometry": { "type": "Point", "coordinates": [ 85.260382, 20.924726 ] } },
{ "type": "Feature", "properties": { "Statename": "Odisha", "Districtname": "Dhenkanal", "Subdistrictname": "Kamakshyanagar", "Blockname": "Kamakhyanagar", "Healthblockname": "Kamakhyanagar", "Healthfacilitytype": "health sub centre", "Facilityname": "Kanapura", "NIN": 7738154678, "latitude": 20.9428, "longitude": 85.55064, "facility_type_standardized": "hsc", "snapped_lon": 85.558533, "snapped_lat": 20.947999 }, "geometry": { "type": "Point", "coordinates": [ 85.558533, 20.947999 ] } },
{ "type": "Feature", "properties": { "Statename": "Odisha", "Districtname": "Dhenkanal", "Subdistrictname": "Bhuban", "Blockname": "Bhuban", "Healthblockname": "Bhuban", "Healthfacilitytype": "health sub centre", "Facilityname": "Baruan", "NIN": 4573263847, "latitude": 20.94364, "longitude": 85.76663, "facility_type_standardized": "hsc", "snapped_lon": 85.767122, "snapped_lat": 20.92265 }, "geometry": { "type": "Point", "coordinates": [ 85.767122, 20.92265 ] } },
{ "type": "Feature", "properties": { "Statename": "Odisha", "Districtname": "Dhenkanal", "Subdistrictname": "Parajang", "Blockname": "Parjang", "Healthblockname": "Parajanga", "Healthfacilitytype": "health sub centre", "Facilityname": "Chandapur", "NIN": 4355131311, "latitude": 20.94509, "longitude": 85.3609, "facility_type_standardized": "hsc", "snapped_lon": 85.361922, "snapped_lat": 20.932006 }, "geometry": { "type": "Point", "coordinates": [ 85.361922, 20.932006 ] } },
{ "type": "Feature", "properties": { "Statename": "Odisha", "Districtname": "Dhenkanal", "Subdistrictname": "Kamakshyanagar", "Blockname": "Kamakhyanagar", "Healthblockname": "Kamakhyanagar", "Healthfacilitytype": "health sub centre", "Facilityname": "Khatakhura", "NIN": 7548145684, "latitude": 20.94558, "longitude": 85.61899, "facility_type_standardized": "hsc", "snapped_lon": 85.608296, "snapped_lat": 20.933173 }, "geometry": { "type": "Point", "coordinates": [ 85.608296, 20.933173 ] } },
{ "type": "Feature", "properties": { "Statename": "Odisha", "Districtname": "Dhenkanal", "Subdistrictname": "Parajang", "Blockname": "Parjang", "Healthblockname": "Parajanga", "Healthfacilitytype": "health sub centre", "Facilityname": "Badajhara", "NIN": 8787484842, "latitude": 20.946, "longitude": 85.38637, "facility_type_standardized": "hsc", "snapped_lon": 85.385096, "snapped_lat": 20.941529 }, "geometry": { "type": "Point", "coordinates": [ 85.385096, 20.941529 ] } },
{ "type": "Feature", "properties": { "Statename": "Odisha", "Districtname": "Dhenkanal", "Subdistrictname": "Bhuban", "Blockname": "Bhuban", "Healthblockname": "Bhuban", "Healthfacilitytype": "health sub centre", "Facilityname": "Dhalapada", "NIN": 3528637477, "latitude": 20.94769, "longitude": 85.78133, "facility_type_standardized": "hsc", "snapped_lon": 85.787455, "snapped_lat": 20.925297 }, "geometry": { "type": "Point", "coordinates": [ 85.787455, 20.925297 ] } },
{ "type": "Feature", "properties": { "Statename": "Odisha", "Districtname": "Dhenkanal", "Subdistrictname": "Kamakshyanagar", "Blockname": "Kamakhyanagar", "Healthblockname": "Kamakhyanagar", "Healthfacilitytype": "health sub centre", "Facilityname": "Sibalaposi", "NIN": 6857536749, "latitude": 20.95019, "longitude": 85.48571, "facility_type_standardized": "hsc", "snapped_lon": 85.487587, "snapped_lat": 20.938284 }, "geometry": { "type": "Point", "coordinates": [ 85.487587, 20.938284 ] } },
{ "type": "Feature", "properties": { "Statename": "Odisha", "Districtname": "Dhenkanal", "Subdistrictname": "Kamakshyanagar", "Blockname": "Parjang", "Healthblockname": "Parajanga", "Healthfacilitytype": "health sub centre", "Facilityname": "Muktaposi", "NIN": 7764577321, "latitude": 20.95195, "longitude": 85.42134, "facility_type_standardized": "hsc", "snapped_lon": 85.421973, "snapped_lat": 20.941722 }, "geometry": { "type": "Point", "coordinates": [ 85.421973, 20.941722 ] } },
{ "type": "Feature", "properties": { "Statename": "Odisha", "Districtname": "Dhenkanal", "Subdistrictname": "Parajang", "Blockname": "Parjang", "Healthblockname": "Parajanga", "Healthfacilitytype": "health sub centre", "Facilityname": "Kantor", "NIN": 4832267340, "latitude": 20.95252, "longitude": 85.33891, "facility_type_standardized": "hsc", "snapped_lon": 85.338008, "snapped_lat": 20.951809 }, "geometry": { "type": "Point", "coordinates": [ 85.338008, 20.951809 ] } },
{ "type": "Feature", "properties": { "Statename": "Odisha", "Districtname": "Dhenkanal", "Subdistrictname": "Parajang", "Blockname": "Parjang", "Healthblockname": "Parajanga", "Healthfacilitytype": "health sub centre", "Facilityname": "Kualo", "NIN": 5843753285, "latitude": 20.95897, "longitude": 85.29834, "facility_type_standardized": "hsc", "snapped_lon": 85.297039, "snapped_lat": 20.955646 }, "geometry": { "type": "Point", "coordinates": [ 85.297039, 20.955646 ] } },
{ "type": "Feature", "properties": { "Statename": "Odisha", "Districtname": "Dhenkanal", "Subdistrictname": "Kankadahad", "Blockname": "Kankada Had", "Healthblockname": "Kankadahada", "Healthfacilitytype": "health sub centre", "Facilityname": "Makuakateni", "NIN": 8258766636, "latitude": 20.96505, "longitude": 85.63848, "facility_type_standardized": "hsc", "snapped_lon": 85.632487, "snapped_lat": 20.972236 }, "geometry": { "type": "Point", "coordinates": [ 85.632487, 20.972236 ] } },
{ "type": "Feature", "properties": { "Statename": "Odisha", "Districtname": "Dhenkanal", "Subdistrictname": "Parajang", "Blockname": "Parjang", "Healthblockname": "Parajanga", "Healthfacilitytype": "health sub centre", "Facilityname": "Kankadasoda", "NIN": 4486224548, "latitude": 20.97777, "longitude": 85.36946, "facility_type_standardized": "hsc", "snapped_lon": 85.34319, "snapped_lat": 20.982012 }, "geometry": { "type": "Point", "coordinates": [ 85.34319, 20.982012 ] } },
{ "type": "Feature", "properties": { "Statename": "Odisha", "Districtname": "Dhenkanal", "Subdistrictname": "Kankadahad", "Blockname": "Kankada Had", "Healthblockname": "Kankadahada", "Healthfacilitytype": "health sub centre", "Facilityname": "Birasal", "NIN": 8351548477, "latitude": 20.99036, "longitude": 85.68143, "facility_type_standardized": "hsc", "snapped_lon": 85.675069, "snapped_lat": 20.988265 }, "geometry": { "type": "Point", "coordinates": [ 85.675069, 20.988265 ] } },
{ "type": "Feature", "properties": { "Statename": "Odisha", "Districtname": "Dhenkanal", "Subdistrictname": "Parajang", "Blockname": "Parjang", "Healthblockname": "Parajanga", "Healthfacilitytype": "health sub centre", "Facilityname": "Kulei", "NIN": 2647277645, "latitude": 20.99089, "longitude": 85.28018, "facility_type_standardized": "hsc", "snapped_lon": 85.278065, "snapped_lat": 20.989699 }, "geometry": { "type": "Point", "coordinates": [ 85.278065, 20.989699 ] } },
{ "type": "Feature", "properties": { "Statename": "Odisha", "Districtname": "Dhenkanal", "Subdistrictname": "Parajang", "Blockname": "Parjang", "Healthblockname": "Parajanga", "Healthfacilitytype": "health sub centre", "Facilityname": "Khairamunda", "NIN": 8338356184, "latitude": 20.99642, "longitude": 85.34429, "facility_type_standardized": "hsc", "snapped_lon": 85.345171, "snapped_lat": 20.993851 }, "geometry": { "type": "Point", "coordinates": [ 85.345171, 20.993851 ] } },
{ "type": "Feature", "properties": { "Statename": "Odisha", "Districtname": "Dhenkanal", "Subdistrictname": "Kankadahad", "Blockname": "Kankada Had", "Healthblockname": "Kankadahada", "Healthfacilitytype": "health sub centre", "Facilityname": "Batagaon", "NIN": 5181121731, "latitude": 21.00113, "longitude": 85.58819, "facility_type_standardized": "hsc", "snapped_lon": 85.590564, "snapped_lat": 21.00288 }, "geometry": { "type": "Point", "coordinates": [ 85.590564, 21.00288 ] } },
{ "type": "Feature", "properties": { "Statename": "Odisha", "Districtname": "Dhenkanal", "Subdistrictname": "Parajang", "Blockname": "Parjang", "Healthblockname": "Parajanga", "Healthfacilitytype": "health sub centre", "Facilityname": "Rangathali", "NIN": 1555617321, "latitude": 21.02747, "longitude": 85.2867, "facility_type_standardized": "hsc", "snapped_lon": 85.289135, "snapped_lat": 21.029675 }, "geometry": { "type": "Point", "coordinates": [ 85.289135, 21.029675 ] } },
{ "type": "Feature", "properties": { "Statename": "Odisha", "Districtname": "Dhenkanal", "Subdistrictname": "Kankadahad", "Blockname": "Kankada Had", "Healthblockname": "Kankadahada", "Healthfacilitytype": "health sub centre", "Facilityname": "Maruabili", "NIN": 7637725685, "latitude": 21.03346, "longitude": 85.72371, "facility_type_standardized": "hsc", "snapped_lon": 85.725393, "snapped_lat": 21.017271 }, "geometry": { "type": "Point", "coordinates": [ 85.725393, 21.017271 ] } },
{ "type": "Feature", "properties": { "Statename": "Odisha", "Districtname": "Dhenkanal", "Subdistrictname": "Parajang", "Blockname": "Parjang", "Healthblockname": "Parajanga", "Healthfacilitytype": "health sub centre", "Facilityname": "Kadapada", "NIN": 7177813776, "latitude": 21.0344, "longitude": 85.22525, "facility_type_standardized": "hsc", "snapped_lon": 85.223592, "snapped_lat": 21.034423 }, "geometry": { "type": "Point", "coordinates": [ 85.223592, 21.034423 ] } },
{ "type": "Feature", "properties": { "Statename": "Odisha", "Districtname": "Dhenkanal", "Subdistrictname": "Parajang", "Blockname": "Parjang", "Healthblockname": "Parajanga", "Healthfacilitytype": "health sub centre", "Facilityname": "Manikamara", "NIN": 7224864574, "latitude": 21.048, "longitude": 85.2108, "facility_type_standardized": "hsc", "snapped_lon": 85.223592, "snapped_lat": 21.034423 }, "geometry": { "type": "Point", "coordinates": [ 85.223592, 21.034423 ] } },
{ "type": "Feature", "properties": { "Statename": "Odisha", "Districtname": "Dhenkanal", "Subdistrictname": "Parajang", "Blockname": "Kankada Had", "Healthblockname": "Kankadahada", "Healthfacilitytype": "health sub centre", "Facilityname": "Chandapur", "NIN": 6424638754, "latitude": 21.07371, "longitude": 85.33178, "facility_type_standardized": "hsc", "snapped_lon": 85.336904, "snapped_lat": 21.088564 }, "geometry": { "type": "Point", "coordinates": [ 85.336904, 21.088564 ] } },
{ "type": "Feature", "properties": { "Statename": "Odisha", "Districtname": "Dhenkanal", "Subdistrictname": "Kankadahad", "Blockname": "Kankada Had", "Healthblockname": "Kankadahada", "Healthfacilitytype": "health sub centre", "Facilityname": "Kanakadahad", "NIN": 8441741587, "latitude": 21.07738, "longitude": 85.56776, "facility_type_standardized": "hsc", "snapped_lon": 85.574421, "snapped_lat": 21.073809 }, "geometry": { "type": "Point", "coordinates": [ 85.574421, 21.073809 ] } },
{ "type": "Feature", "properties": { "Statename": "Odisha", "Districtname": "Dhenkanal", "Subdistrictname": "Parajang", "Blockname": "Kankada Had", "Healthblockname": "Kankadahada", "Healthfacilitytype": "health sub centre", "Facilityname": "Mahabiroad", "NIN": 3677643540, "latitude": 21.08075, "longitude": 85.37154, "facility_type_standardized": "hsc", "snapped_lon": 85.372135, "snapped_lat": 21.07784 }, "geometry": { "type": "Point", "coordinates": [ 85.372135, 21.07784 ] } },
{ "type": "Feature", "properties": { "Statename": "Odisha", "Districtname": "Dhenkanal", "Subdistrictname": "Kankadahad", "Blockname": "Kankada Had", "Healthblockname": "Kankadahada", "Healthfacilitytype": "health sub centre", "Facilityname": "Karagola", "NIN": 7515124134, "latitude": 21.08451, "longitude": 85.61573, "facility_type_standardized": "hsc", "snapped_lon": 85.61269, "snapped_lat": 21.08429 }, "geometry": { "type": "Point", "coordinates": [ 85.61269, 21.08429 ] } },
{ "type": "Feature", "properties": { "Statename": "Odisha", "Districtname": "Dhenkanal", "Subdistrictname": "Kankadahad", "Blockname": "Kankada Had", "Healthblockname": "Kankadahada", "Healthfacilitytype": "health sub centre", "Facilityname": "Bam", "NIN": 4442638328, "latitude": 21.08647, "longitude": 85.46989, "facility_type_standardized": "hsc", "snapped_lon": 85.489651, "snapped_lat": 21.103769 }, "geometry": { "type": "Point", "coordinates": [ 85.489651, 21.103769 ] } },
{ "type": "Feature", "properties": { "Statename": "Odisha", "Districtname": "Dhenkanal", "Subdistrictname": "Kankadahad", "Blockname": "Kankada Had", "Healthblockname": "Kankadahada", "Healthfacilitytype": "health sub centre", "Facilityname": "Kantapal", "NIN": 1836557882, "latitude": 21.08846, "longitude": 85.52571, "facility_type_standardized": "hsc", "snapped_lon": 85.528886, "snapped_lat": 21.088154 }, "geometry": { "type": "Point", "coordinates": [ 85.528886, 21.088154 ] } },
{ "type": "Feature", "properties": { "Statename": "Odisha", "Districtname": "Dhenkanal", "Subdistrictname": "Parajang", "Blockname": "Kankada Had", "Healthblockname": "Kankadahada", "Healthfacilitytype": "health sub centre", "Facilityname": "Jhili", "NIN": 6467817182, "latitude": 21.09174, "longitude": 85.39402, "facility_type_standardized": "hsc", "snapped_lon": 85.384755, "snapped_lat": 21.076351 }, "geometry": { "type": "Point", "coordinates": [ 85.384755, 21.076351 ] } },