{
"type": "FeatureCollection",
"name": "gajapati_facilities_snapped",
"crs": { "type": "name", "properties": { "name": "urn:ogc:def:crs:OGC:1.3:CRS84" } },
"features": [
{ "type": "Feature", "properties": { "Statename": "Odisha", "Districtname": "Gajapati", "Subdistrictname": "Gurandi", "Blockname": "Gosani", "Healthblockname": "Gosani", "Healthfacilitytype": "community health centre", "Facilityname": "Gurandi", "NIN": 6515352653, "latitude": 18.81861, "longitude": 84.22362, "facility_type_standardized": "chc", "snapped_lon": 84.220812, "snapped_lat": 18.816361 }, "geometry": { "type": "Point", "coordinates": [ 84.220812, 18.816361 ] } },
{ "type": "Feature", "properties": { "Statename": "Odisha", "Districtname": "Gajapati", "Subdistrictname": "Kasinagar", "Blockname": "Notmapped", "Healthblockname": "Kashinagar", "Healthfacilitytype": "community health centre", "Facilityname": "Kashinagar", "NIN": 4237647427, "latitude": 18.85097, "longitude": 83.87415, "facility_type_standardized": "chc", "snapped_lon": 83.860287, "snapped_lat": 18.845048 }, "geometry": { "type": "Point", "coordinates": [ 83.860287, 18.845048 ] } },
{ "type": "Feature", "properties": { "Statename": "Odisha", "Districtname": "Gajapati", "Subdistrictname": "Rayagada", "Blockname": "Rayagada", "Healthblockname": "Rayagada", "Healthfacilitytype": "community health centre", "Facilityname": "Rayagada", "NIN": 6324585873, "latitude": 18.97188, "longitude": 84.15264, "facility_type_standardized": "chc", "snapped_lon": 84.173103, "snapped_lat": 18.901704 }, "geometry": { "type": "Point", "coordinates": [ 84.173103, 18.901704 ] } },
{ "type": "Feature", "properties": { "Statename": "Odisha", "Districtname": "Gajapati", "Subdistrictname": "Serango", "Blockname": "Gumma", "Healthblockname": "Gumma", "Healthfacilitytype": "community health centre", "Facilityname": "Gumma", "NIN": 4734215884, "latitude": 18.9826, "longitude": 84.02479, "facility_type_standardized": "chc", "snapped_lon": 84.022311, "snapped_lat": 18.984172 }, "geometry": { "type": "Point", "coordinates": [ 84.022311, 18.984172 ] } },
{ "type": "Feature", "properties": { "Statename": "Odisha", "Districtname": "Gajapati", "Subdistrictname": "Serango", "Blockname": "Nuagada", "Healthblockname": "Nuagada", "Healthfacilitytype": "community health centre", "Facilityname": "B K Pada", "NIN": 6578558287, "latitude": 19.05984, "longitude": 84.09475, "facility_type_standardized": "chc", "snapped_lon": 84.043913, "snapped_lat": 19.01882 }, "geometry": { "type": "Point", "coordinates": [ 84.043913, 19.01882 ] } },
{ "type": "Feature", "properties": { "Statename": "Odisha", "Districtname": "Gajapati", "Subdistrictname": "R.Udayagiri", "Blockname": "R.Udayagiri", "Healthblockname": "R.Udayagiri", "Healthfacilitytype": "community health centre", "Facilityname": "R Udayagiri", "NIN": 5551626657, "latitude": 19.16243, "longitude": 84.1458, "facility_type_standardized": "chc", "snapped_lon": 84.03416, "snapped_lat": 19.030725 }, "geometry": { "type": "Point", "coordinates": [ 84.03416, 19.030725 ] } },
{ "type": "Feature", "properties": { "Statename": "Odisha", "Districtname": "Gajapati", "Subdistrictname": "Mohana", "Blockname": "Mohana", "Healthblockname": "Mohana", "Healthfacilitytype": "community health centre", "Facilityname": "Chandragiri", "NIN": 4787184516, "latitude": 19.30205, "longitude": 84.28598, "facility_type_standardized": "chc", "snapped_lon": 84.134312, "snapped_lat": 19.469834 }, "geometry": { "type": "Point", "coordinates": [ 84.134312, 19.469834 ] } },
{ "type": "Feature", "properties": { "Statename": "Odisha", "Districtname": "Gajapati", "Subdistrictname": "Mohana", "Blockname": "Mohana", "Healthblockname": "Mohana", "Healthfacilitytype": "community health centre", "Facilityname": "Mohana", "NIN": 2812312169, "latitude": 19.43977, "longitude": 84.26071, "facility_type_standardized": "chc", "snapped_lon": 84.180393, "snapped_lat": 19.509172 }, "geometry": { "type": "Point", "coordinates": [ 84.180393, 19.509172 ] } },
{ "type": "Feature", "properties": { "Statename": "Odisha", "Districtname": "Gajapati", "Subdistrictname": "Paralakhemundi", "Blockname": "Notmapped", "Healthblockname": "Notmapped", "Healthfacilitytype": "district hospital", "Facilityname": "Paralakhemundi", "NIN": 3522511736, "latitude": 18.81355, "longitude": 84.13619, "facility_type_standardized": "dh", "snapped_lon": 84.138425, "snapped_lat": 18.808342 }, "geometry": { "type": "Point", "coordinates": [ 84.138425, 18.808342 ] } },
{ "type": "Feature", "properties": { "Statename": "Odisha", "Districtname": "Gajapati", "Subdistrictname": "Gurandi", "Blockname": "Gosani", "Healthblockname": "Gosani", "Healthfacilitytype": "primary health centre", "Facilityname": "Baghasala", "NIN": 2282364849, "latitude": 18.80716, "longitude": 84.18052, "facility_type_standardized": "phc", "snapped_lon": 84.17701, "snapped_lat": 18.807802 }, "geometry": { "type": "Point", "coordinates": [ 84.17701, 18.807802 ] } },
{ "type": "Feature", "properties": { "Statename": "Odisha", "Districtname": "Gajapati", "Subdistrictname": "Garabandha", "Blockname": "Gosani", "Healthblockname": "Gosani", "Healthfacilitytype": "primary health centre", "Facilityname": "Labnyagada", "NIN": 8366885310, "latitude": 18.81453, "longitude": 84.32407, "facility_type_standardized": "phc", "snapped_lon": 84.320731, "snapped_lat": 18.8158 }, "geometry": { "type": "Point", "coordinates": [ 84.320731, 18.8158 ] } },
{ "type": "Feature", "properties": { "Statename": "Odisha", "Districtname": "Gajapati", "Subdistrictname": "Kasinagar", "Blockname": "Kasinagar", "Healthblockname": "Kashinagar", "Healthfacilitytype": "primary health centre", "Facilityname": "Hadhubhangi", "NIN": 2347738326, "latitude": 18.82109, "longitude": 83.94091, "facility_type_standardized": "phc", "snapped_lon": 83.944805, "snapped_lat": 18.814013 }, "geometry": { "type": "Point", "coordinates": [ 83.944805, 18.814013 ] } },
{ "type": "Feature", "properties": { "Statename": "Odisha", "Districtname": "Gajapati", "Subdistrictname": "Garabandha", "Blockname": "Gosani", "Healthblockname": "Gosani", "Healthfacilitytype": "primary health centre", "Facilityname": "Garabandha", "NIN": 6622358882, "latitude": 18.82814, "longitude": 84.27271, "facility_type_standardized": "phc", "snapped_lon": 84.269196, "snapped_lat": 18.828823 }, "geometry": { "type": "Point", "coordinates": [ 84.269196, 18.828823 ] } },
{ "type": "Feature", "properties": { "Statename": "Odisha", "Districtname": "Gajapati", "Subdistrictname": "Serango", "Blockname": "Gumma", "Healthblockname": "Gumma", "Healthfacilitytype": "primary health centre", "Facilityname": "Namanguda", "NIN": 1187858640, "latitude": 18.87357, "longitude": 84.10243, "facility_type_standardized": "phc", "snapped_lon": 84.050817, "snapped_lat": 18.847818 }, "geometry": { "type": "Point", "coordinates": [ 84.050817, 18.847818 ] } },
{ "type": "Feature", "properties": { "Statename": "Odisha", "Districtname": "Gajapati", "Subdistrictname": "Serango", "Blockname": "Gumma", "Healthblockname": "Gumma", "Healthfacilitytype": "primary health centre", "Facilityname": "Gaiba", "NIN": 8835316681, "latitude": 18.92377, "longitude": 83.9491, "facility_type_standardized": "phc", "snapped_lon": 84.01552, "snapped_lat": 18.912842 }, "geometry": { "type": "Point", "coordinates": [ 84.01552, 18.912842 ] } },
{ "type": "Feature", "properties": { "Statename": "Odisha", "Districtname": "Gajapati", "Subdistrictname": "Rayagada", "Blockname": "Rayagada", "Healthblockname": "Rayagada", "Healthfacilitytype": "primary health centre", "Facilityname": "Jeerango", "NIN": 2245664889, "latitude": 18.9384, "longitude": 84.32359, "facility_type_standardized": "phc", "snapped_lon": 84.325869, "snapped_lat": 18.941824 }, "geometry": { "type": "Point", "coordinates": [ 84.325869, 18.941824 ] } },
{ "type": "Feature", "properties": { "Statename": "Odisha", "Districtname": "Gajapati", "Subdistrictname": "Garabandha", "Blockname": "Rayagada", "Healthblockname": "Rayagada", "Healthfacilitytype": "primary health centre", "Facilityname": "Koinpur", "NIN": 7781357343, "latitude": 18.9384, "longitude": 84.32359, "facility_type_standardized": "phc", "snapped_lon": 84.325869, "snapped_lat": 18.941824 }, "geometry": { "type": "Point", "coordinates": [ 84.325869, 18.941824 ] } },
{ "type": "Feature", "properties": { "Statename": "Odisha", "Districtname": "Gajapati", "Subdistrictname": "Kasinagar", "Blockname": "Kasinagar", "Healthblockname": "Kashinagar", "Healthfacilitytype": "primary health centre", "Facilityname": "Khandava", "NIN": 3717481836, "latitude": 18.96627, "longitude": 83.83239, "facility_type_standardized": "phc", "snapped_lon": 83.812033, "snapped_lat": 18.965316 }, "geometry": { "type": "Point", "coordinates": [ 83.812033, 18.965316 ] } },
{ "type": "Feature", "properties": { "Statename": "Odisha", "Districtname": "Gajapati", "Subdistrictname": "Rayagada", "Blockname": "Rayagada", "Healthblockname": "Rayagada", "Healthfacilitytype": "primary health centre", "Facilityname": "Loba", "NIN": 7438814258, "latitude": 19.00976, "longitude": 84.28673, "facility_type_standardized": "phc", "snapped_lon": 84.352657, "snapped_lat": 18.981547 }, "geometry": { "type": "Point", "coordinates": [ 84.352657, 18.981547 ] } },
{ "type": "Feature", "properties": { "Statename": "Odisha", "Districtname": "Gajapati", "Subdistrictname": "Serango", "Blockname": "Gumma", "Healthblockname": "Gumma", "Healthfacilitytype": "primary health centre", "Facilityname": "Baijhal", "NIN": 5884144352, "latitude": 19.01147, "longitude": 83.91364, "facility_type_standardized": "phc", "snapped_lon": 84.015076, "snapped_lat": 19.045606 }, "geometry": { "type": "Point", "coordinates": [ 84.015076, 19.045606 ] } },
{ "type": "Feature", "properties": { "Statename": "Odisha", "Districtname": "Gajapati", "Subdistrictname": "Ramagiri", "Blockname": "R.Udayagiri", "Healthblockname": "R.Udayagiri", "Healthfacilitytype": "primary health centre", "Facilityname": "Ramagiri", "NIN": 3881388510, "latitude": 19.08775, "longitude": 84.29405, "facility_type_standardized": "phc", "snapped_lon": 84.376001, "snapped_lat": 19.024435 }, "geometry": { "type": "Point", "coordinates": [ 84.376001, 19.024435 ] } },
{ "type": "Feature", "properties": { "Statename": "Odisha", "Districtname": "Gajapati", "Subdistrictname": "R.Udayagiri", "Blockname": "Nuagada", "Healthblockname": "Nuagada", "Healthfacilitytype": "primary health centre", "Facilityname": "Keradango", "NIN": 8315858285, "latitude": 19.16392, "longitude": 84.03721, "facility_type_standardized": "phc", "snapped_lon": 84.018572, "snapped_lat": 19.045075 }, "geometry": { "type": "Point", "coordinates": [ 84.018572, 19.045075 ] } },
{ "type": "Feature", "properties": { "Statename": "Odisha", "Districtname": "Gajapati", "Subdistrictname": "R.Udayagiri", "Blockname": "R.Udayagiri", "Healthblockname": "R.Udayagiri", "Healthfacilitytype": "primary health centre", "Facilityname": "Dereba", "NIN": 6571868469, "latitude": 19.22854, "longitude": 84.30859, "facility_type_standardized": "phc", "snapped_lon": 84.384476, "snapped_lat": 19.03205 }, "geometry": { "type": "Point", "coordinates": [ 84.384476, 19.03205 ] } },
{ "type": "Feature", "properties": { "Statename": "Odisha", "Districtname": "Gajapati", "Subdistrictname": "R.Udayagiri", "Blockname": "R.Udayagiri", "Healthblockname": "R.Udayagiri", "Healthfacilitytype": "primary health centre", "Facilityname": "Chelligada", "NIN": 3577743572, "latitude": 19.24304, "longitude": 84.19759, "facility_type_standardized": "phc", "snapped_lon": 84.134312, "snapped_lat": 19.469834 }, "geometry": { "type": "Point", "coordinates": [ 84.134312, 19.469834 ] } },
{ "type": "Feature", "properties": { "Statename": "Odisha", "Districtname": "Gajapati", "Subdistrictname": "Mohana", "Blockname": "Mohana", "Healthblockname": "Mohana", "Healthfacilitytype": "primary health centre", "Facilityname": "Sikulipadar", "NIN": 7728635678, "latitude": 19.30839, "longitude": 84.2125, "facility_type_standardized": "phc", "snapped_lon": 84.134312, "snapped_lat": 19.469834 }, "geometry": { "type": "Point", "coordinates": [ 84.134312, 19.469834 ] } },
{ "type": "Feature", "properties": { "Statename": "Odisha", "Districtname": "Gajapati", "Subdistrictname": "Adava", "Blockname": "Mohana", "Healthblockname": "Mohana", "Healthfacilitytype": "primary health centre", "Facilityname": "Chudangapur", "NIN": 7483425752, "latitude": 19.35499, "longitude": 84.15027, "facility_type_standardized": "phc", "snapped_lon": 84.13233, "snapped_lat": 19.469337 }, "geometry": { "type": "Point", "coordinates": [ 84.13233, 19.469337 ] } },
{ "type": "Feature", "properties": { "Statename": "Odisha", "Districtname": "Gajapati", "Subdistrictname": "Adava", "Blockname": "Mohana", "Healthblockname": "Mohana", "Healthfacilitytype": "primary health centre", "Facilityname": "Birikote", "NIN": 5815721518, "latitude": 19.47839, "longitude": 84.10027, "facility_type_standardized": "phc", "snapped_lon": 84.099572, "snapped_lat": 19.476147 }, "geometry": { "type": "Point", "coordinates": [ 84.099572, 19.476147 ] } },
{ "type": "Feature", "properties": { "Statename": "Odisha", "Districtname": "Gajapati", "Subdistrictname": "Adava", "Blockname": "Mohana", "Healthblockname": "Mohana", "Healthfacilitytype": "primary health centre", "Facilityname": "Adava", "NIN": 6831842288, "latitude": 19.49014, "longitude": 84.18291, "facility_type_standardized": "phc", "snapped_lon": 84.180393, "snapped_lat": 19.509172 }, "geometry": { "type": "Point", "coordinates": [ 84.180393, 19.509172 ] } },
{ "type": "Feature", "properties": { "Statename": "Odisha", "Districtname": "Gajapati", "Subdistrictname": "Mohana", "Blockname": "Mohana", "Healthblockname": "Mohana", "Healthfacilitytype": "primary health centre", "Facilityname": "P Govindapur", "NIN": 8852716839, "latitude": 19.51396, "longitude": 84.33761, "facility_type_standardized": "phc", "snapped_lon": 84.249937, "snapped_lat": 19.56588 }, "geometry": { "type": "Point", "coordinates": [ 84.249937, 19.56588 ] } },
{ "type": "Feature", "properties": { "Statename": "Odisha", "Districtname": "Gajapati", "Subdistrictname": "Paralakhemundi", "Blockname": "Gosani", "Healthblockname": "Gosani", "Healthfacilitytype": "health sub centre", "Facilityname": "Kerandi", "NIN": 4872258274, "latitude": 18.77147, "longitude": 84.12156, "facility_type_standardized": "hsc", "snapped_lon": 84.119081, "snapped_lat": 18.77741 }, "geometry": { "type": "Point", "coordinates": [ 84.119081, 18.77741 ] } },
{ "type": "Feature", "properties": { "Statename": "Odisha", "Districtname": "Gajapati", "Subdistrictname": "Gurandi", "Blockname": "Gosani", "Healthblockname": "Gosani", "Healthfacilitytype": "health sub centre", "Facilityname": "Vinala", "NIN": 4776671432, "latitude": 18.78668, "longitude": 84.17716, "facility_type_standardized": "hsc", "snapped_lon": 84.171234, "snapped_lat": 18.785884 }, "geometry": { "type": "Point", "coordinates": [ 84.171234, 18.785884 ] } },
{ "type": "Feature", "properties": { "Statename": "Odisha", "Districtname": "Gajapati", "Subdistrictname": "Gurandi", "Blockname": "Gosani", "Healthblockname": "Gosani", "Healthfacilitytype": "health sub centre", "Facilityname": "Jangalpadu", "NIN": 8675617388, "latitude": 18.79641, "longitude": 84.20631, "facility_type_standardized": "hsc", "snapped_lon": 84.207169, "snapped_lat": 18.792243 }, "geometry": { "type": "Point", "coordinates": [ 84.207169, 18.792243 ] } },
{ "type": "Feature", "properties": { "Statename": "Odisha", "Districtname": "Gajapati", "Subdistrictname": "Paralakhemundi", "Blockname": "Gumma", "Healthblockname": "Gumma", "Healthfacilitytype": "health sub centre", "Facilityname": "Jhami", "NIN": 3723274449, "latitude": 18.79808, "longitude": 84.08516, "facility_type_standardized": "hsc", "snapped_lon": 84.077337, "snapped_lat": 18.796304 }, "geometry": { "type": "Point", "coordinates": [ 84.077337, 18.796304 ] } },
{ "type": "Feature", "properties": { "Statename": "Odisha", "Districtname": "Gajapati", "Subdistrictname": "Paralakhemundi", "Blockname": "Gosani", "Healthblockname": "Gosani", "Healthfacilitytype": "health sub centre", "Facilityname": "Katalakaitha", "NIN": 7185682445, "latitude": 18.80074, "longitude": 84.12824, "facility_type_standardized": "hsc", "snapped_lon": 84.125603, "snapped_lat": 18.79909 }, "geometry": { "type": "Point", "coordinates": [ 84.125603, 18.79909 ] } },
{ "type": "Feature", "properties": { "Statename": "Odisha", "Districtname": "Gajapati", "Subdistrictname": "Gurandi", "Blockname": "Gosani", "Healthblockname": "Gosani", "Healthfacilitytype": "health sub centre", "Facilityname": "Baghasala", "NIN": 2178186876, "latitude": 18.80833, "longitude": 84.17558, "facility_type_standardized": "hsc", "snapped_lon": 84.17701, "snapped_lat": 18.807802 }, "geometry": { "type": "Point", "coordinates": [ 84.17701, 18.807802 ] } },
{ "type": "Feature", "properties": { "Statename": "Odisha", "Districtname": "Gajapati", "Subdistrictname": "Paralakhemundi", "Blockname": "Kasinagar", "Healthblockname": "Kashinagar", "Healthfacilitytype": "health sub centre", "Facilityname": "Ranipentha", "NIN": 4182383465, "latitude": 18.80843, "longitude": 84.06679, "facility_type_standardized": "hsc", "snapped_lon": 84.065722, "snapped_lat": 18.805739 }, "geometry": { "type": "Point", "coordinates": [ 84.065722, 18.805739 ] } },
{ "type": "Feature", "properties": { "Statename": "Odisha", "Districtname": "Gajapati", "Subdistrictname": "Gurandi", "Blockname": "Gosani", "Healthblockname": "Gosani", "Healthfacilitytype": "health sub centre", "Facilityname": "Gosani", "NIN": 1788613774, "latitude": 18.81252, "longitude": 84.14052, "facility_type_standardized": "hsc", "snapped_lon": 84.138425, "snapped_lat": 18.808342 }, "geometry": { "type": "Point", "coordinates": [ 84.138425, 18.808342 ] } },
{ "type": "Feature", "properties": { "Statename": "Odisha", "Districtname": "Gajapati", "Subdistrictname": "Gurandi", "Blockname": "Gosani", "Healthblockname": "Gosani", "Healthfacilitytype": "health sub centre", "Facilityname": "Gurandi", "NIN": 7181685780, "latitude": 18.81406, "longitude": 84.2207, "facility_type_standardized": "hsc", "snapped_lon": 84.220812, "snapped_lat": 18.816361 }, "geometry": { "type": "Point", "coordinates": [ 84.220812, 18.816361 ] } },
{ "type": "Feature", "properties": { "Statename": "Odisha", "Districtname": "Gajapati", "Subdistrictname": "Paralakhemundi", "Blockname": "Kasinagar", "Healthblockname": "Kashinagar", "Healthfacilitytype": "health sub centre", "Facilityname": "Sidhamadanga", "NIN": 4373766817, "latitude": 18.81415, "longitude": 84.05029, "facility_type_standardized": "hsc", "snapped_lon": 84.048132, "snapped_lat": 18.815049 }, "geometry": { "type": "Point", "coordinates": [ 84.048132, 18.815049 ] } },
{ "type": "Feature", "properties": { "Statename": "Odisha", "Districtname": "Gajapati", "Subdistrictname": "Garabandha", "Blockname": "Gosani", "Healthblockname": "Gosani", "Healthfacilitytype": "health sub centre", "Facilityname": "Labnyagada", "NIN": 8166873664, "latitude": 18.81586, "longitude": 84.32349, "facility_type_standardized": "hsc", "snapped_lon": 84.320731, "snapped_lat": 18.8158 }, "geometry": { "type": "Point", "coordinates": [ 84.320731, 18.8158 ] } },
{ "type": "Feature", "properties": { "Statename": "Odisha", "Districtname": "Gajapati", "Subdistrictname": "Kasinagar", "Blockname": "Kasinagar", "Healthblockname": "Kashinagar", "Healthfacilitytype": "health sub centre", "Facilityname": "K Sitapur", "NIN": 8587821722, "latitude": 18.81694, "longitude": 83.99217, "facility_type_standardized": "hsc", "snapped_lon": 83.993411, "snapped_lat": 18.814962 }, "geometry": { "type": "Point", "coordinates": [ 83.993411, 18.814962 ] } },
{ "type": "Feature", "properties": { "Statename": "Odisha", "Districtname": "Gajapati", "Subdistrictname": "Kasinagar", "Blockname": "Kasinagar", "Healthblockname": "Kashinagar", "Healthfacilitytype": "health sub centre", "Facilityname": "Hadhubhangi", "NIN": 6647428355, "latitude": 18.81948, "longitude": 83.94217, "facility_type_standardized": "hsc", "snapped_lon": 83.944805, "snapped_lat": 18.814013 }, "geometry": { "type": "Point", "coordinates": [ 83.944805, 18.814013 ] } },
{ "type": "Feature", "properties": { "Statename": "Odisha", "Districtname": "Gajapati", "Subdistrictname": "Kasinagar", "Blockname": "Kasinagar", "Healthblockname": "Kashinagar", "Healthfacilitytype": "health sub centre", "Facilityname": "Kharada", "NIN": 8228726462, "latitude": 18.82015, "longitude": 83.97039, "facility_type_standardized": "hsc", "snapped_lon": 83.97866, "snapped_lat": 18.81107 }, "geometry": { "type": "Point", "coordinates": [ 83.97866, 18.81107 ] } },
{ "type": "Feature", "properties": { "Statename": "Odisha", "Districtname": "Gajapati", "Subdistrictname": "Gurandi", "Blockname": "Gosani", "Healthblockname": "Gosani", "Healthfacilitytype": "health sub centre", "Facilityname": "Uppalada", "NIN": 4278242823, "latitude": 18.82723, "longitude": 84.17077, "facility_type_standardized": "hsc", "snapped_lon": 84.168192, "snapped_lat": 18.827989 }, "geometry": { "type": "Point", "coordinates": [ 84.168192, 18.827989 ] } },
{ "type": "Feature", "properties": { "Statename": "Odisha", "Districtname": "Gajapati", "Subdistrictname": "Kasinagar", "Blockname": "Kasinagar", "Healthblockname": "Kashinagar", "Healthfacilitytype": "health sub centre", "Facilityname": "Kidigam", "NIN": 1316631173, "latitude": 18.82742, "longitude": 83.89953, "facility_type_standardized": "hsc", "snapped_lon": 83.905265, "snapped_lat": 18.819583 }, "geometry": { "type": "Point", "coordinates": [ 83.905265, 18.819583 ] } },
{ "type": "Feature", "properties": { "Statename": "Odisha", "Districtname": "Gajapati", "Subdistrictname": "Gurandi", "Blockname": "Gosani", "Healthblockname": "Gosani", "Healthfacilitytype": "health sub centre", "Facilityname": "Badakoturu", "NIN": 5285884564, "latitude": 18.83098, "longitude": 84.24287, "facility_type_standardized": "hsc", "snapped_lon": 84.243075, "snapped_lat": 18.835362 }, "geometry": { "type": "Point", "coordinates": [ 84.243075, 18.835362 ] } },
{ "type": "Feature", "properties": { "Statename": "Odisha", "Districtname": "Gajapati", "Subdistrictname": "Garabandha", "Blockname": "Gosani", "Healthblockname": "Gosani", "Healthfacilitytype": "health sub centre", "Facilityname": "Garabandha", "NIN": 2125311833, "latitude": 18.8319, "longitude": 84.27233, "facility_type_standardized": "hsc", "snapped_lon": 84.271665, "snapped_lat": 18.833736 }, "geometry": { "type": "Point", "coordinates": [ 84.271665, 18.833736 ] } },
{ "type": "Feature", "properties": { "Statename": "Odisha", "Districtname": "Gajapati", "Subdistrictname": "Gurandi", "Blockname": "Gosani", "Healthblockname": "Gosani", "Healthfacilitytype": "health sub centre", "Facilityname": "Kharasanda", "NIN": 5458238341, "latitude": 18.8332, "longitude": 84.15408, "facility_type_standardized": "hsc", "snapped_lon": 84.163726, "snapped_lat": 18.82757 }, "geometry": { "type": "Point", "coordinates": [ 84.163726, 18.82757 ] } },
{ "type": "Feature", "properties": { "Statename": "Odisha", "Districtname": "Gajapati", "Subdistrictname": "Gurandi", "Blockname": "Gosani", "Healthblockname": "Gosani", "Healthfacilitytype": "health sub centre", "Facilityname": "Bhuskudi", "NIN": 4274855859, "latitude": 18.83564, "longitude": 84.20422, "facility_type_standardized": "hsc", "snapped_lon": 84.201441, "snapped_lat": 18.834202 }, "geometry": { "type": "Point", "coordinates": [ 84.201441, 18.834202 ] } },
{ "type": "Feature", "properties": { "Statename": "Odisha", "Districtname": "Gajapati", "Subdistrictname": "Gurandi", "Blockname": "Gosani", "Healthblockname": "Gosani", "Healthfacilitytype": "health sub centre", "Facilityname": "Machamara", "NIN": 8435648616, "latitude": 18.83933, "longitude": 84.18821, "facility_type_standardized": "hsc", "snapped_lon": 84.185719, "snapped_lat": 18.842015 }, "geometry": { "type": "Point", "coordinates": [ 84.185719, 18.842015 ] } },
{ "type": "Feature", "properties": { "Statename": "Odisha", "Districtname": "Gajapati", "Subdistrictname": "Paralakhemundi", "Blockname": "Gumma", "Healthblockname": "Gumma", "Healthfacilitytype": "health sub centre", "Facilityname": "Jeeba", "NIN": 4674722378, "latitude": 18.84075, "longitude": 84.08265, "facility_type_standardized": "hsc", "snapped_lon": 84.062839, "snapped_lat": 18.828161 }, "geometry": { "type": "Point", "coordinates": [ 84.062839, 18.828161 ] } },
{ "type": "Feature", "properties": { "Statename": "Odisha", "Districtname": "Gajapati", "Subdistrictname": "Kasinagar", "Blockname": "Kasinagar", "Healthblockname": "Kashinagar", "Healthfacilitytype": "health sub centre", "Facilityname": "Kortam", "NIN": 6662818449, "latitude": 18.84444, "longitude": 83.91069, "facility_type_standardized": "hsc", "snapped_lon": 83.905265, "snapped_lat": 18.819583 }, "geometry": { "type": "Point", "coordinates": [ 83.905265, 18.819583 ] } },
{ "type": "Feature", "properties": { "Statename": "Odisha", "Districtname": "Gajapati", "Subdistrictname": "Garabandha", "Blockname": "Gosani", "Healthblockname": "Gosani", "Healthfacilitytype": "health sub centre", "Facilityname": "Talasingh", "NIN": 4612874430, "latitude": 18.85359, "longitude": 84.30311, "facility_type_standardized": "hsc", "snapped_lon": 84.299338, "snapped_lat": 18.852294 }, "geometry": { "type": "Point", "coordinates": [ 84.299338, 18.852294 ] } },
{ "type": "Feature", "properties": { "Statename": "Odisha", "Districtname": "Gajapati", "Subdistrictname": "Paralakhemundi", "Blockname": "Gumma", "Healthblockname": "Gumma", "Healthfacilitytype": "health sub centre", "Facilityname": "Tarangada", "NIN": 4842765366, "latitude": 18.85586, "longitude": 84.06561, "facility_type_standardized": "hsc", "snapped_lon": 84.050817, "snapped_lat": 18.847818 }, "geometry": { "type": "Point", "coordinates": [ 84.050817, 18.847818 ] } },
{ "type": "Feature", "properties": { "Statename": "Odisha", "Districtname": "Gajapati", "Subdistrictname": "Kasinagar", "Blockname": "Kashinagar", "Healthblockname": "Kashinagar", "Healthfacilitytype": "health sub centre", "Facilityname": "Kashinagar", "NIN": 6437771345, "latitude": 18.86097, "longitude": 83.8619, "facility_type_standardized": "hsc", "snapped_lon": 83.850569, "snapped_lat": 18.856564 }, "geometry": { "type": "Point", "coordinates": [ 83.850569, 18.856564 ] } },
{ "type": "Feature", "properties": { "Statename": "Odisha", "Districtname": "Gajapati", "Subdistrictname": "Kasinagar", "Blockname": "Kasinagar", "Healthblockname": "Kashinagar", "Healthfacilitytype": "health sub centre", "Facilityname": "Haripur", "NIN": 3781176783, "latitude": 18.86113, "longitude": 83.88784, "facility_type_standardized": "hsc", "snapped_lon": 83.860287, "snapped_lat": 18.845048 }, "geometry": { "type": "Point", "coordinates": [ 83.860287, 18.845048 ] } },
{ "type": "Feature", "properties": { "Statename": "Odisha", "Districtname": "Gajapati", "Subdistrictname": "Gurandi", "Blockname": "Gosani", "Healthblockname": "Gosani", "Healthfacilitytype": "health sub centre", "Facilityname": "Kantaragada", "NIN": 6158547783, "latitude": 18.86168, "longitude": 84.19424, "facility_type_standardized": "hsc", "snapped_lon": 84.19089, "snapped_lat": 18.862596 }, "geometry": { "type": "Point", "coordinates": [ 84.19089, 18.862596 ] } },
{ "type": "Feature", "properties": { "Statename": "Odisha", "Districtname": "Gajapati", "Subdistrictname": "Garabandha", "Blockname": "Rayagada", "Healthblockname": "Rayagada", "Healthfacilitytype": "health sub centre", "Facilityname": "Gandahati", "NIN": 1458376686, "latitude": 18.87259, "longitude": 84.26621, "facility_type_standardized": "hsc", "snapped_lon": 84.26486, "snapped_lat": 18.873241 }, "geometry": { "type": "Point", "coordinates": [ 84.26486, 18.873241 ] } },
{ "type": "Feature", "properties": { "Statename": "Odisha", "Districtname": "Gajapati", "Subdistrictname": "Gurandi", "Blockname": "Gosani", "Healthblockname": "Gosani", "Healthfacilitytype": "health sub centre", "Facilityname": "Bomika", "NIN": 7874514180, "latitude": 18.87292, "longitude": 84.17749, "facility_type_standardized": "hsc", "snapped_lon": 84.179927, "snapped_lat": 18.885225 }, "geometry": { "type": "Point", "coordinates": [ 84.179927, 18.885225 ] } },
{ "type": "Feature", "properties": { "Statename": "Odisha", "Districtname": "Gajapati", "Subdistrictname": "Serango", "Blockname": "Gumma", "Healthblockname": "Gumma", "Healthfacilitytype": "health sub centre", "Facilityname": "Namanguda", "NIN": 7344245589, "latitude": 18.87956, "longitude": 84.10702, "facility_type_standardized": "hsc", "snapped_lon": 84.048843, "snapped_lat": 18.852066 }, "geometry": { "type": "Point", "coordinates": [ 84.048843, 18.852066 ] } },
{ "type": "Feature", "properties": { "Statename": "Odisha", "Districtname": "Gajapati", "Subdistrictname": "Rayagada", "Blockname": "Rayagada", "Healthblockname": "Rayagada", "Healthfacilitytype": "health sub centre", "Facilityname": "Narayanapur", "NIN": 6161716524, "latitude": 18.88037, "longitude": 84.18538, "facility_type_standardized": "hsc", "snapped_lon": 84.185683, "snapped_lat": 18.884163 }, "geometry": { "type": "Point", "coordinates": [ 84.185683, 18.884163 ] } },
{ "type": "Feature", "properties": { "Statename": "Odisha", "Districtname": "Gajapati", "Subdistrictname": "Garabandha", "Blockname": "Rayagada", "Healthblockname": "Rayagada", "Healthfacilitytype": "health sub centre", "Facilityname": "Mulligimma", "NIN": 1538847722, "latitude": 18.8836, "longitude": 84.28692, "facility_type_standardized": "hsc", "snapped_lon": 84.285379, "snapped_lat": 18.883348 }, "geometry": { "type": "Point", "coordinates": [ 84.285379, 18.883348 ] } },
{ "type": "Feature", "properties": { "Statename": "Odisha", "Districtname": "Gajapati", "Subdistrictname": "Serango", "Blockname": "Gumma", "Healthblockname": "Gumma", "Healthfacilitytype": "health sub centre", "Facilityname": "Parida", "NIN": 8538375331, "latitude": 18.8865, "longitude": 83.95034, "facility_type_standardized": "hsc", "snapped_lon": 84.015541, "snapped_lat": 18.91273 }, "geometry": { "type": "Point", "coordinates": [ 84.015541, 18.91273 ] } },
{ "type": "Feature", "properties": { "Statename": "Odisha", "Districtname": "Gajapati", "Subdistrictname": "Rayagada", "Blockname": "Rayagada", "Healthblockname": "Rayagada", "Healthfacilitytype": "health sub centre", "Facilityname": "Talamunda", "NIN": 7412338837, "latitude": 18.89455, "longitude": 84.28579, "facility_type_standardized": "hsc", "snapped_lon": 84.278239, "snapped_lat": 18.896099 }, "geometry": { "type": "Point", "coordinates": [ 84.278239, 18.896099 ] } },
{ "type": "Feature", "properties": { "Statename": "Odisha", "Districtname": "Gajapati", "Subdistrictname": "Garabandha", "Blockname": "Rayagada", "Healthblockname": "Rayagada", "Healthfacilitytype": "health sub centre", "Facilityname": "Sankorada", "NIN": 5768784125, "latitude": 18.90161, "longitude": 84.22084, "facility_type_standardized": "hsc", "snapped_lon": 84.231909, "snapped_lat": 18.928513 }, "geometry": { "type": "Point", "coordinates": [ 84.231909, 18.928513 ] } },
{ "type": "Feature", "properties": { "Statename": "Odisha", "Districtname": "Gajapati", "Subdistrictname": "Rayagada", "Blockname": "Rayagada", "Healthblockname": "Rayagada", "Healthfacilitytype": "health sub centre", "Facilityname": "Karadasingh", "NIN": 7558574674, "latitude": 18.91019, "longitude": 84.19464, "facility_type_standardized": "hsc", "snapped_lon": 84.173368, "snapped_lat": 18.901199 }, "geometry": { "type": "Point", "coordinates": [ 84.173368, 18.901199 ] } },
{ "type": "Feature", "properties": { "Statename": "Odisha", "Districtname": "Gajapati", "Subdistrictname": "Kasinagar", "Blockname": "Kasinagar", "Healthblockname": "Kashinagar", "Healthfacilitytype": "health sub centre", "Facilityname": "Kitingi", "NIN": 8548376139, "latitude": 18.91026, "longitude": 83.85224, "facility_type_standardized": "hsc", "snapped_lon": 83.84635, "snapped_lat": 18.904997 }, "geometry": { "type": "Point", "coordinates": [ 83.84635, 18.904997 ] } },
{ "type": "Feature", "properties": { "Statename": "Odisha", "Districtname": "Gajapati", "Subdistrictname": "Serango", "Blockname": "Gumma", "Healthblockname": "Gumma", "Healthfacilitytype": "health sub centre", "Facilityname": "Kujasingh", "NIN": 8386626819, "latitude": 18.91565, "longitude": 84.13541, "facility_type_standardized": "hsc", "snapped_lon": 84.173103, "snapped_lat": 18.901704 }, "geometry": { "type": "Point", "coordinates": [ 84.173103, 18.901704 ] } },
{ "type": "Feature", "properties": { "Statename": "Odisha", "Districtname": "Gajapati", "Subdistrictname": "Serango", "Blockname": "Gumma", "Healthblockname": "Gumma", "Healthfacilitytype": "health sub centre", "Facilityname": "Gaiba", "NIN": 6775262881, "latitude": 18.91581, "longitude": 83.94733, "facility_type_standardized": "hsc", "snapped_lon": 84.01552, "snapped_lat": 18.912842 }, "geometry": { "type": "Point", "coordinates": [ 84.01552, 18.912842 ] } },
{ "type": "Feature", "properties": { "Statename": "Odisha", "Districtname": "Gajapati", "Subdistrictname": "Garabandha", "Blockname": "Rayagada", "Healthblockname": "Rayagada", "Healthfacilitytype": "health sub centre", "Facilityname": "Kerandi", "NIN": 5153883789, "latitude": 18.91726, "longitude": 84.33445, "facility_type_standardized": "hsc", "snapped_lon": 84.332481, "snapped_lat": 18.916805 }, "geometry": { "type": "Point", "coordinates": [ 84.332481, 18.916805 ] } },
{ "type": "Feature", "properties": { "Statename": "Odisha", "Districtname": "Gajapati", "Subdistrictname": "Rayagada", "Blockname": "Rayagada", "Healthblockname": "Rayagada", "Healthfacilitytype": "health sub centre", "Facilityname": "Krushnapur", "NIN": 4472613787, "latitude": 18.92166, "longitude": 84.15635, "facility_type_standardized": "hsc", "snapped_lon": 84.173103, "snapped_lat": 18.901704 }, "geometry": { "type": "Point", "coordinates": [ 84.173103, 18.901704 ] } },
{ "type": "Feature", "properties": { "Statename": "Odisha", "Districtname": "Gajapati", "Subdistrictname": "Garabandha", "Blockname": "Rayagada", "Healthblockname": "Rayagada", "Healthfacilitytype": "health sub centre", "Facilityname": "Gangabada", "NIN": 8725625886, "latitude": 18.92658, "longitude": 84.37732, "facility_type_standardized": "hsc", "snapped_lon": 84.372683, "snapped_lat": 18.926834 }, "geometry": { "type": "Point", "coordinates": [ 84.372683, 18.926834 ] } },
{ "type": "Feature", "properties": { "Statename": "Odisha", "Districtname": "Gajapati", "Subdistrictname": "Serango", "Blockname": "Gumma", "Healthblockname": "Gumma", "Healthfacilitytype": "health sub centre", "Facilityname": "Ajayagada", "NIN": 2747447163, "latitude": 18.92682, "longitude": 84.08387, "facility_type_standardized": "hsc", "snapped_lon": 84.029591, "snapped_lat": 18.929364 }, "geometry": { "type": "Point", "coordinates": [ 84.029591, 18.929364 ] } },
{ "type": "Feature", "properties": { "Statename": "Odisha", "Districtname": "Gajapati", "Subdistrictname": "Serango", "Blockname": "Gumma", "Healthblockname": "Gumma", "Healthfacilitytype": "health sub centre", "Facilityname": "Munisingh", "NIN": 8448133358, "latitude": 18.92928, "longitude": 84.02559, "facility_type_standardized": "hsc", "snapped_lon": 84.029591, "snapped_lat": 18.929364 }, "geometry": { "type": "Point", "coordinates": [ 84.029591, 18.929364 ] } },
{ "type": "Feature", "properties": { "Statename": "Odisha", "Districtname": "Gajapati", "Subdistrictname": "Garabandha", "Blockname": "Rayagada", "Healthblockname": "Rayagada", "Healthfacilitytype": "health sub centre", "Facilityname": "Tumbo", "NIN": 3146421114, "latitude": 18.93027, "longitude": 84.32199, "facility_type_standardized": "hsc", "snapped_lon": 84.320048, "snapped_lat": 18.930282 }, "geometry": { "type": "Point", "coordinates": [ 84.320048, 18.930282 ] } },
{ "type": "Feature", "properties": { "Statename": "Odisha", "Districtname": "Gajapati", "Subdistrictname": "Kasinagar", "Blockname": "Kasinagar", "Healthblockname": "Kashinagar", "Healthfacilitytype": "health sub centre", "Facilityname": "Gouri", "NIN": 6233121539, "latitude": 18.93646, "longitude": 83.8338, "facility_type_standardized": "hsc", "snapped_lon": 83.820806, "snapped_lat": 18.928479 }, "geometry": { "type": "Point", "coordinates": [ 83.820806, 18.928479 ] } },
{ "type": "Feature", "properties": { "Statename": "Odisha", "Districtname": "Gajapati", "Subdistrictname": "Garabandha", "Blockname": "Rayagada", "Healthblockname": "Rayagada", "Healthfacilitytype": "health sub centre", "Facilityname": "Koinpur", "NIN": 1155275637, "latitude": 18.94475, "longitude": 84.32856, "facility_type_standardized": "hsc", "snapped_lon": 84.325932, "snapped_lat": 18.94197 }, "geometry": { "type": "Point", "coordinates": [ 84.325932, 18.94197 ] } },
{ "type": "Feature", "properties": { "Statename": "Odisha", "Districtname": "Gajapati", "Subdistrictname": "Ramagiri", "Blockname": "Rayagada", "Healthblockname": "Rayagada", "Healthfacilitytype": "health sub centre", "Facilityname": "Laxmipur", "NIN": 8745817653, "latitude": 18.94573, "longitude": 84.283, "facility_type_standardized": "hsc", "snapped_lon": 84.266335, "snapped_lat": 18.918285 }, "geometry": { "type": "Point", "coordinates": [ 84.266335, 18.918285 ] } },
{ "type": "Feature", "properties": { "Statename": "Odisha", "Districtname": "Gajapati", "Subdistrictname": "Serango", "Blockname": "Gumma", "Healthblockname": "Gumma", "Healthfacilitytype": "health sub centre", "Facilityname": "Sukei", "NIN": 8213773685, "latitude": 18.95047, "longitude": 84.01171, "facility_type_standardized": "hsc", "snapped_lon": 84.022976, "snapped_lat": 18.948619 }, "geometry": { "type": "Point", "coordinates": [ 84.022976, 18.948619 ] } },
{ "type": "Feature", "properties": { "Statename": "Odisha", "Districtname": "Gajapati", "Subdistrictname": "Rayagada", "Blockname": "Rayagada", "Healthblockname": "Rayagada", "Healthfacilitytype": "health sub centre", "Facilityname": "Raghunathpur", "NIN": 5518512719, "latitude": 18.95271, "longitude": 84.22168, "facility_type_standardized": "hsc", "snapped_lon": 84.22036, "snapped_lat": 18.936933 }, "geometry": { "type": "Point", "coordinates": [ 84.22036, 18.936933 ] } },
{ "type": "Feature", "properties": { "Statename": "Odisha", "Districtname": "Gajapati", "Subdistrictname": "Rayagada", "Blockname": "Rayagada", "Healthblockname": "Rayagada", "Healthfacilitytype": "health sub centre", "Facilityname": "Abarsingh", "NIN": 2527212415, "latitude": 18.95802, "longitude": 84.18886, "facility_type_standardized": "hsc", "snapped_lon": 84.22036, "snapped_lat": 18.936933 }, "geometry": { "type": "Point", "coordinates": [ 84.22036, 18.936933 ] } },
{ "type": "Feature", "properties": { "Statename": "Odisha", "Districtname": "Gajapati", "Subdistrictname": "Serango", "Blockname": "Gumma", "Healthblockname": "Gumma", "Healthfacilitytype": "health sub centre", "Facilityname": "Bantalada", "NIN": 8482516682, "latitude": 18.95833, "longitude": 84.06339, "facility_type_standardized": "hsc", "snapped_lon": 84.025235, "snapped_lat": 18.945357 }, "geometry": { "type": "Point", "coordinates": [ 84.025235, 18.945357 ] } },
{ "type": "Feature", "properties": { "Statename": "Odisha", "Districtname": "Gajapati", "Subdistrictname": "Rayagada", "Blockname": "Rayagada", "Healthblockname": "Rayagada", "Healthfacilitytype": "health sub centre", "Facilityname": "Champapur", "NIN": 6586482272, "latitude": 18.96227, "longitude": 84.14571, "facility_type_standardized": "hsc", "snapped_lon": 84.173103, "snapped_lat": 18.901704 }, "geometry": { "type": "Point", "coordinates": [ 84.173103, 18.901704 ] } },
{ "type": "Feature", "properties": { "Statename": "Odisha", "Districtname": "Gajapati", "Subdistrictname": "Rayagada", "Blockname": "Rayagada", "Healthblockname": "Rayagada", "Healthfacilitytype": "health sub centre", "Facilityname": "Rayagada", "NIN": 1485466773, "latitude": 18.9642, "longitude": 84.15809, "facility_type_standardized": "hsc", "snapped_lon": 84.173103, "snapped_lat": 18.901704 }, "geometry": { "type": "Point", "coordinates": [ 84.173103, 18.901704 ] } },
{ "type": "Feature", "properties": { "Statename": "Odisha", "Districtname": "Gajapati", "Subdistrictname": "Rayagada", "Blockname": "Rayagada", "Healthblockname": "Rayagada", "Healthfacilitytype": "health sub centre", "Facilityname": "Jeerango", "NIN": 7468366625, "latitude": 18.96447, "longitude": 84.22646, "facility_type_standardized": "hsc", "snapped_lon": 84.22036, "snapped_lat": 18.936933 }, "geometry": { "type": "Point", "coordinates": [ 84.22036, 18.936933 ] } },
{ "type": "Feature", "properties": { "Statename": "Odisha", "Districtname": "Gajapati", "Subdistrictname": "Kasinagar", "Blockname": "Kasinagar", "Healthblockname": "Kashinagar", "Healthfacilitytype": "health sub centre", "Facilityname": "Khandava", "NIN": 7121531540, "latitude": 18.96682, "longitude": 83.83035, "facility_type_standardized": "hsc", "snapped_lon": 83.812033, "snapped_lat": 18.965316 }, "geometry": { "type": "Point", "coordinates": [ 83.812033, 18.965316 ] } },
{ "type": "Feature", "properties": { "Statename": "Odisha", "Districtname": "Gajapati", "Subdistrictname": "Kasinagar", "Blockname": "Kasinagar", "Healthblockname": "Kashinagar", "Healthfacilitytype": "health sub centre", "Facilityname": "Alada", "NIN": 8335582741, "latitude": 18.97437, "longitude": 83.87203, "facility_type_standardized": "hsc", "snapped_lon": 83.812033, "snapped_lat": 18.965316 }, "geometry": { "type": "Point", "coordinates": [ 83.812033, 18.965316 ] } },
{ "type": "Feature", "properties": { "Statename": "Odisha", "Districtname": "Gajapati", "Subdistrictname": "Serango", "Blockname": "Gumma", "Healthblockname": "Gumma", "Healthfacilitytype": "health sub centre", "Facilityname": "Gumma", "NIN": 7428183276, "latitude": 18.98545, "longitude": 84.02564, "facility_type_standardized": "hsc", "snapped_lon": 84.02281, "snapped_lat": 18.985867 }, "geometry": { "type": "Point", "coordinates": [ 84.02281, 18.985867 ] } },
{ "type": "Feature", "properties": { "Statename": "Odisha", "Districtname": "Gajapati", "Subdistrictname": "Ramagiri", "Blockname": "Rayagada", "Healthblockname": "Rayagada", "Healthfacilitytype": "health sub centre", "Facilityname": "Sanasoda", "NIN": 3156413514, "latitude": 18.98771, "longitude": 84.28147, "facility_type_standardized": "hsc", "snapped_lon": 84.325932, "snapped_lat": 18.94197 }, "geometry": { "type": "Point", "coordinates": [ 84.325932, 18.94197 ] } },
{ "type": "Feature", "properties": { "Statename": "Odisha", "Districtname": "Gajapati", "Subdistrictname": "Ramagiri", "Blockname": "Rayagada", "Healthblockname": "Rayagada", "Healthfacilitytype": "health sub centre", "Facilityname": "Puttoro", "NIN": 8825627642, "latitude": 18.98849, "longitude": 84.2461, "facility_type_standardized": "hsc", "snapped_lon": 84.22036, "snapped_lat": 18.936933 }, "geometry": { "type": "Point", "coordinates": [ 84.22036, 18.936933 ] } },
{ "type": "Feature", "properties": { "Statename": "Odisha", "Districtname": "Gajapati", "Subdistrictname": "Ramagiri", "Blockname": "Rayagada", "Healthblockname": "Rayagada", "Healthfacilitytype": "health sub centre", "Facilityname": "Dambala", "NIN": 7567345777, "latitude": 18.99739, "longitude": 84.19968, "facility_type_standardized": "hsc", "snapped_lon": 84.22036, "snapped_lat": 18.936933 }, "geometry": { "type": "Point", "coordinates": [ 84.22036, 18.936933 ] } },
{ "type": "Feature", "properties": { "Statename": "Odisha", "Districtname": "Gajapati", "Subdistrictname": "Serango", "Blockname": "Gumma", "Healthblockname": "Gumma", "Healthfacilitytype": "health sub centre", "Facilityname": "Linga", "NIN": 6237683344, "latitude": 18.99952, "longitude": 83.99754, "facility_type_standardized": "hsc", "snapped_lon": 84.025892, "snapped_lat": 18.995159 }, "geometry": { "type": "Point", "coordinates": [ 84.025892, 18.995159 ] } },
{ "type": "Feature", "properties": { "Statename": "Odisha", "Districtname": "Gajapati", "Subdistrictname": "Serango", "Blockname": "Gumma", "Healthblockname": "Gumma", "Healthfacilitytype": "health sub centre", "Facilityname": "Baijhal", "NIN": 4883545412, "latitude": 18.99956, "longitude": 83.91301, "facility_type_standardized": "hsc", "snapped_lon": 83.812033, "snapped_lat": 18.965316 }, "geometry": { "type": "Point", "coordinates": [ 83.812033, 18.965316 ] } },
{ "type": "Feature", "properties": { "Statename": "Odisha", "Districtname": "Gajapati", "Subdistrictname": "Ramagiri", "Blockname": "Rayagada", "Healthblockname": "Rayagada", "Healthfacilitytype": "health sub centre", "Facilityname": "Loba", "NIN": 1251561476, "latitude": 19.00816, "longitude": 84.28295, "facility_type_standardized": "hsc", "snapped_lon": 84.352657, "snapped_lat": 18.981547 }, "geometry": { "type": "Point", "coordinates": [ 84.352657, 18.981547 ] } },
{ "type": "Feature", "properties": { "Statename": "Odisha", "Districtname": "Gajapati", "Subdistrictname": "Serango", "Blockname": "Gumma", "Healthblockname": "Gumma", "Healthfacilitytype": "health sub centre", "Facilityname": "Serengo", "NIN": 7446613478, "latitude": 19.00901, "longitude": 84.04529, "facility_type_standardized": "hsc", "snapped_lon": 84.046531, "snapped_lat": 19.00893 }, "geometry": { "type": "Point", "coordinates": [ 84.046531, 19.00893 ] } },
{ "type": "Feature", "properties": { "Statename": "Odisha", "Districtname": "Gajapati", "Subdistrictname": "Serango", "Blockname": "Gumma", "Healthblockname": "Gumma", "Healthfacilitytype": "health sub centre", "Facilityname": "B Kalakote", "NIN": 1751388784, "latitude": 19.01229, "longitude": 84.00418, "facility_type_standardized": "hsc", "snapped_lon": 84.026147, "snapped_lat": 18.996412 }, "geometry": { "type": "Point", "coordinates": [ 84.026147, 18.996412 ] } },
{ "type": "Feature", "properties": { "Statename": "Odisha", "Districtname": "Gajapati", "Subdistrictname": "Rayagada", "Blockname": "Rayagada", "Healthblockname": "Rayagada", "Healthfacilitytype": "health sub centre", "Facilityname": "Marlaba", "NIN": 1615314141, "latitude": 19.0185, "longitude": 84.13029, "facility_type_standardized": "hsc", "snapped_lon": 84.04651, "snapped_lat": 19.009317 }, "geometry": { "type": "Point", "coordinates": [ 84.04651, 19.009317 ] } },
{ "type": "Feature", "properties": { "Statename": "Odisha", "Districtname": "Gajapati", "Subdistrictname": "Serango", "Blockname": "Gumma", "Healthblockname": "Gumma", "Healthfacilitytype": "health sub centre", "Facilityname": "Tarajasingh", "NIN": 2757863283, "latitude": 19.03173, "longitude": 84.05391, "facility_type_standardized": "hsc", "snapped_lon": 84.043731, "snapped_lat": 19.019043 }, "geometry": { "type": "Point", "coordinates": [ 84.043731, 19.019043 ] } },
{ "type": "Feature", "properties": { "Statename": "Odisha", "Districtname": "Gajapati", "Subdistrictname": "Rayagada", "Blockname": "Rayagada", "Healthblockname": "Rayagada", "Healthfacilitytype": "health sub centre", "Facilityname": "Jallango", "NIN": 4224864720, "latitude": 19.03442, "longitude": 84.16628, "facility_type_standardized": "hsc", "snapped_lon": 84.22036, "snapped_lat": 18.936933 }, "geometry": { "type": "Point", "coordinates": [ 84.22036, 18.936933 ] } },
{ "type": "Feature", "properties": { "Statename": "Odisha", "Districtname": "Gajapati", "Subdistrictname": "Ramagiri", "Blockname": "R.Udayagiri", "Healthblockname": "R.Udayagiri", "Healthfacilitytype": "health sub centre", "Facilityname": "Mangarajpur", "NIN": 6335531510, "latitude": 19.0356, "longitude": 84.2583, "facility_type_standardized": "hsc", "snapped_lon": 84.22036, "snapped_lat": 18.936933 }, "geometry": { "type": "Point", "coordinates": [ 84.22036, 18.936933 ] } },
{ "type": "Feature", "properties": { "Statename": "Odisha", "Districtname": "Gajapati", "Subdistrictname": "Serango", "Blockname": "Gumma", "Healthblockname": "Gumma", "Healthfacilitytype": "health sub centre", "Facilityname": "Jungjungle", "NIN": 1688683174, "latitude": 19.03602, "longitude": 83.99108, "facility_type_standardized": "hsc", "snapped_lon": 84.015076, "snapped_lat": 19.045606 }, "geometry": { "type": "Point", "coordinates": [ 84.015076, 19.045606 ] } },
{ "type": "Feature", "properties": { "Statename": "Odisha", "Districtname": "Gajapati", "Subdistrictname": "Serango", "Blockname": "Nuagada", "Healthblockname": "Nuagada", "Healthfacilitytype": "health sub centre", "Facilityname": "Titisingh", "NIN": 4534781648, "latitude": 19.0428, "longitude": 84.09438, "facility_type_standardized": "hsc", "snapped_lon": 84.044627, "snapped_lat": 19.017456 }, "geometry": { "type": "Point", "coordinates": [ 84.044627, 19.017456 ] } },
{ "type": "Feature", "properties": { "Statename": "Odisha", "Districtname": "Gajapati", "Subdistrictname": "Serango", "Blockname": "Gumma", "Healthblockname": "Gumma", "Healthfacilitytype": "health sub centre", "Facilityname": "Tumula", "NIN": 1611385228, "latitude": 19.04577, "longitude": 84.01112, "facility_type_standardized": "hsc", "snapped_lon": 84.015076, "snapped_lat": 19.045606 }, "geometry": { "type": "Point", "coordinates": [ 84.015076, 19.045606 ] } },
{ "type": "Feature", "properties": { "Statename": "Odisha", "Districtname": "Gajapati", "Subdistrictname": "Serango", "Blockname": "Nuagada", "Healthblockname": "Nuagada", "Healthfacilitytype": "health sub centre", "Facilityname": "Badapada", "NIN": 1351122385, "latitude": 19.05141, "longitude": 84.09353, "facility_type_standardized": "hsc", "snapped_lon": 84.044048, "snapped_lat": 19.018617 }, "geometry": { "type": "Point", "coordinates": [ 84.044048, 19.018617 ] } },
{ "type": "Feature", "properties": { "Statename": "Odisha", "Districtname": "Gajapati", "Subdistrictname": "Serango", "Blockname": "Nuagada", "Healthblockname": "Nuagada", "Healthfacilitytype": "health sub centre", "Facilityname": "Antarada", "NIN": 4613686684, "latitude": 19.05236, "longitude": 84.21823, "facility_type_standardized": "hsc", "snapped_lon": 84.22036, "snapped_lat": 18.936933 }, "geometry": { "type": "Point", "coordinates": [ 84.22036, 18.936933 ] } },
{ "type": "Feature", "properties": { "Statename": "Odisha", "Districtname": "Gajapati", "Subdistrictname": "R.Udayagiri", "Blockname": "R.Udayagiri", "Healthblockname": "R.Udayagiri", "Healthfacilitytype": "health sub centre", "Facilityname": "Jamadhal", "NIN": 5536265514, "latitude": 19.05294, "longitude": 84.30406, "facility_type_standardized": "hsc", "snapped_lon": 84.369046, "snapped_lat": 19.014068 }, "geometry": { "type": "Point", "coordinates": [ 84.369046, 19.014068 ] } },
{ "type": "Feature", "properties": { "Statename": "Odisha", "Districtname": "Gajapati", "Subdistrictname": "Ramagiri", "Blockname": "R.Udayagiri", "Healthblockname": "R.Udayagiri", "Healthfacilitytype": "health sub centre", "Facilityname": "Tabarsingh", "NIN": 2812444830, "latitude": 19.06042, "longitude": 84.35638, "facility_type_standardized": "hsc", "snapped_lon": 84.384425, "snapped_lat": 19.032016 }, "geometry": { "type": "Point", "coordinates": [ 84.384425, 19.032016 ] } },
{ "type": "Feature", "properties": { "Statename": "Odisha", "Districtname": "Gajapati", "Subdistrictname": "Serango", "Blockname": "Nuagada", "Healthblockname": "Nuagada", "Healthfacilitytype": "health sub centre", "Facilityname": "B K Pada", "NIN": 8163874145, "latitude": 19.06425, "longitude": 84.09232, "facility_type_standardized": "hsc", "snapped_lon": 84.043731, "snapped_lat": 19.019043 }, "geometry": { "type": "Point", "coordinates": [ 84.043731, 19.019043 ] } },
{ "type": "Feature", "properties": { "Statename": "Odisha", "Districtname": "Gajapati", "Subdistrictname": "Serango", "Blockname": "Nuagada", "Healthblockname": "Nuagada", "Healthfacilitytype": "health sub centre", "Facilityname": "Sauri", "NIN": 1153446115, "latitude": 19.06489, "longitude": 84.05074, "facility_type_standardized": "hsc", "snapped_lon": 84.018947, "snapped_lat": 19.044811 }, "geometry": { "type": "Point", "coordinates": [ 84.018947, 19.044811 ] } },
{ "type": "Feature", "properties": { "Statename": "Odisha", "Districtname": "Gajapati", "Subdistrictname": "R.Udayagiri", "Blockname": "R.Udayagiri", "Healthblockname": "R.Udayagiri", "Healthfacilitytype": "health sub centre", "Facilityname": "Jhulla", "NIN": 2645746864, "latitude": 19.06771, "longitude": 84.34678, "facility_type_standardized": "hsc", "snapped_lon": 84.384425, "snapped_lat": 19.032016 }, "geometry": { "type": "Point", "coordinates": [ 84.384425, 19.032016 ] } },
{ "type": "Feature", "properties": { "Statename": "Odisha", "Districtname": "Gajapati", "Subdistrictname": "R.Udayagiri", "Blockname": "Nuagada", "Healthblockname": "Nuagada", "Healthfacilitytype": "health sub centre", "Facilityname": "Betarsingh", "NIN": 8787114332, "latitude": 19.09198, "longitude": 84.23058, "facility_type_standardized": "hsc", "snapped_lon": 84.22036, "snapped_lat": 18.936933 }, "geometry": { "type": "Point", "coordinates": [ 84.22036, 18.936933 ] } },
{ "type": "Feature", "properties": { "Statename": "Odisha", "Districtname": "Gajapati", "Subdistrictname": "R.Udayagiri", "Blockname": "Nuagada", "Healthblockname": "Nuagada", "Healthfacilitytype": "health sub centre", "Facilityname": "Lioba", "NIN": 3481185845, "latitude": 19.09584, "longitude": 84.16661, "facility_type_standardized": "hsc", "snapped_lon": 84.044048, "snapped_lat": 19.018617 }, "geometry": { "type": "Point", "coordinates": [ 84.044048, 19.018617 ] } },
{ "type": "Feature", "properties": { "Statename": "Odisha", "Districtname": "Gajapati", "Subdistrictname": "Ramagiri", "Blockname": "R.Udayagiri", "Healthblockname": "R.Udayagiri", "Healthfacilitytype": "health sub centre", "Facilityname": "Ramagiri", "NIN": 2615354129, "latitude": 19.09609, "longitude": 84.29567, "facility_type_standardized": "hsc", "snapped_lon": 84.376001, "snapped_lat": 19.024435 }, "geometry": { "type": "Point", "coordinates": [ 84.376001, 19.024435 ] } },
{ "type": "Feature", "properties": { "Statename": "Odisha", "Districtname": "Gajapati", "Subdistrictname": "Serango", "Blockname": "Nuagada", "Healthblockname": "Nuagada", "Healthfacilitytype": "health sub centre", "Facilityname": "Nuagada", "NIN": 4588576266, "latitude": 19.10288, "longitude": 84.05079, "facility_type_standardized": "hsc", "snapped_lon": 84.018722, "snapped_lat": 19.045039 }, "geometry": { "type": "Point", "coordinates": [ 84.018722, 19.045039 ] } },
{ "type": "Feature", "properties": { "Statename": "Odisha", "Districtname": "Gajapati", "Subdistrictname": "Serango", "Blockname": "Nuagada", "Healthblockname": "Nuagada", "Healthfacilitytype": "health sub centre", "Facilityname": "Tabarada", "NIN": 6488553667, "latitude": 19.10716, "longitude": 84.12786, "facility_type_standardized": "hsc", "snapped_lon": 84.03416, "snapped_lat": 19.030725 }, "geometry": { "type": "Point", "coordinates": [ 84.03416, 19.030725 ] } },
{ "type": "Feature", "properties": { "Statename": "Odisha", "Districtname": "Gajapati", "Subdistrictname": "Ramagiri", "Blockname": "R.Udayagiri", "Healthblockname": "R.Udayagiri", "Healthfacilitytype": "health sub centre", "Facilityname": "Randiva", "NIN": 1566231260, "latitude": 19.14231, "longitude": 84.25464, "facility_type_standardized": "hsc", "snapped_lon": 84.376001, "snapped_lat": 19.024435 }, "geometry": { "type": "Point", "coordinates": [ 84.376001, 19.024435 ] } },
{ "type": "Feature", "properties": { "Statename": "Odisha", "Districtname": "Gajapati", "Subdistrictname": "Ramagiri", "Blockname": "R.Udayagiri", "Healthblockname": "R.Udayagiri", "Healthfacilitytype": "health sub centre", "Facilityname": "Panasadhia", "NIN": 1178424840, "latitude": 19.14566, "longitude": 84.30752, "facility_type_standardized": "hsc", "snapped_lon": 84.384425, "snapped_lat": 19.032016 }, "geometry": { "type": "Point", "coordinates": [ 84.384425, 19.032016 ] } },
{ "type": "Feature", "properties": { "Statename": "Odisha", "Districtname": "Gajapati", "Subdistrictname": "R.Udayagiri", "Blockname": "Nuagada", "Healthblockname": "Nuagada", "Healthfacilitytype": "health sub centre", "Facilityname": "Tumana", "NIN": 5543184484, "latitude": 19.15358, "longitude": 84.16939, "facility_type_standardized": "hsc", "snapped_lon": 84.03416, "snapped_lat": 19.030725 }, "geometry": { "type": "Point", "coordinates": [ 84.03416, 19.030725 ] } },
{ "type": "Feature", "properties": { "Statename": "Odisha", "Districtname": "Gajapati", "Subdistrictname": "R.Udayagiri", "Blockname": "R.Udayagiri", "Healthblockname": "R.Udayagiri", "Healthfacilitytype": "health sub centre", "Facilityname": "R Udayagiri", "NIN": 3385812874, "latitude": 19.16181, "longitude": 84.15257, "facility_type_standardized": "hsc", "snapped_lon": 84.03416, "snapped_lat": 19.030725 }, "geometry": { "type": "Point", "coordinates": [ 84.03416, 19.030725 ] } },
{ "type": "Feature", "properties": { "Statename": "Odisha", "Districtname": "Gajapati", "Subdistrictname": "R.Udayagiri", "Blockname": "Nuagada", "Healthblockname": "Nuagada", "Healthfacilitytype": "health sub centre", "Facilityname": "Keradango", "NIN": 2226241319, "latitude": 19.16363, "longitude": 84.04097, "facility_type_standardized": "hsc", "snapped_lon": 84.018572, "snapped_lat": 19.045075 }, "geometry": { "type": "Point", "coordinates": [ 84.018572, 19.045075 ] } },
{ "type": "Feature", "properties": { "Statename": "Odisha", "Districtname": "Gajapati", "Subdistrictname": "R.Udayagiri", "Blockname": "R.Udayagiri", "Healthblockname": "R.Udayagiri", "Healthfacilitytype": "health sub centre", "Facilityname": "Lubersingh", "NIN": 2272612520, "latitude": 19.17445, "longitude": 84.18069, "facility_type_standardized": "hsc", "snapped_lon": 84.03416, "snapped_lat": 19.030725 }, "geometry": { "type": "Point", "coordinates": [ 84.03416, 19.030725 ] } },
{ "type": "Feature", "properties": { "Statename": "Odisha", "Districtname": "Gajapati", "Subdistrictname": "R.Udayagiri", "Blockname": "R.Udayagiri", "Healthblockname": "R.Udayagiri", "Healthfacilitytype": "health sub centre", "Facilityname": "Chelligada", "NIN": 8856821437, "latitude": 19.19614, "longitude": 84.25247, "facility_type_standardized": "hsc", "snapped_lon": 84.384425, "snapped_lat": 19.032016 }, "geometry": { "type": "Point", "coordinates": [ 84.384425, 19.032016 ] } },
{ "type": "Feature", "properties": { "Statename": "Odisha", "Districtname": "Gajapati", "Subdistrictname": "R.Udayagiri", "Blockname": "R.Udayagiri", "Healthblockname": "R.Udayagiri", "Healthfacilitytype": "health sub centre", "Facilityname": "Sialilati", "NIN": 8726117883, "latitude": 19.20827, "longitude": 84.31656, "facility_type_standardized": "hsc", "snapped_lon": 84.384476, "snapped_lat": 19.03205 }, "geometry": { "type": "Point", "coordinates": [ 84.384476, 19.03205 ] } },
{ "type": "Feature", "properties": { "Statename": "Odisha", "Districtname": "Gajapati", "Subdistrictname": "R.Udayagiri", "Blockname": "Nuagada", "Healthblockname": "Nuagada", "Healthfacilitytype": "health sub centre", "Facilityname": "Udayapur", "NIN": 1514871118, "latitude": 19.22014, "longitude": 84.00879, "facility_type_standardized": "hsc", "snapped_lon": 83.936208, "snapped_lat": 19.312516 }, "geometry": { "type": "Point", "coordinates": [ 83.936208, 19.312516 ] } },
{ "type": "Feature", "properties": { "Statename": "Odisha", "Districtname": "Gajapati", "Subdistrictname": "R.Udayagiri", "Blockname": "Nuagada", "Healthblockname": "Nuagada", "Healthfacilitytype": "health sub centre", "Facilityname": "Parimal", "NIN": 8618146446, "latitude": 19.22199, "longitude": 84.06772, "facility_type_standardized": "hsc", "snapped_lon": 83.943135, "snapped_lat": 19.318385 }, "geometry": { "type": "Point", "coordinates": [ 83.943135, 19.318385 ] } },
{ "type": "Feature", "properties": { "Statename": "Odisha", "Districtname": "Gajapati", "Subdistrictname": "R.Udayagiri", "Blockname": "R.Udayagiri", "Healthblockname": "R.Udayagiri", "Healthfacilitytype": "health sub centre", "Facilityname": "Mahendragada", "NIN": 6778725181, "latitude": 19.23305, "longitude": 84.26915, "facility_type_standardized": "hsc", "snapped_lon": 84.384476, "snapped_lat": 19.03205 }, "geometry": { "type": "Point", "coordinates": [ 84.384476, 19.03205 ] } },
{ "type": "Feature", "properties": { "Statename": "Odisha", "Districtname": "Gajapati", "Subdistrictname": "R.Udayagiri", "Blockname": "R.Udayagiri", "Healthblockname": "R.Udayagiri", "Healthfacilitytype": "health sub centre", "Facilityname": "Gadara", "NIN": 5342738340, "latitude": 19.24149, "longitude": 84.21945, "facility_type_standardized": "hsc", "snapped_lon": 84.134312, "snapped_lat": 19.469834 }, "geometry": { "type": "Point", "coordinates": [ 84.134312, 19.469834 ] } },
{ "type": "Feature", "properties": { "Statename": "Odisha", "Districtname": "Gajapati", "Subdistrictname": "R.Udayagiri", "Blockname": "R.Udayagiri", "Healthblockname": "R.Udayagiri", "Healthfacilitytype": "health sub centre", "Facilityname": "Chellagada", "NIN": 4834714653, "latitude": 19.24281, "longitude": 84.19413, "facility_type_standardized": "hsc", "snapped_lon": 84.134312, "snapped_lat": 19.469834 }, "geometry": { "type": "Point", "coordinates": [ 84.134312, 19.469834 ] } },
{ "type": "Feature", "properties": { "Statename": "Odisha", "Districtname": "Gajapati", "Subdistrictname": "R.Udayagiri", "Blockname": "Nuagada", "Healthblockname": "Nuagada", "Healthfacilitytype": "health sub centre", "Facilityname": "Sambalpur", "NIN": 7264632485, "latitude": 19.27638, "longitude": 84.08843, "facility_type_standardized": "hsc", "snapped_lon": 83.984754, "snapped_lat": 19.379381 }, "geometry": { "type": "Point", "coordinates": [ 83.984754, 19.379381 ] } },
{ "type": "Feature", "properties": { "Statename": "Odisha", "Districtname": "Gajapati", "Subdistrictname": "Mohana", "Blockname": "Mohana", "Healthblockname": "Mohana", "Healthfacilitytype": "health sub centre", "Facilityname": "Jeerango", "NIN": 3257734834, "latitude": 19.28616, "longitude": 84.26141, "facility_type_standardized": "hsc", "snapped_lon": 84.134312, "snapped_lat": 19.469834 }, "geometry": { "type": "Point", "coordinates": [ 84.134312, 19.469834 ] } },
{ "type": "Feature", "properties": { "Statename": "Odisha", "Districtname": "Gajapati", "Subdistrictname": "R.Udayagiri", "Blockname": "Nuagada", "Healthblockname": "Nuagada", "Healthfacilitytype": "health sub centre", "Facilityname": "Anuguru", "NIN": 3323153217, "latitude": 19.29074, "longitude": 84.03651, "facility_type_standardized": "hsc", "snapped_lon": 83.963479, "snapped_lat": 19.352446 }, "geometry": { "type": "Point", "coordinates": [ 83.963479, 19.352446 ] } },
{ "type": "Feature", "properties": { "Statename": "Odisha", "Districtname": "Gajapati", "Subdistrictname": "Mohana", "Blockname": "Mohana", "Healthblockname": "Mohana", "Healthfacilitytype": "health sub centre", "Facilityname": "CHANDRAGIRI", "NIN": 2118113188, "latitude": 19.30963, "longitude": 84.28454, "facility_type_standardized": "hsc", "snapped_lon": 84.134312, "snapped_lat": 19.469834 }, "geometry": { "type": "Point", "coordinates": [ 84.134312, 19.469834 ] } },
{ "type": "Feature", "properties": { "Statename": "Odisha", "Districtname": "Gajapati", "Subdistrictname": "R.Udayagiri", "Blockname": "Nuagada", "Healthblockname": "Nuagada", "Healthfacilitytype": "health sub centre", "Facilityname": "Sundardang", "NIN": 6715526155, "latitude": 19.31119, "longitude": 84.09203, "facility_type_standardized": "hsc", "snapped_lon": 83.985017, "snapped_lat": 19.379717 }, "geometry": { "type": "Point", "coordinates": [ 83.985017, 19.379717 ] } },
{ "type": "Feature", "properties": { "Statename": "Odisha", "Districtname": "Gajapati", "Subdistrictname": "Mohana", "Blockname": "Mohana", "Healthblockname": "Mohana", "Healthfacilitytype": "health sub centre", "Facilityname": "Baghamari", "NIN": 3461838363, "latitude": 19.31175, "longitude": 84.23346, "facility_type_standardized": "hsc", "snapped_lon": 84.134312, "snapped_lat": 19.469834 }, "geometry": { "type": "Point", "coordinates": [ 84.134312, 19.469834 ] } },
{ "type": "Feature", "properties": { "Statename": "Odisha", "Districtname": "Gajapati", "Subdistrictname": "R.Udayagiri", "Blockname": "Nuagada", "Healthblockname": "Nuagada", "Healthfacilitytype": "health sub centre", "Facilityname": "Kirama", "NIN": 8462683569, "latitude": 19.32146, "longitude": 84.06592, "facility_type_standardized": "hsc", "snapped_lon": 83.985017, "snapped_lat": 19.379717 }, "geometry": { "type": "Point", "coordinates": [ 83.985017, 19.379717 ] } },
{ "type": "Feature", "properties": { "Statename": "Odisha", "Districtname": "Gajapati", "Subdistrictname": "Mohana", "Blockname": "Mohana", "Healthblockname": "Mohana", "Healthfacilitytype": "health sub centre", "Facilityname": "Badasindhaba", "NIN": 8826166830, "latitude": 19.35294, "longitude": 84.21314, "facility_type_standardized": "hsc", "snapped_lon": 84.134312, "snapped_lat": 19.469834 }, "geometry": { "type": "Point", "coordinates": [ 84.134312, 19.469834 ] } },
{ "type": "Feature", "properties": { "Statename": "Odisha", "Districtname": "Gajapati", "Subdistrictname": "Mohana", "Blockname": "Mohana", "Healthblockname": "Mohana", "Healthfacilitytype": "health sub centre", "Facilityname": "Chudangapur", "NIN": 4567772282, "latitude": 19.35891, "longitude": 84.14644, "facility_type_standardized": "hsc", "snapped_lon": 84.131991, "snapped_lat": 19.469292 }, "geometry": { "type": "Point", "coordinates": [ 84.131991, 19.469292 ] } },
{ "type": "Feature", "properties": { "Statename": "Odisha", "Districtname": "Gajapati", "Subdistrictname": "Mohana", "Blockname": "Mohana", "Healthblockname": "Mohana", "Healthfacilitytype": "health sub centre", "Facilityname": "Bariabandha", "NIN": 4417563873, "latitude": 19.36465, "longitude": 84.20717, "facility_type_standardized": "hsc", "snapped_lon": 84.134312, "snapped_lat": 19.469834 }, "geometry": { "type": "Point", "coordinates": [ 84.134312, 19.469834 ] } },
{ "type": "Feature", "properties": { "Statename": "Odisha", "Districtname": "Gajapati", "Subdistrictname": "Mohana", "Blockname": "Mohana", "Healthblockname": "Mohana", "Healthfacilitytype": "health sub centre", "Facilityname": "Chandiput", "NIN": 5778856236, "latitude": 19.37435, "longitude": 84.30438, "facility_type_standardized": "hsc", "snapped_lon": 84.180393, "snapped_lat": 19.509172 }, "geometry": { "type": "Point", "coordinates": [ 84.180393, 19.509172 ] } },
{ "type": "Feature", "properties": { "Statename": "Odisha", "Districtname": "Gajapati", "Subdistrictname": "Mohana", "Blockname": "Mohana", "Healthblockname": "Mohana", "Healthfacilitytype": "health sub centre", "Facilityname": "Antaraba", "NIN": 8536583829, "latitude": 19.37893, "longitude": 84.17997, "facility_type_standardized": "hsc", "snapped_lon": 84.134312, "snapped_lat": 19.469834 }, "geometry": { "type": "Point", "coordinates": [ 84.134312, 19.469834 ] } },
{ "type": "Feature", "properties": { "Statename": "Odisha", "Districtname": "Gajapati", "Subdistrictname": "Adava", "Blockname": "Mohana", "Healthblockname": "Mohana", "Healthfacilitytype": "health sub centre", "Facilityname": "Raipanka", "NIN": 2152211781, "latitude": 19.39201, "longitude": 83.98552, "facility_type_standardized": "hsc", "snapped_lon": 83.984437, "snapped_lat": 19.390814 }, "geometry": { "type": "Point", "coordinates": [ 83.984437, 19.390814 ] } },
{ "type": "Feature", "properties": { "Statename": "Odisha", "Districtname": "Gajapati", "Subdistrictname": "Mohana", "Blockname": "Mohana", "Healthblockname": "Mohana", "Healthfacilitytype": "health sub centre", "Facilityname": "Sikulipadar", "NIN": 7441248189, "latitude": 19.39758, "longitude": 84.3438, "facility_type_standardized": "hsc", "snapped_lon": 84.249462, "snapped_lat": 19.565192 }, "geometry": { "type": "Point", "coordinates": [ 84.249462, 19.565192 ] } },
{ "type": "Feature", "properties": { "Statename": "Odisha", "Districtname": "Gajapati", "Subdistrictname": "Mohana", "Blockname": "Mohana", "Healthblockname": "Mohana", "Healthfacilitytype": "health sub centre", "Facilityname": "Pindiki", "NIN": 5436643448, "latitude": 19.39783, "longitude": 84.27127, "facility_type_standardized": "hsc", "snapped_lon": 84.180393, "snapped_lat": 19.509172 }, "geometry": { "type": "Point", "coordinates": [ 84.180393, 19.509172 ] } },
{ "type": "Feature", "properties": { "Statename": "Odisha", "Districtname": "Gajapati", "Subdistrictname": "Mohana", "Blockname": "Mohana", "Healthblockname": "Mohana", "Healthfacilitytype": "health sub centre", "Facilityname": "Guluba", "NIN": 8154477759, "latitude": 19.41767, "longitude": 84.09756, "facility_type_standardized": "hsc", "snapped_lon": 84.099572, "snapped_lat": 19.476147 }, "geometry": { "type": "Point", "coordinates": [ 84.099572, 19.476147 ] } },
{ "type": "Feature", "properties": { "Statename": "Odisha", "Districtname": "Gajapati", "Subdistrictname": "Adava", "Blockname": "Mohana", "Healthblockname": "Mohana", "Healthfacilitytype": "health sub centre", "Facilityname": "Buduli", "NIN": 5447437418, "latitude": 19.4187, "longitude": 84.15067, "facility_type_standardized": "hsc", "snapped_lon": 84.134312, "snapped_lat": 19.469834 }, "geometry": { "type": "Point", "coordinates": [ 84.134312, 19.469834 ] } },
{ "type": "Feature", "properties": { "Statename": "Odisha", "Districtname": "Gajapati", "Subdistrictname": "Mohana", "Blockname": "Mohana", "Healthblockname": "Mohana", "Healthfacilitytype": "health sub centre", "Facilityname": "Mudumudia", "NIN": 3178742734, "latitude": 19.42699, "longitude": 84.32469, "facility_type_standardized": "hsc", "snapped_lon": 84.249462, "snapped_lat": 19.565192 }, "geometry": { "type": "Point", "coordinates": [ 84.249462, 19.565192 ] } },
{ "type": "Feature", "properties": { "Statename": "Odisha", "Districtname": "Gajapati", "Subdistrictname": "Mohana", "Blockname": "Mohana", "Healthblockname": "Mohana", "Healthfacilitytype": "health sub centre", "Facilityname": "Liligada", "NIN": 8584323367, "latitude": 19.43812, "longitude": 84.28442, "facility_type_standardized": "hsc", "snapped_lon": 84.180393, "snapped_lat": 19.509172 }, "geometry": { "type": "Point", "coordinates": [ 84.180393, 19.509172 ] } },
{ "type": "Feature", "properties": { "Statename": "Odisha", "Districtname": "Gajapati", "Subdistrictname": "Mohana", "Blockname": "Mohana", "Healthblockname": "Mohana", "Healthfacilitytype": "health sub centre", "Facilityname": "Mohana", "NIN": 6781783532, "latitude": 19.44212, "longitude": 84.26402, "facility_type_standardized": "hsc", "snapped_lon": 84.180393, "snapped_lat": 19.509172 }, "geometry": { "type": "Point", "coordinates": [ 84.180393, 19.509172 ] } },
{ "type": "Feature", "properties": { "Statename": "Odisha", "Districtname": "Gajapati", "Subdistrictname": "Adava", "Blockname": "Mohana", "Healthblockname": "Mohana", "Healthfacilitytype": "health sub centre", "Facilityname": "Mandimara", "NIN": 5544481830, "latitude": 19.45075, "longitude": 84.00839, "facility_type_standardized": "hsc", "snapped_lon": 84.007201, "snapped_lat": 19.448658 }, "geometry": { "type": "Point", "coordinates": [ 84.007201, 19.448658 ] } },
{ "type": "Feature", "properties": { "Statename": "Odisha", "Districtname": "Gajapati", "Subdistrictname": "Mohana", "Blockname": "Mohana", "Healthblockname": "Mohana", "Healthfacilitytype": "health sub centre", "Facilityname": "Luhagudi", "NIN": 2782658823, "latitude": 19.46175, "longitude": 84.35741, "facility_type_standardized": "hsc", "snapped_lon": 84.249462, "snapped_lat": 19.565192 }, "geometry": { "type": "Point", "coordinates": [ 84.249462, 19.565192 ] } },
{ "type": "Feature", "properties": { "Statename": "Odisha", "Districtname": "Gajapati", "Subdistrictname": "Mohana", "Blockname": "Mohana", "Healthblockname": "Mohana", "Healthfacilitytype": "health sub centre", "Facilityname": "Karachabadi", "NIN": 2473284632, "latitude": 19.46268, "longitude": 84.21207, "facility_type_standardized": "hsc", "snapped_lon": 84.180393, "snapped_lat": 19.509172 }, "geometry": { "type": "Point", "coordinates": [ 84.180393, 19.509172 ] } },
{ "type": "Feature", "properties": { "Statename": "Odisha", "Districtname": "Gajapati", "Subdistrictname": "Adava", "Blockname": "Mohana", "Healthblockname": "Mohana", "Healthfacilitytype": "health sub centre", "Facilityname": "Birikote", "NIN": 6863644321, "latitude": 19.47437, "longitude": 84.09969, "facility_type_standardized": "hsc", "snapped_lon": 84.099572, "snapped_lat": 19.476147 }, "geometry": { "type": "Point", "coordinates": [ 84.099572, 19.476147 ] } },
{ "type": "Feature", "properties": { "Statename": "Odisha", "Districtname": "Gajapati", "Subdistrictname": "Adava", "Blockname": "Mohana", "Healthblockname": "Mohana", "Healthfacilitytype": "health sub centre", "Facilityname": "Balibandha", "NIN": 5841686768, "latitude": 19.48267, "longitude": 84.067, "facility_type_standardized": "hsc", "snapped_lon": 84.06128, "snapped_lat": 19.477382 }, "geometry": { "type": "Point", "coordinates": [ 84.06128, 19.477382 ] } },
{ "type": "Feature", "properties": { "Statename": "Odisha", "Districtname": "Gajapati", "Subdistrictname": "Mohana", "Blockname": "Mohana", "Healthblockname": "Mohana", "Healthfacilitytype": "health sub centre", "Facilityname": "Badkhani", "NIN": 3588518856, "latitude": 19.4838, "longitude": 84.30006, "facility_type_standardized": "hsc", "snapped_lon": 84.249462, "snapped_lat": 19.565192 }, "geometry": { "type": "Point", "coordinates": [ 84.249462, 19.565192 ] } },
{ "type": "Feature", "properties": { "Statename": "Odisha", "Districtname": "Gajapati", "Subdistrictname": "Adava", "Blockname": "Mohana", "Healthblockname": "Mohana", "Healthfacilitytype": "health sub centre", "Facilityname": "Adava", "NIN": 8676343141, "latitude": 19.49121, "longitude": 84.18307, "facility_type_standardized": "hsc", "snapped_lon": 84.180393, "snapped_lat": 19.509172 }, "geometry": { "type": "Point", "coordinates": [ 84.180393, 19.509172 ] } },
{ "type": "Feature", "properties": { "Statename": "Odisha", "Districtname": "Gajapati", "Subdistrictname": "Mohana", "Blockname": "Mohana", "Healthblockname": "Mohana", "Healthfacilitytype": "health sub centre", "Facilityname": "Kesara", "NIN": 6882717181, "latitude": 19.5055, "longitude": 84.31181, "facility_type_standardized": "hsc", "snapped_lon": 84.249462, "snapped_lat": 19.565192 }, "geometry": { "type": "Point", "coordinates": [ 84.249462, 19.565192 ] } },
{ "type": "Feature", "properties": { "Statename": "Odisha", "Districtname": "Gajapati", "Subdistrictname": "Mohana", "Blockname": "Mohana", "Healthblockname": "Mohana", "Healthfacilitytype": "health sub centre", "Facilityname": "P Govindapur", "NIN": 5254621617, "latitude": 19.51401, "longitude": 84.33457, "facility_type_standardized": "hsc", "snapped_lon": 84.249937, "snapped_lat": 19.56588 }, "geometry": { "type": "Point", "coordinates": [ 84.249937, 19.56588 ] } },
{ "type": "Feature", "properties": { "Statename": "Odisha", "Districtname": "Gajapati", "Subdistrictname": "Adava", "Blockname": "Mohana", "Healthblockname": "Mohana", "Healthfacilitytype": "health sub centre", "Facilityname": "Jhiliki", "NIN": 4413258486, "latitude": 19.51602, "longitude": 84.17199, "facility_type_standardized": "hsc", "snapped_lon": 84.177108, "snapped_lat": 19.514295 }, "geometry": { "type": "Point", "coordinates": [ 84.177108, 19.514295 ] } },
{ "type": "Feature", "properties": { "Statename": "Odisha", "Districtname": "Gajapati", "Subdistrictname": "Mohana", "Blockname": "Mohana", "Healthblockname": "Mohana", "Healthfacilitytype": "health sub centre", "Facilityname": "Jarau", "NIN": 5487735184, "latitude": 19.53768, "longitude": 84.37057, "facility_type_standardized": "hsc", "snapped_lon": 84.316296, "snapped_lat": 19.628827 }, "geometry": { "type": "Point", "coordinates": [ 84.316296, 19.628827 ] } },
{ "type": "Feature", "properties": { "Statename": "Odisha", "Districtname": "Gajapati", "Subdistrictname": "Mohana", "Blockname": "Mohana", "Healthblockname": "Mohana", "Healthfacilitytype": "health sub centre", "Facilityname": "Malasapadar", "NIN": 2311643510, "latitude": 19.55244, "longitude": 84.32903, "facility_type_standardized": "hsc", "snapped_lon": 84.292855, "snapped_lat": 19.614791 }, "geometry": { "type": "Point", "coordinates": [ 84.292855, 19.614791 ] } },
{ "type": "Feature", "properties": { "Statename": "Odisha", "Districtname": "Gajapati", "Subdistrictname": "Mohana", "Blockname": "Mohana", "Healthblockname": "Mohana", "Healthfacilitytype": "health sub centre", "Facilityname": "Damadua", "NIN": 8338366175, "latitude": 19.55975, "longitude": 84.15946, "facility_type_standardized": "hsc", "snapped_lon": 84.159681, "snapped_lat": 19.558969 }, "geometry": { "type": "Point", "coordinates": [ 84.159681, 19.558969 ] } },
{ "type": "Feature", "properties": { "Statename": "Odisha", "Districtname": "Gajapati", "Subdistrictname": "Mohana", "Blockname": "Mohana", "Healthblockname": "Mohana", "Healthfacilitytype": "health sub centre", "Facilityname": "Rajakhama", "NIN": 6675568684, "latitude": 19.56715, "longitude": 84.02393, "facility_type_standardized": "hsc", "snapped_lon": 84.055919, "snapped_lat": 19.618281 }, "geometry": { "type": "Point", "coordinates": [ 84.055919, 19.618281 ] } },
{ "type": "Feature", "properties": { "Statename": "Odisha", "Districtname": "Gajapati", "Subdistrictname": "Adava", "Blockname": "Mohana", "Healthblockname": "Mohana", "Healthfacilitytype": "health sub centre", "Facilityname": "K Garadama", "NIN": 2567782830, "latitude": 19.57114, "longitude": 83.94025, "facility_type_standardized": "hsc", "snapped_lon": 84.035856, "snapped_lat": 19.627258 }, "geometry": { "type": "Point", "coordinates": [ 84.035856, 19.627258 ] } },
{ "type": "Feature", "properties": { "Statename": "Odisha", "Districtname": "Gajapati", "Subdistrictname": "Adava", "Blockname": "Mohana", "Healthblockname": "Mohana", "Healthfacilitytype": "health sub centre", "Facilityname": "Paniganda", "NIN": 2184824825, "latitude": 19.60277, "longitude": 84.12045, "facility_type_standardized": "hsc", "snapped_lon": 84.119656, "snapped_lat": 19.601237 }, "geometry": { "type": "Point", "coordinates": [ 84.119656, 19.601237 ] } },
{ "type": "Feature", "properties": { "Statename": "Odisha", "Districtname": "Gajapati", "Subdistrictname": "Mohana", "Blockname": "Mohana", "Healthblockname": "Mohana", "Healthfacilitytype": "health sub centre", "Facilityname": "Dephaguda", "NIN": 5552517657, "latitude": 19.60551, "longitude": 84.01734, "facility_type_standardized": "hsc", "snapped_lon": 84.035856, "snapped_lat": 19.627258 }, "geometry": { "type": "Point", "coordinates": [ 84.035856, 19.627258 ] } }
]
}
