{
"type": "FeatureCollection",
"name": "jagatsinghapur_facilities_snapped",
"crs": { "type": "name", "properties": { "name": "urn:ogc:def:crs:OGC:1.3:CRS84" } },
"features": [
{ "type": "Feature", "properties": { "Statename": "Odisha", "Districtname": "Jagatsinghapur", "Subdistrictname": "Naugaon", "Blockname": "Naugaon", "Healthblockname": "Naugaon", "Healthfacilitytype": "community health centre", "Facilityname": "Naugaon", "NIN": 8244756360, "latitude": 20.1034, "longitude": 86.18935, "facility_type_standardized": "chc", "snapped_lon": 86.166594, "snapped_lat": 20.068688 }, "geometry": { "type": "Point", "coordinates": [ 86.166594, 20.068688 ] } },
{ "type": "Feature", "properties": { "Statename": "Odisha", "Districtname": "Jagatsinghapur", "Subdistrictname": "Balikuda", "Blockname": "Balikuda", "Healthblockname": "Balikuda", "Healthfacilitytype": "community health centre", "Facilityname": "Balikuda", "NIN": 1751143312, "latitude": 20.14279, "longitude": 86.27273, "facility_type_standardized": "chc", "snapped_lon": 86.276694, "snapped_lat": 20.086687 }, "geometry": { "type": "Point", "coordinates": [ 86.276694, 20.086687 ] } },
{ "type": "Feature", "properties": { "Statename": "Odisha", "Districtname": "Jagatsinghapur", "Subdistrictname": "Ersama", "Blockname": "Erasama", "Healthblockname": "Erasama", "Healthfacilitytype": "community health centre", "Facilityname": "Ersama", "NIN": 7781547422, "latitude": 20.20137, "longitude": 86.40738, "facility_type_standardized": "chc", "snapped_lon": 86.461032, "snapped_lat": 20.114504 }, "geometry": { "type": "Point", "coordinates": [ 86.461032, 20.114504 ] } },
{ "type": "Feature", "properties": { "Statename": "Odisha", "Districtname": "Jagatsinghapur", "Subdistrictname": "Paradip", "Blockname": "Notmapped", "Healthblockname": "Notmapped", "Healthfacilitytype": "community health centre", "Facilityname": "Paradeep CHC", "NIN": 6172764844, "latitude": 20.26743, "longitude": 86.65297, "facility_type_standardized": "chc", "snapped_lon": 86.657156, "snapped_lat": 20.281988 }, "geometry": { "type": "Point", "coordinates": [ 86.657156, 20.281988 ] } },
{ "type": "Feature", "properties": { "Statename": "Odisha", "Districtname": "Jagatsinghapur", "Subdistrictname": "Jagatsinghapur", "Blockname": "Jagatsinghpur", "Healthblockname": "Jagatsinghpur", "Healthfacilitytype": "community health centre", "Facilityname": "Mandasahi", "NIN": 7786332242, "latitude": 20.27542, "longitude": 86.10931, "facility_type_standardized": "chc", "snapped_lon": 86.166021, "snapped_lat": 20.069067 }, "geometry": { "type": "Point", "coordinates": [ 86.166021, 20.069067 ] } },
{ "type": "Feature", "properties": { "Statename": "Odisha", "Districtname": "Jagatsinghapur", "Subdistrictname": "Tirtol", "Blockname": "Tirtol", "Healthblockname": "Tirtol", "Healthfacilitytype": "community health centre", "Facilityname": "Manijanga", "NIN": 2457672844, "latitude": 20.30514, "longitude": 86.37892, "facility_type_standardized": "chc", "snapped_lon": 86.571021, "snapped_lat": 20.23589 }, "geometry": { "type": "Point", "coordinates": [ 86.571021, 20.23589 ] } },
{ "type": "Feature", "properties": { "Statename": "Odisha", "Districtname": "Jagatsinghapur", "Subdistrictname": "Kujang", "Blockname": "Kujang", "Healthblockname": "Kujanga", "Healthfacilitytype": "community health centre", "Facilityname": "Kunjanga", "NIN": 3377732825, "latitude": 20.31955, "longitude": 86.52682, "facility_type_standardized": "chc", "snapped_lon": 86.585525, "snapped_lat": 20.262395 }, "geometry": { "type": "Point", "coordinates": [ 86.585525, 20.262395 ] } },
{ "type": "Feature", "properties": { "Statename": "Odisha", "Districtname": "Jagatsinghapur", "Subdistrictname": "Biridi", "Blockname": "Biridi", "Healthblockname": "Biridi", "Healthfacilitytype": "community health centre", "Facilityname": "Biridi", "NIN": 1448844124, "latitude": 20.35721, "longitude": 86.08302, "facility_type_standardized": "chc", "snapped_lon": 86.166021, "snapped_lat": 20.069067 }, "geometry": { "type": "Point", "coordinates": [ 86.166021, 20.069067 ] } },
{ "type": "Feature", "properties": { "Statename": "Odisha", "Districtname": "Jagatsinghapur", "Subdistrictname": "Jagatsinghapur", "Blockname": "Raghunathpur", "Healthblockname": "Raghunathpur", "Healthfacilitytype": "community health centre", "Facilityname": "Raghunathpur", "NIN": 5872858260, "latitude": 20.36276, "longitude": 86.16055, "facility_type_standardized": "chc", "snapped_lon": 86.166021, "snapped_lat": 20.069067 }, "geometry": { "type": "Point", "coordinates": [ 86.166021, 20.069067 ] } },
{ "type": "Feature", "properties": { "Statename": "Odisha", "Districtname": "Jagatsinghapur", "Subdistrictname": "Jagatsinghapur", "Blockname": "Jagatsinghpur", "Healthblockname": "Notmapped", "Healthfacilitytype": "district hospital", "Facilityname": "Jagatsinghpur", "NIN": 7657735473, "latitude": 20.25234, "longitude": 86.18198, "facility_type_standardized": "dh", "snapped_lon": 86.166021, "snapped_lat": 20.069067 }, "geometry": { "type": "Point", "coordinates": [ 86.166021, 20.069067 ] } },
{ "type": "Feature", "properties": { "Statename": "Odisha", "Districtname": "Jagatsinghapur", "Subdistrictname": "Balikuda", "Blockname": "Balikuda", "Healthblockname": "Balikuda", "Healthfacilitytype": "primary health centre", "Facilityname": "Dasbatia", "NIN": 5888573523, "latitude": 20.03817, "longitude": 86.33012, "facility_type_standardized": "phc", "snapped_lon": 86.332054, "snapped_lat": 20.03904 }, "geometry": { "type": "Point", "coordinates": [ 86.332054, 20.03904 ] } },
{ "type": "Feature", "properties": { "Statename": "Odisha", "Districtname": "Jagatsinghapur", "Subdistrictname": "Balikuda", "Blockname": "Balikuda", "Healthblockname": "Balikuda", "Healthfacilitytype": "primary health centre", "Facilityname": "Tarashi", "NIN": 1111457246, "latitude": 20.04452, "longitude": 86.27882, "facility_type_standardized": "phc", "snapped_lon": 86.278322, "snapped_lat": 20.044976 }, "geometry": { "type": "Point", "coordinates": [ 86.278322, 20.044976 ] } },
{ "type": "Feature", "properties": { "Statename": "Odisha", "Districtname": "Jagatsinghapur", "Subdistrictname": "Naugaon", "Blockname": "Naugaon", "Healthblockname": "Naugaon", "Healthfacilitytype": "primary health centre", "Facilityname": "Deriki", "NIN": 2168212161, "latitude": 20.06359, "longitude": 86.22511, "facility_type_standardized": "phc", "snapped_lon": 86.20016, "snapped_lat": 20.04353 }, "geometry": { "type": "Point", "coordinates": [ 86.20016, 20.04353 ] } },
{ "type": "Feature", "properties": { "Statename": "Odisha", "Districtname": "Jagatsinghapur", "Subdistrictname": "Balikuda", "Blockname": "Balikuda", "Healthblockname": "Balikuda", "Healthfacilitytype": "primary health centre", "Facilityname": "Oskana", "NIN": 4647781568, "latitude": 20.06908, "longitude": 86.32029, "facility_type_standardized": "phc", "snapped_lon": 86.312858, "snapped_lat": 20.065385 }, "geometry": { "type": "Point", "coordinates": [ 86.312858, 20.065385 ] } },
{ "type": "Feature", "properties": { "Statename": "Odisha", "Districtname": "Jagatsinghapur", "Subdistrictname": "Balikuda", "Blockname": "Balikuda", "Healthblockname": "Balikuda", "Healthfacilitytype": "primary health centre", "Facilityname": "Brahmandi", "NIN": 8586181748, "latitude": 20.06954, "longitude": 86.35602, "facility_type_standardized": "phc", "snapped_lon": 86.32632, "snapped_lat": 20.057646 }, "geometry": { "type": "Point", "coordinates": [ 86.32632, 20.057646 ] } },
{ "type": "Feature", "properties": { "Statename": "Odisha", "Districtname": "Jagatsinghapur", "Subdistrictname": "Balikuda", "Blockname": "Balikuda", "Healthblockname": "Balikuda", "Healthfacilitytype": "primary health centre", "Facilityname": "Machhagaon", "NIN": 3148536877, "latitude": 20.07022, "longitude": 86.27987, "facility_type_standardized": "phc", "snapped_lon": 86.291922, "snapped_lat": 20.061195 }, "geometry": { "type": "Point", "coordinates": [ 86.291922, 20.061195 ] } },
{ "type": "Feature", "properties": { "Statename": "Odisha", "Districtname": "Jagatsinghapur", "Subdistrictname": "Balikuda", "Blockname": "Balikuda", "Healthblockname": "Balikuda", "Healthfacilitytype": "community health centre", "Facilityname": "Borikina", "NIN": 8515737487, "latitude": 20.11945, "longitude": 86.32706, "facility_type_standardized": "chc", "snapped_lon": 86.299744, "snapped_lat": 20.07828 }, "geometry": { "type": "Point", "coordinates": [ 86.299744, 20.07828 ] } },
{ "type": "Feature", "properties": { "Statename": "Odisha", "Districtname": "Jagatsinghapur", "Subdistrictname": "Ersama", "Blockname": "Erasama", "Healthblockname": "Erasama", "Healthfacilitytype": "primary health centre", "Facilityname": "Panchupalli", "NIN": 8626578184, "latitude": 20.14289, "longitude": 86.45413, "facility_type_standardized": "phc", "snapped_lon": 86.461032, "snapped_lat": 20.114504 }, "geometry": { "type": "Point", "coordinates": [ 86.461032, 20.114504 ] } },
{ "type": "Feature", "properties": { "Statename": "Odisha", "Districtname": "Jagatsinghapur", "Subdistrictname": "Naugaon", "Blockname": "Naugaon", "Healthblockname": "Naugaon", "Healthfacilitytype": "primary health centre", "Facilityname": "Alanahata", "NIN": 8278518330, "latitude": 20.16867, "longitude": 86.19965, "facility_type_standardized": "phc", "snapped_lon": 86.166021, "snapped_lat": 20.069067 }, "geometry": { "type": "Point", "coordinates": [ 86.166021, 20.069067 ] } },
{ "type": "Feature", "properties": { "Statename": "Odisha", "Districtname": "Jagatsinghapur", "Subdistrictname": "Jagatsinghapur", "Blockname": "Jagatsinghpur", "Healthblockname": "Jagatsinghpur", "Healthfacilitytype": "primary health centre", "Facilityname": "Kaduapada", "NIN": 7211281311, "latitude": 20.21891, "longitude": 86.23248, "facility_type_standardized": "phc", "snapped_lon": 86.276694, "snapped_lat": 20.086687 }, "geometry": { "type": "Point", "coordinates": [ 86.276694, 20.086687 ] } },
{ "type": "Feature", "properties": { "Statename": "Odisha", "Districtname": "Jagatsinghapur", "Subdistrictname": "Tirtol", "Blockname": "Tirtol", "Healthblockname": "Tirtol", "Healthfacilitytype": "primary health centre", "Facilityname": "Badijanga", "NIN": 8163472478, "latitude": 20.2258, "longitude": 86.30585, "facility_type_standardized": "phc", "snapped_lon": 86.277518, "snapped_lat": 20.086526 }, "geometry": { "type": "Point", "coordinates": [ 86.277518, 20.086526 ] } },
{ "type": "Feature", "properties": { "Statename": "Odisha", "Districtname": "Jagatsinghapur", "Subdistrictname": "Tirtol", "Blockname": "Tirtol", "Healthblockname": "Tirtol", "Healthfacilitytype": "primary health centre", "Facilityname": "Katra", "NIN": 2565165145, "latitude": 20.22907, "longitude": 86.27588, "facility_type_standardized": "phc", "snapped_lon": 86.276694, "snapped_lat": 20.086687 }, "geometry": { "type": "Point", "coordinates": [ 86.276694, 20.086687 ] } },
{ "type": "Feature", "properties": { "Statename": "Odisha", "Districtname": "Jagatsinghapur", "Subdistrictname": "Ersama", "Blockname": "Erasama", "Healthblockname": "Erasama", "Healthfacilitytype": "primary health centre", "Facilityname": "Dihasai", "NIN": 4125521452, "latitude": 20.23475, "longitude": 86.42986, "facility_type_standardized": "phc", "snapped_lon": 86.475923, "snapped_lat": 20.122346 }, "geometry": { "type": "Point", "coordinates": [ 86.475923, 20.122346 ] } },
{ "type": "Feature", "properties": { "Statename": "Odisha", "Districtname": "Jagatsinghapur", "Subdistrictname": "Ersama", "Blockname": "Erasama", "Healthblockname": "Erasama", "Healthfacilitytype": "primary health centre", "Facilityname": "Malipur", "NIN": 5646578855, "latitude": 20.23513, "longitude": 86.44729, "facility_type_standardized": "phc", "snapped_lon": 86.480043, "snapped_lat": 20.123976 }, "geometry": { "type": "Point", "coordinates": [ 86.480043, 20.123976 ] } },
{ "type": "Feature", "properties": { "Statename": "Odisha", "Districtname": "Jagatsinghapur", "Subdistrictname": "Ersama", "Blockname": "Erasama", "Healthblockname": "Erasama", "Healthfacilitytype": "primary health centre", "Facilityname": "Dhinkia", "NIN": 8858721429, "latitude": 20.23667, "longitude": 86.57375, "facility_type_standardized": "phc", "snapped_lon": 86.57335, "snapped_lat": 20.237251 }, "geometry": { "type": "Point", "coordinates": [ 86.57335, 20.237251 ] } },
{ "type": "Feature", "properties": { "Statename": "Odisha", "Districtname": "Jagatsinghapur", "Subdistrictname": "Tirtol", "Blockname": "Tirtol", "Healthblockname": "Tirtol", "Healthfacilitytype": "primary health centre", "Facilityname": "Jaganathpur", "NIN": 3327438630, "latitude": 20.23839, "longitude": 86.34501, "facility_type_standardized": "phc", "snapped_lon": 86.287996, "snapped_lat": 20.084202 }, "geometry": { "type": "Point", "coordinates": [ 86.287996, 20.084202 ] } },
{ "type": "Feature", "properties": { "Statename": "Odisha", "Districtname": "Jagatsinghapur", "Subdistrictname": "Kujang", "Blockname": "Erasama", "Healthblockname": "Erasama", "Healthfacilitytype": "primary health centre", "Facilityname": "Balitutha", "NIN": 4468137247, "latitude": 20.24075, "longitude": 86.52994, "facility_type_standardized": "phc", "snapped_lon": 86.571021, "snapped_lat": 20.23589 }, "geometry": { "type": "Point", "coordinates": [ 86.571021, 20.23589 ] } },
{ "type": "Feature", "properties": { "Statename": "Odisha", "Districtname": "Jagatsinghapur", "Subdistrictname": "Jagatsinghapur", "Blockname": "Jagatsinghpur", "Healthblockname": "Jagatsinghpur", "Healthfacilitytype": "primary health centre", "Facilityname": "Salajanga", "NIN": 6768824135, "latitude": 20.24918, "longitude": 86.12975, "facility_type_standardized": "phc", "snapped_lon": 86.166021, "snapped_lat": 20.069067 }, "geometry": { "type": "Point", "coordinates": [ 86.166021, 20.069067 ] } },
{ "type": "Feature", "properties": { "Statename": "Odisha", "Districtname": "Jagatsinghapur", "Subdistrictname": "Jagatsinghapur", "Blockname": "Jagatsinghpur", "Healthblockname": "Jagatsinghpur", "Healthfacilitytype": "primary health centre", "Facilityname": "Piteipur", "NIN": 6632885643, "latitude": 20.25221, "longitude": 86.23169, "facility_type_standardized": "phc", "snapped_lon": 86.276694, "snapped_lat": 20.086687 }, "geometry": { "type": "Point", "coordinates": [ 86.276694, 20.086687 ] } },
{ "type": "Feature", "properties": { "Statename": "Odisha", "Districtname": "Jagatsinghapur", "Subdistrictname": "Tirtol", "Blockname": "Kujang", "Healthblockname": "Kujanga", "Healthfacilitytype": "primary health centre", "Facilityname": "Gorada", "NIN": 4675453478, "latitude": 20.25587, "longitude": 86.38525, "facility_type_standardized": "phc", "snapped_lon": 86.461032, "snapped_lat": 20.114504 }, "geometry": { "type": "Point", "coordinates": [ 86.461032, 20.114504 ] } },
{ "type": "Feature", "properties": { "Statename": "Odisha", "Districtname": "Jagatsinghapur", "Subdistrictname": "Tirtol", "Blockname": "Kujang", "Healthblockname": "Kujanga", "Healthfacilitytype": "primary health centre", "Facilityname": "Potanai", "NIN": 4663681387, "latitude": 20.26697, "longitude": 86.46958, "facility_type_standardized": "phc", "snapped_lon": 86.571021, "snapped_lat": 20.23589 }, "geometry": { "type": "Point", "coordinates": [ 86.571021, 20.23589 ] } },
{ "type": "Feature", "properties": { "Statename": "Odisha", "Districtname": "Jagatsinghapur", "Subdistrictname": "Tirtol", "Blockname": "Tirtol", "Healthblockname": "Tirtol", "Healthfacilitytype": "primary health centre", "Facilityname": "Kanakapur", "NIN": 7572343742, "latitude": 20.28198, "longitude": 86.29361, "facility_type_standardized": "phc", "snapped_lon": 86.276694, "snapped_lat": 20.086687 }, "geometry": { "type": "Point", "coordinates": [ 86.276694, 20.086687 ] } },
{ "type": "Feature", "properties": { "Statename": "Odisha", "Districtname": "Jagatsinghapur", "Subdistrictname": "Tirtol", "Blockname": "Tirtol", "Healthblockname": "Tirtol", "Healthfacilitytype": "primary health centre", "Facilityname": "Sanara", "NIN": 2726427848, "latitude": 20.28456, "longitude": 86.24249, "facility_type_standardized": "phc", "snapped_lon": 86.276694, "snapped_lat": 20.086687 }, "geometry": { "type": "Point", "coordinates": [ 86.276694, 20.086687 ] } },
{ "type": "Feature", "properties": { "Statename": "Odisha", "Districtname": "Jagatsinghapur", "Subdistrictname": "Jagatsinghapur", "Blockname": "Jagatsinghpur", "Healthblockname": "Jagatsinghpur", "Healthfacilitytype": "primary health centre", "Facilityname": "Palasola", "NIN": 1111457279, "latitude": 20.29303, "longitude": 86.18143, "facility_type_standardized": "phc", "snapped_lon": 86.166021, "snapped_lat": 20.069067 }, "geometry": { "type": "Point", "coordinates": [ 86.166021, 20.069067 ] } },
{ "type": "Feature", "properties": { "Statename": "Odisha", "Districtname": "Jagatsinghapur", "Subdistrictname": "Biridi", "Blockname": "Biridi", "Healthblockname": "Biridi", "Healthfacilitytype": "primary health centre", "Facilityname": "Bagalpur", "NIN": 8726243762, "latitude": 20.29429, "longitude": 86.08977, "facility_type_standardized": "phc", "snapped_lon": 86.166021, "snapped_lat": 20.069067 }, "geometry": { "type": "Point", "coordinates": [ 86.166021, 20.069067 ] } },
{ "type": "Feature", "properties": { "Statename": "Odisha", "Districtname": "Jagatsinghapur", "Subdistrictname": "Kujang", "Blockname": "Kujang", "Healthblockname": "Kujanga", "Healthfacilitytype": "primary health centre", "Facilityname": "Pankapal", "NIN": 5463734284, "latitude": 20.30048, "longitude": 86.44534, "facility_type_standardized": "phc", "snapped_lon": 86.571021, "snapped_lat": 20.23589 }, "geometry": { "type": "Point", "coordinates": [ 86.571021, 20.23589 ] } },
{ "type": "Feature", "properties": { "Statename": "Odisha", "Districtname": "Jagatsinghapur", "Subdistrictname": "Tirtol", "Blockname": "Kujang", "Healthblockname": "Kujanga", "Healthfacilitytype": "primary health centre", "Facilityname": "Rahama", "NIN": 1316257169, "latitude": 20.30177, "longitude": 86.39041, "facility_type_standardized": "phc", "snapped_lon": 86.571021, "snapped_lat": 20.23589 }, "geometry": { "type": "Point", "coordinates": [ 86.571021, 20.23589 ] } },
{ "type": "Feature", "properties": { "Statename": "Odisha", "Districtname": "Jagatsinghapur", "Subdistrictname": "Kujang", "Blockname": "Kujang", "Healthblockname": "Kujanga", "Healthfacilitytype": "primary health centre", "Facilityname": "Malahunka", "NIN": 1573878277, "latitude": 20.30664, "longitude": 86.60765, "facility_type_standardized": "phc", "snapped_lon": 86.607985, "snapped_lat": 20.270536 }, "geometry": { "type": "Point", "coordinates": [ 86.607985, 20.270536 ] } },
{ "type": "Feature", "properties": { "Statename": "Odisha", "Districtname": "Jagatsinghapur", "Subdistrictname": "Jagatsinghapur", "Blockname": "Raghunathpur", "Healthblockname": "Raghunathpur", "Healthfacilitytype": "primary health centre", "Facilityname": "Tarikund", "NIN": 4233334475, "latitude": 20.30829, "longitude": 86.12862, "facility_type_standardized": "phc", "snapped_lon": 86.166021, "snapped_lat": 20.069067 }, "geometry": { "type": "Point", "coordinates": [ 86.166021, 20.069067 ] } },
{ "type": "Feature", "properties": { "Statename": "Odisha", "Districtname": "Jagatsinghapur", "Subdistrictname": "Balikuda", "Blockname": "Raghunathpur", "Healthblockname": "Raghunathpur", "Healthfacilitytype": "community health centre", "Facilityname": "Redhua", "NIN": 3478236429, "latitude": 20.31736, "longitude": 86.21016, "facility_type_standardized": "chc", "snapped_lon": 86.276694, "snapped_lat": 20.086687 }, "geometry": { "type": "Point", "coordinates": [ 86.276694, 20.086687 ] } },
{ "type": "Feature", "properties": { "Statename": "Odisha", "Districtname": "Jagatsinghapur", "Subdistrictname": "Kujang", "Blockname": "Kujang", "Healthblockname": "Kujanga", "Healthfacilitytype": "primary health centre", "Facilityname": "Hansura", "NIN": 8666178184, "latitude": 20.32512, "longitude": 86.42387, "facility_type_standardized": "phc", "snapped_lon": 86.571021, "snapped_lat": 20.23589 }, "geometry": { "type": "Point", "coordinates": [ 86.571021, 20.23589 ] } },
{ "type": "Feature", "properties": { "Statename": "Odisha", "Districtname": "Jagatsinghapur", "Subdistrictname": "Jagatsinghapur", "Blockname": "Raghunathpur", "Healthblockname": "Raghunathpur", "Healthfacilitytype": "primary health centre", "Facilityname": "Jaipur", "NIN": 6185746440, "latitude": 20.3304, "longitude": 86.26923, "facility_type_standardized": "phc", "snapped_lon": 86.276694, "snapped_lat": 20.086687 }, "geometry": { "type": "Point", "coordinates": [ 86.276694, 20.086687 ] } },
{ "type": "Feature", "properties": { "Statename": "Odisha", "Districtname": "Jagatsinghapur", "Subdistrictname": "Tirtol", "Blockname": "Tirtol", "Healthblockname": "Tirtol", "Healthfacilitytype": "primary health centre", "Facilityname": "Kolar", "NIN": 8526713881, "latitude": 20.33088, "longitude": 86.38148, "facility_type_standardized": "phc", "snapped_lon": 86.571021, "snapped_lat": 20.23589 }, "geometry": { "type": "Point", "coordinates": [ 86.571021, 20.23589 ] } },
{ "type": "Feature", "properties": { "Statename": "Odisha", "Districtname": "Jagatsinghapur", "Subdistrictname": "Tirtol", "Blockname": "Tirtol", "Healthblockname": "Tirtol", "Healthfacilitytype": "primary health centre", "Facilityname": "Kanimul", "NIN": 3551862117, "latitude": 20.33394, "longitude": 86.30247, "facility_type_standardized": "phc", "snapped_lon": 86.276694, "snapped_lat": 20.086687 }, "geometry": { "type": "Point", "coordinates": [ 86.276694, 20.086687 ] } },
{ "type": "Feature", "properties": { "Statename": "Odisha", "Districtname": "Jagatsinghapur", "Subdistrictname": "Biridi", "Blockname": "Biridi", "Healthblockname": "Biridi", "Healthfacilitytype": "primary health centre", "Facilityname": "Adhangagarh", "NIN": 5261115447, "latitude": 20.33562, "longitude": 86.11246, "facility_type_standardized": "phc", "snapped_lon": 86.166021, "snapped_lat": 20.069067 }, "geometry": { "type": "Point", "coordinates": [ 86.166021, 20.069067 ] } },
{ "type": "Feature", "properties": { "Statename": "Odisha", "Districtname": "Jagatsinghapur", "Subdistrictname": "Tirtol", "Blockname": "Tirtol", "Healthblockname": "Tirtol", "Healthfacilitytype": "primary health centre", "Facilityname": "Krishnanandapur", "NIN": 7161668889, "latitude": 20.35832, "longitude": 86.2588, "facility_type_standardized": "phc", "snapped_lon": 86.276694, "snapped_lat": 20.086687 }, "geometry": { "type": "Point", "coordinates": [ 86.276694, 20.086687 ] } },
{ "type": "Feature", "properties": { "Statename": "Odisha", "Districtname": "Jagatsinghapur", "Subdistrictname": "Jagatsinghapur", "Blockname": "Raghunathpur", "Healthblockname": "Raghunathpur", "Healthfacilitytype": "primary health centre", "Facilityname": "Uttarkul", "NIN": 8383671453, "latitude": 20.388, "longitude": 86.23427, "facility_type_standardized": "phc", "snapped_lon": 86.276694, "snapped_lat": 20.086687 }, "geometry": { "type": "Point", "coordinates": [ 86.276694, 20.086687 ] } },
{ "type": "Feature", "properties": { "Statename": "Odisha", "Districtname": "Jagatsinghapur", "Subdistrictname": "Balikuda", "Blockname": "Balikuda", "Healthblockname": "Balikuda", "Healthfacilitytype": "health sub centre", "Facilityname": "Marchipur", "NIN": 6354717875, "latitude": 20.00795, "longitude": 86.35083, "facility_type_standardized": "hsc", "snapped_lon": 86.351545, "snapped_lat": 20.008268 }, "geometry": { "type": "Point", "coordinates": [ 86.351545, 20.008268 ] } },
{ "type": "Feature", "properties": { "Statename": "Odisha", "Districtname": "Jagatsinghapur", "Subdistrictname": "Balikuda", "Blockname": "Balikuda", "Healthblockname": "Balikuda", "Healthfacilitytype": "health sub centre", "Facilityname": "Ichhapur", "NIN": 3283755480, "latitude": 20.01282, "longitude": 86.36972, "facility_type_standardized": "hsc", "snapped_lon": 86.357143, "snapped_lat": 20.005658 }, "geometry": { "type": "Point", "coordinates": [ 86.357143, 20.005658 ] } },
{ "type": "Feature", "properties": { "Statename": "Odisha", "Districtname": "Jagatsinghapur", "Subdistrictname": "Balikuda", "Blockname": "Balikuda", "Healthblockname": "Balikuda", "Healthfacilitytype": "health sub centre", "Facilityname": "Naharana", "NIN": 4638286171, "latitude": 20.02608, "longitude": 86.33952, "facility_type_standardized": "hsc", "snapped_lon": 86.34097, "snapped_lat": 20.027356 }, "geometry": { "type": "Point", "coordinates": [ 86.34097, 20.027356 ] } },
{ "type": "Feature", "properties": { "Statename": "Odisha", "Districtname": "Jagatsinghapur", "Subdistrictname": "Balikuda", "Blockname": "Balikuda", "Healthblockname": "Balikuda", "Healthfacilitytype": "health sub centre", "Facilityname": "Baramundali", "NIN": 4862457753, "latitude": 20.03417, "longitude": 86.33995, "facility_type_standardized": "hsc", "snapped_lon": 86.337774, "snapped_lat": 20.029647 }, "geometry": { "type": "Point", "coordinates": [ 86.337774, 20.029647 ] } },
{ "type": "Feature", "properties": { "Statename": "Odisha", "Districtname": "Jagatsinghapur", "Subdistrictname": "Balikuda", "Blockname": "Balikuda", "Healthblockname": "Balikuda", "Healthfacilitytype": "health sub centre", "Facilityname": "Talagaon", "NIN": 1727486647, "latitude": 20.04408, "longitude": 86.33718, "facility_type_standardized": "hsc", "snapped_lon": 86.332054, "snapped_lat": 20.03904 }, "geometry": { "type": "Point", "coordinates": [ 86.332054, 20.03904 ] } },
{ "type": "Feature", "properties": { "Statename": "Odisha", "Districtname": "Jagatsinghapur", "Subdistrictname": "Balikuda", "Blockname": "Balikuda", "Healthblockname": "Balikuda", "Healthfacilitytype": "health sub centre", "Facilityname": "Tarasahi", "NIN": 7882631679, "latitude": 20.04506, "longitude": 86.27959, "facility_type_standardized": "hsc", "snapped_lon": 86.278322, "snapped_lat": 20.044976 }, "geometry": { "type": "Point", "coordinates": [ 86.278322, 20.044976 ] } },
{ "type": "Feature", "properties": { "Statename": "Odisha", "Districtname": "Jagatsinghapur", "Subdistrictname": "Naugaon", "Blockname": "Naugaon", "Healthblockname": "Naugaon", "Healthfacilitytype": "health sub centre", "Facilityname": "Oskana", "NIN": 4118113614, "latitude": 20.04606, "longitude": 86.21606, "facility_type_standardized": "hsc", "snapped_lon": 86.206846, "snapped_lat": 20.035475 }, "geometry": { "type": "Point", "coordinates": [ 86.206846, 20.035475 ] } },
{ "type": "Feature", "properties": { "Statename": "Odisha", "Districtname": "Jagatsinghapur", "Subdistrictname": "Balikuda", "Blockname": "Balikuda", "Healthblockname": "Balikuda", "Healthfacilitytype": "health sub centre", "Facilityname": "Kusupur", "NIN": 6327212152, "latitude": 20.04615, "longitude": 86.39393, "facility_type_standardized": "hsc", "snapped_lon": 86.397986, "snapped_lat": 20.052439 }, "geometry": { "type": "Point", "coordinates": [ 86.397986, 20.052439 ] } },
{ "type": "Feature", "properties": { "Statename": "Odisha", "Districtname": "Jagatsinghapur", "Subdistrictname": "Ersama", "Blockname": "Erasama", "Healthblockname": "Erasama", "Healthfacilitytype": "health sub centre", "Facilityname": "Gadaharishipur", "NIN": 4652388663, "latitude": 20.06281, "longitude": 86.42527, "facility_type_standardized": "hsc", "snapped_lon": 86.411734, "snapped_lat": 20.046902 }, "geometry": { "type": "Point", "coordinates": [ 86.411734, 20.046902 ] } },
{ "type": "Feature", "properties": { "Statename": "Odisha", "Districtname": "Jagatsinghapur", "Subdistrictname": "Balikuda", "Blockname": "Balikuda", "Healthblockname": "Balikuda", "Healthfacilitytype": "health sub centre", "Facilityname": "Anantapur", "NIN": 8688557258, "latitude": 20.06372, "longitude": 86.34535, "facility_type_standardized": "hsc", "snapped_lon": 86.32632, "snapped_lat": 20.057646 }, "geometry": { "type": "Point", "coordinates": [ 86.32632, 20.057646 ] } },
{ "type": "Feature", "properties": { "Statename": "Odisha", "Districtname": "Jagatsinghapur", "Subdistrictname": "Naugaon", "Blockname": "Naugaon", "Healthblockname": "Naugaon", "Healthfacilitytype": "health sub centre", "Facilityname": "Deriki", "NIN": 5366838455, "latitude": 20.067, "longitude": 86.21884, "facility_type_standardized": "hsc", "snapped_lon": 86.197437, "snapped_lat": 20.046124 }, "geometry": { "type": "Point", "coordinates": [ 86.197437, 20.046124 ] } },
{ "type": "Feature", "properties": { "Statename": "Odisha", "Districtname": "Jagatsinghapur", "Subdistrictname": "Balikuda", "Blockname": "Balikuda", "Healthblockname": "Balikuda", "Healthfacilitytype": "health sub centre", "Facilityname": "Machhagaon", "NIN": 1114264227, "latitude": 20.0689, "longitude": 86.27977, "facility_type_standardized": "hsc", "snapped_lon": 86.291922, "snapped_lat": 20.061195 }, "geometry": { "type": "Point", "coordinates": [ 86.291922, 20.061195 ] } },
{ "type": "Feature", "properties": { "Statename": "Odisha", "Districtname": "Jagatsinghapur", "Subdistrictname": "Naugaon", "Blockname": "Naugaon", "Healthblockname": "Naugaon", "Healthfacilitytype": "health sub centre", "Facilityname": "Sikhar", "NIN": 1146635154, "latitude": 20.06933, "longitude": 86.18195, "facility_type_standardized": "hsc", "snapped_lon": 86.176665, "snapped_lat": 20.059859 }, "geometry": { "type": "Point", "coordinates": [ 86.176665, 20.059859 ] } },
{ "type": "Feature", "properties": { "Statename": "Odisha", "Districtname": "Jagatsinghapur", "Subdistrictname": "Balikuda", "Blockname": "Balikuda", "Healthblockname": "Balikuda", "Healthfacilitytype": "health sub centre", "Facilityname": "Oskana", "NIN": 4754463638, "latitude": 20.07097, "longitude": 86.3202, "facility_type_standardized": "hsc", "snapped_lon": 86.312858, "snapped_lat": 20.065385 }, "geometry": { "type": "Point", "coordinates": [ 86.312858, 20.065385 ] } },
{ "type": "Feature", "properties": { "Statename": "Odisha", "Districtname": "Jagatsinghapur", "Subdistrictname": "Naugaon", "Blockname": "Naugaon", "Healthblockname": "Naugaon", "Healthfacilitytype": "health sub centre", "Facilityname": "Bodal", "NIN": 7442385543, "latitude": 20.0745, "longitude": 86.19049, "facility_type_standardized": "hsc", "snapped_lon": 86.176665, "snapped_lat": 20.059859 }, "geometry": { "type": "Point", "coordinates": [ 86.176665, 20.059859 ] } },
{ "type": "Feature", "properties": { "Statename": "Odisha", "Districtname": "Jagatsinghapur", "Subdistrictname": "Balikuda", "Blockname": "Balikuda", "Healthblockname": "Balikuda", "Healthfacilitytype": "health sub centre", "Facilityname": "Rahana", "NIN": 7488264156, "latitude": 20.08205, "longitude": 86.33819, "facility_type_standardized": "hsc", "snapped_lon": 86.326282, "snapped_lat": 20.057706 }, "geometry": { "type": "Point", "coordinates": [ 86.326282, 20.057706 ] } },
{ "type": "Feature", "properties": { "Statename": "Odisha", "Districtname": "Jagatsinghapur", "Subdistrictname": "Naugaon", "Blockname": "Naugaon", "Healthblockname": "Naugaon", "Healthfacilitytype": "health sub centre", "Facilityname": "Tiruna", "NIN": 7857166388, "latitude": 20.08427, "longitude": 86.23741, "facility_type_standardized": "hsc", "snapped_lon": 86.258327, "snapped_lat": 20.051841 }, "geometry": { "type": "Point", "coordinates": [ 86.258327, 20.051841 ] } },
{ "type": "Feature", "properties": { "Statename": "Odisha", "Districtname": "Jagatsinghapur", "Subdistrictname": "Naugaon", "Blockname": "Naugaon", "Healthblockname": "Naugaon", "Healthfacilitytype": "health sub centre", "Facilityname": "Dabar", "NIN": 6645738243, "latitude": 20.08836, "longitude": 86.25751, "facility_type_standardized": "hsc", "snapped_lon": 86.276694, "snapped_lat": 20.086687 }, "geometry": { "type": "Point", "coordinates": [ 86.276694, 20.086687 ] } },
{ "type": "Feature", "properties": { "Statename": "Odisha", "Districtname": "Jagatsinghapur", "Subdistrictname": "Balikuda", "Blockname": "Balikuda", "Healthblockname": "Balikuda", "Healthfacilitytype": "health sub centre", "Facilityname": "Ghosaghara", "NIN": 4637537434, "latitude": 20.09058, "longitude": 86.37161, "facility_type_standardized": "hsc", "snapped_lon": 86.39197, "snapped_lat": 20.053724 }, "geometry": { "type": "Point", "coordinates": [ 86.39197, 20.053724 ] } },
{ "type": "Feature", "properties": { "Statename": "Odisha", "Districtname": "Jagatsinghapur", "Subdistrictname": "Ersama", "Blockname": "Erasama", "Healthblockname": "Erasama", "Healthfacilitytype": "health sub centre", "Facilityname": "Goda", "NIN": 2514231659, "latitude": 20.09339, "longitude": 86.38805, "facility_type_standardized": "hsc", "snapped_lon": 86.39197, "snapped_lat": 20.053724 }, "geometry": { "type": "Point", "coordinates": [ 86.39197, 20.053724 ] } },
{ "type": "Feature", "properties": { "Statename": "Odisha", "Districtname": "Jagatsinghapur", "Subdistrictname": "Ersama", "Blockname": "Erasama", "Healthblockname": "Erasama", "Healthfacilitytype": "health sub centre", "Facilityname": "Panchapalli", "NIN": 1755553318, "latitude": 20.10208, "longitude": 86.43014, "facility_type_standardized": "hsc", "snapped_lon": 86.452624, "snapped_lat": 20.098938 }, "geometry": { "type": "Point", "coordinates": [ 86.452624, 20.098938 ] } },
{ "type": "Feature", "properties": { "Statename": "Odisha", "Districtname": "Jagatsinghapur", "Subdistrictname": "Balikuda", "Blockname": "Balikuda", "Healthblockname": "Balikuda", "Healthfacilitytype": "health sub centre", "Facilityname": "Ambasala", "NIN": 2376827826, "latitude": 20.10444, "longitude": 86.28173, "facility_type_standardized": "hsc", "snapped_lon": 86.277518, "snapped_lat": 20.086526 }, "geometry": { "type": "Point", "coordinates": [ 86.277518, 20.086526 ] } },
{ "type": "Feature", "properties": { "Statename": "Odisha", "Districtname": "Jagatsinghapur", "Subdistrictname": "Balikuda", "Blockname": "Balikuda", "Healthblockname": "Balikuda", "Healthfacilitytype": "health sub centre", "Facilityname": "Khaleri", "NIN": 6878354312, "latitude": 20.10473, "longitude": 86.25578, "facility_type_standardized": "hsc", "snapped_lon": 86.276694, "snapped_lat": 20.086687 }, "geometry": { "type": "Point", "coordinates": [ 86.276694, 20.086687 ] } },
{ "type": "Feature", "properties": { "Statename": "Odisha", "Districtname": "Jagatsinghapur", "Subdistrictname": "Naugaon", "Blockname": "Naugaon", "Healthblockname": "Naugaon", "Healthfacilitytype": "health sub centre", "Facilityname": "Nuagaon MC", "NIN": 3746432859, "latitude": 20.1053, "longitude": 86.18955, "facility_type_standardized": "hsc", "snapped_lon": 86.166021, "snapped_lat": 20.069067 }, "geometry": { "type": "Point", "coordinates": [ 86.166021, 20.069067 ] } },
{ "type": "Feature", "properties": { "Statename": "Odisha", "Districtname": "Jagatsinghapur", "Subdistrictname": "Balikuda", "Blockname": "Balikuda", "Healthblockname": "Balikuda", "Healthfacilitytype": "health sub centre", "Facilityname": "Badagaon", "NIN": 4677317283, "latitude": 20.10558, "longitude": 86.29896, "facility_type_standardized": "hsc", "snapped_lon": 86.292092, "snapped_lat": 20.082712 }, "geometry": { "type": "Point", "coordinates": [ 86.292092, 20.082712 ] } },
{ "type": "Feature", "properties": { "Statename": "Odisha", "Districtname": "Jagatsinghapur", "Subdistrictname": "Balikuda", "Blockname": "Balikuda", "Healthblockname": "Balikuda", "Healthfacilitytype": "health sub centre", "Facilityname": "Borikina", "NIN": 2483467623, "latitude": 20.11651, "longitude": 86.33026, "facility_type_standardized": "hsc", "snapped_lon": 86.299744, "snapped_lat": 20.07828 }, "geometry": { "type": "Point", "coordinates": [ 86.299744, 20.07828 ] } },
{ "type": "Feature", "properties": { "Statename": "Odisha", "Districtname": "Jagatsinghapur", "Subdistrictname": "Ersama", "Blockname": "Erasama", "Healthblockname": "Erasama", "Healthfacilitytype": "health sub centre", "Facilityname": "J K Deipur", "NIN": 8675733458, "latitude": 20.12128, "longitude": 86.38142, "facility_type_standardized": "hsc", "snapped_lon": 86.39197, "snapped_lat": 20.053724 }, "geometry": { "type": "Point", "coordinates": [ 86.39197, 20.053724 ] } },
{ "type": "Feature", "properties": { "Statename": "Odisha", "Districtname": "Jagatsinghapur", "Subdistrictname": "Naugaon", "Blockname": "Naugaon", "Healthblockname": "Naugaon", "Healthfacilitytype": "health sub centre", "Facilityname": "Rohia", "NIN": 2452658889, "latitude": 20.12311, "longitude": 86.17357, "facility_type_standardized": "hsc", "snapped_lon": 86.166021, "snapped_lat": 20.069067 }, "geometry": { "type": "Point", "coordinates": [ 86.166021, 20.069067 ] } },
{ "type": "Feature", "properties": { "Statename": "Odisha", "Districtname": "Jagatsinghapur", "Subdistrictname": "Naugaon", "Blockname": "Naugaon", "Healthblockname": "Naugaon", "Healthfacilitytype": "health sub centre", "Facilityname": "Jamugaon", "NIN": 6573477632, "latitude": 20.12879, "longitude": 86.21856, "facility_type_standardized": "hsc", "snapped_lon": 86.276694, "snapped_lat": 20.086687 }, "geometry": { "type": "Point", "coordinates": [ 86.276694, 20.086687 ] } },
{ "type": "Feature", "properties": { "Statename": "Odisha", "Districtname": "Jagatsinghapur", "Subdistrictname": "Balikuda", "Blockname": "Balikuda", "Healthblockname": "Balikuda", "Healthfacilitytype": "health sub centre", "Facilityname": "Kailo", "NIN": 1178358840, "latitude": 20.12949, "longitude": 86.24052, "facility_type_standardized": "hsc", "snapped_lon": 86.276694, "snapped_lat": 20.086687 }, "geometry": { "type": "Point", "coordinates": [ 86.276694, 20.086687 ] } },
{ "type": "Feature", "properties": { "Statename": "Odisha", "Districtname": "Jagatsinghapur", "Subdistrictname": "Naugaon", "Blockname": "Naugaon", "Healthblockname": "Naugaon", "Healthfacilitytype": "health sub centre", "Facilityname": "Ghodansh", "NIN": 2671511570, "latitude": 20.12973, "longitude": 86.20542, "facility_type_standardized": "hsc", "snapped_lon": 86.166021, "snapped_lat": 20.069067 }, "geometry": { "type": "Point", "coordinates": [ 86.166021, 20.069067 ] } },
{ "type": "Feature", "properties": { "Statename": "Odisha", "Districtname": "Jagatsinghapur", "Subdistrictname": "Balikuda", "Blockname": "Balikuda", "Healthblockname": "Balikuda", "Healthfacilitytype": "health sub centre", "Facilityname": "Alavara", "NIN": 5651641523, "latitude": 20.13242, "longitude": 86.30125, "facility_type_standardized": "hsc", "snapped_lon": 86.287996, "snapped_lat": 20.084202 }, "geometry": { "type": "Point", "coordinates": [ 86.287996, 20.084202 ] } },
{ "type": "Feature", "properties": { "Statename": "Odisha", "Districtname": "Jagatsinghapur", "Subdistrictname": "Balikuda", "Blockname": "Balikuda", "Healthblockname": "Balikuda", "Healthfacilitytype": "health sub centre", "Facilityname": "Tirtira", "NIN": 2151521842, "latitude": 20.13801, "longitude": 86.34657, "facility_type_standardized": "hsc", "snapped_lon": 86.299744, "snapped_lat": 20.07828 }, "geometry": { "type": "Point", "coordinates": [ 86.299744, 20.07828 ] } },
{ "type": "Feature", "properties": { "Statename": "Odisha", "Districtname": "Jagatsinghapur", "Subdistrictname": "Ersama", "Blockname": "Erasama", "Healthblockname": "Erasama", "Healthfacilitytype": "health sub centre", "Facilityname": "Ambiki", "NIN": 6768185768, "latitude": 20.14031, "longitude": 86.45953, "facility_type_standardized": "hsc", "snapped_lon": 86.475923, "snapped_lat": 20.122346 }, "geometry": { "type": "Point", "coordinates": [ 86.475923, 20.122346 ] } },
{ "type": "Feature", "properties": { "Statename": "Odisha", "Districtname": "Jagatsinghapur", "Subdistrictname": "Ersama", "Blockname": "Erasama", "Healthblockname": "Erasama", "Healthfacilitytype": "health sub centre", "Facilityname": "Gadabisunpur", "NIN": 4568682571, "latitude": 20.14167, "longitude": 86.42724, "facility_type_standardized": "hsc", "snapped_lon": 86.461032, "snapped_lat": 20.114504 }, "geometry": { "type": "Point", "coordinates": [ 86.461032, 20.114504 ] } },
{ "type": "Feature", "properties": { "Statename": "Odisha", "Districtname": "Jagatsinghapur", "Subdistrictname": "Balikuda", "Blockname": "Balikuda", "Healthblockname": "Balikuda", "Healthfacilitytype": "health sub centre", "Facilityname": "Ghodadia", "NIN": 8733168333, "latitude": 20.14426, "longitude": 86.34991, "facility_type_standardized": "hsc", "snapped_lon": 86.299744, "snapped_lat": 20.07828 }, "geometry": { "type": "Point", "coordinates": [ 86.299744, 20.07828 ] } },
{ "type": "Feature", "properties": { "Statename": "Odisha", "Districtname": "Jagatsinghapur", "Subdistrictname": "Naugaon", "Blockname": "Naugaon", "Healthblockname": "Naugaon", "Healthfacilitytype": "health sub centre", "Facilityname": "Arakhakud", "NIN": 5676434649, "latitude": 20.14558, "longitude": 86.16864, "facility_type_standardized": "hsc", "snapped_lon": 86.166021, "snapped_lat": 20.069067 }, "geometry": { "type": "Point", "coordinates": [ 86.166021, 20.069067 ] } },
{ "type": "Feature", "properties": { "Statename": "Odisha", "Districtname": "Jagatsinghapur", "Subdistrictname": "Naugaon", "Blockname": "Naugaon", "Healthblockname": "Naugaon", "Healthfacilitytype": "health sub centre", "Facilityname": "Galadari", "NIN": 2574315111, "latitude": 20.14684, "longitude": 86.15412, "facility_type_standardized": "hsc", "snapped_lon": 86.166021, "snapped_lat": 20.069067 }, "geometry": { "type": "Point", "coordinates": [ 86.166021, 20.069067 ] } },
{ "type": "Feature", "properties": { "Statename": "Odisha", "Districtname": "Jagatsinghapur", "Subdistrictname": "Balikuda", "Blockname": "Balikuda", "Healthblockname": "Balikuda", "Healthfacilitytype": "health sub centre", "Facilityname": "Sangrampur", "NIN": 1123151480, "latitude": 20.14788, "longitude": 86.25053, "facility_type_standardized": "hsc", "snapped_lon": 86.276694, "snapped_lat": 20.086687 }, "geometry": { "type": "Point", "coordinates": [ 86.276694, 20.086687 ] } },
{ "type": "Feature", "properties": { "Statename": "Odisha", "Districtname": "Jagatsinghapur", "Subdistrictname": "Balikuda", "Blockname": "Balikuda", "Healthblockname": "Balikuda", "Healthfacilitytype": "health sub centre", "Facilityname": "Balikuda", "NIN": 1322175231, "latitude": 20.14911, "longitude": 86.27016, "facility_type_standardized": "hsc", "snapped_lon": 86.276694, "snapped_lat": 20.086687 }, "geometry": { "type": "Point", "coordinates": [ 86.276694, 20.086687 ] } },
{ "type": "Feature", "properties": { "Statename": "Odisha", "Districtname": "Jagatsinghapur", "Subdistrictname": "Ersama", "Blockname": "Erasama", "Healthblockname": "Erasama", "Healthfacilitytype": "health sub centre", "Facilityname": "Somepur", "NIN": 7725121318, "latitude": 20.15772, "longitude": 86.34811, "facility_type_standardized": "hsc", "snapped_lon": 86.297819, "snapped_lat": 20.079546 }, "geometry": { "type": "Point", "coordinates": [ 86.297819, 20.079546 ] } },
{ "type": "Feature", "properties": { "Statename": "Odisha", "Districtname": "Jagatsinghapur", "Subdistrictname": "Naugaon", "Blockname": "Naugaon", "Healthblockname": "Naugaon", "Healthfacilitytype": "health sub centre", "Facilityname": "Gajrajpur", "NIN": 3334384322, "latitude": 20.16302, "longitude": 86.17725, "facility_type_standardized": "hsc", "snapped_lon": 86.166021, "snapped_lat": 20.069067 }, "geometry": { "type": "Point", "coordinates": [ 86.166021, 20.069067 ] } },
{ "type": "Feature", "properties": { "Statename": "Odisha", "Districtname": "Jagatsinghapur", "Subdistrictname": "Balikuda", "Blockname": "Balikuda", "Healthblockname": "Balikuda", "Healthfacilitytype": "health sub centre", "Facilityname": "Alabol", "NIN": 7338354819, "latitude": 20.16387, "longitude": 86.28306, "facility_type_standardized": "hsc", "snapped_lon": 86.276694, "snapped_lat": 20.086687 }, "geometry": { "type": "Point", "coordinates": [ 86.276694, 20.086687 ] } },
{ "type": "Feature", "properties": { "Statename": "Odisha", "Districtname": "Jagatsinghapur", "Subdistrictname": "Balikuda", "Blockname": "Balikuda", "Healthblockname": "Balikuda", "Healthfacilitytype": "health sub centre", "Facilityname": "Alikanta", "NIN": 4413866676, "latitude": 20.16461, "longitude": 86.30724, "facility_type_standardized": "hsc", "snapped_lon": 86.287996, "snapped_lat": 20.084202 }, "geometry": { "type": "Point", "coordinates": [ 86.287996, 20.084202 ] } },
{ "type": "Feature", "properties": { "Statename": "Odisha", "Districtname": "Jagatsinghapur", "Subdistrictname": "Ersama", "Blockname": "Erasama", "Healthblockname": "Erasama", "Healthfacilitytype": "health sub centre", "Facilityname": "Bhajana", "NIN": 6212755554, "latitude": 20.16646, "longitude": 86.38749, "facility_type_standardized": "hsc", "snapped_lon": 86.461032, "snapped_lat": 20.114504 }, "geometry": { "type": "Point", "coordinates": [ 86.461032, 20.114504 ] } },
{ "type": "Feature", "properties": { "Statename": "Odisha", "Districtname": "Jagatsinghapur", "Subdistrictname": "Ersama", "Blockname": "Erasama", "Healthblockname": "Erasama", "Healthfacilitytype": "health sub centre", "Facilityname": "Hazipur", "NIN": 3482372764, "latitude": 20.16738, "longitude": 86.33258, "facility_type_standardized": "hsc", "snapped_lon": 86.292092, "snapped_lat": 20.082712 }, "geometry": { "type": "Point", "coordinates": [ 86.292092, 20.082712 ] } },
{ "type": "Feature", "properties": { "Statename": "Odisha", "Districtname": "Jagatsinghapur", "Subdistrictname": "Naugaon", "Blockname": "Naugaon", "Healthblockname": "Naugaon", "Healthfacilitytype": "health sub centre", "Facilityname": "Alanahat", "NIN": 5746785632, "latitude": 20.16776, "longitude": 86.20015, "facility_type_standardized": "hsc", "snapped_lon": 86.166021, "snapped_lat": 20.069067 }, "geometry": { "type": "Point", "coordinates": [ 86.166021, 20.069067 ] } },
{ "type": "Feature", "properties": { "Statename": "Odisha", "Districtname": "Jagatsinghapur", "Subdistrictname": "Balikuda", "Blockname": "Balikuda", "Healthblockname": "Balikuda", "Healthfacilitytype": "health sub centre", "Facilityname": "Garama", "NIN": 3321847687, "latitude": 20.17467, "longitude": 86.22773, "facility_type_standardized": "hsc", "snapped_lon": 86.276694, "snapped_lat": 20.086687 }, "geometry": { "type": "Point", "coordinates": [ 86.276694, 20.086687 ] } },
{ "type": "Feature", "properties": { "Statename": "Odisha", "Districtname": "Jagatsinghapur", "Subdistrictname": "Ersama", "Blockname": "Erasama", "Healthblockname": "Erasama", "Healthfacilitytype": "health sub centre", "Facilityname": "Paida", "NIN": 2144715113, "latitude": 20.17778, "longitude": 86.35829, "facility_type_standardized": "hsc", "snapped_lon": 86.297654, "snapped_lat": 20.079649 }, "geometry": { "type": "Point", "coordinates": [ 86.297654, 20.079649 ] } },
{ "type": "Feature", "properties": { "Statename": "Odisha", "Districtname": "Jagatsinghapur", "Subdistrictname": "Ersama", "Blockname": "Erasama", "Healthblockname": "Erasama", "Healthfacilitytype": "health sub centre", "Facilityname": "Jireilo", "NIN": 7156515657, "latitude": 20.18443, "longitude": 86.41319, "facility_type_standardized": "hsc", "snapped_lon": 86.461032, "snapped_lat": 20.114504 }, "geometry": { "type": "Point", "coordinates": [ 86.461032, 20.114504 ] } },
{ "type": "Feature", "properties": { "Statename": "Odisha", "Districtname": "Jagatsinghapur", "Subdistrictname": "Ersama", "Blockname": "Erasama", "Healthblockname": "Erasama", "Healthfacilitytype": "health sub centre", "Facilityname": "Bhiranga", "NIN": 1364887149, "latitude": 20.18513, "longitude": 86.38023, "facility_type_standardized": "hsc", "snapped_lon": 86.461032, "snapped_lat": 20.114504 }, "geometry": { "type": "Point", "coordinates": [ 86.461032, 20.114504 ] } },
{ "type": "Feature", "properties": { "Statename": "Odisha", "Districtname": "Jagatsinghapur", "Subdistrictname": "Balikuda", "Blockname": "Balikuda", "Healthblockname": "Balikuda", "Healthfacilitytype": "health sub centre", "Facilityname": "Singharpur", "NIN": 6818871722, "latitude": 20.18763, "longitude": 86.27355, "facility_type_standardized": "hsc", "snapped_lon": 86.276694, "snapped_lat": 20.086687 }, "geometry": { "type": "Point", "coordinates": [ 86.276694, 20.086687 ] } },
{ "type": "Feature", "properties": { "Statename": "Odisha", "Districtname": "Jagatsinghapur", "Subdistrictname": "Ersama", "Blockname": "Erasama", "Healthblockname": "Erasama", "Healthfacilitytype": "health sub centre", "Facilityname": "Dhobei", "NIN": 7754417439, "latitude": 20.18917, "longitude": 86.44879, "facility_type_standardized": "hsc", "snapped_lon": 86.475923, "snapped_lat": 20.122346 }, "geometry": { "type": "Point", "coordinates": [ 86.475923, 20.122346 ] } },
{ "type": "Feature", "properties": { "Statename": "Odisha", "Districtname": "Jagatsinghapur", "Subdistrictname": "Balikuda", "Blockname": "Balikuda", "Healthblockname": "Balikuda", "Healthfacilitytype": "health sub centre", "Facilityname": "Sirelo", "NIN": 1167648870, "latitude": 20.19259, "longitude": 86.30566, "facility_type_standardized": "hsc", "snapped_lon": 86.286269, "snapped_lat": 20.084597 }, "geometry": { "type": "Point", "coordinates": [ 86.286269, 20.084597 ] } },
{ "type": "Feature", "properties": { "Statename": "Odisha", "Districtname": "Jagatsinghapur", "Subdistrictname": "Jagatsinghapur", "Blockname": "Jagatsinghpur", "Healthblockname": "Jagatsinghpur", "Healthfacilitytype": "health sub centre", "Facilityname": "Kantaballavpur", "NIN": 3818647624, "latitude": 20.19439, "longitude": 86.17992, "facility_type_standardized": "hsc", "snapped_lon": 86.166021, "snapped_lat": 20.069067 }, "geometry": { "type": "Point", "coordinates": [ 86.166021, 20.069067 ] } },
{ "type": "Feature", "properties": { "Statename": "Odisha", "Districtname": "Jagatsinghapur", "Subdistrictname": "Balikuda", "Blockname": "Balikuda", "Healthblockname": "Balikuda", "Healthfacilitytype": "health sub centre", "Facilityname": "Krushnadaspur", "NIN": 8356876329, "latitude": 20.19614, "longitude": 86.25841, "facility_type_standardized": "hsc", "snapped_lon": 86.276694, "snapped_lat": 20.086687 }, "geometry": { "type": "Point", "coordinates": [ 86.276694, 20.086687 ] } },
{ "type": "Feature", "properties": { "Statename": "Odisha", "Districtname": "Jagatsinghapur", "Subdistrictname": "Jagatsinghapur", "Blockname": "Jagatsinghpur", "Healthblockname": "Jagatsinghpur", "Healthfacilitytype": "health sub centre", "Facilityname": "Salagaon", "NIN": 3543528875, "latitude": 20.19621, "longitude": 86.1501, "facility_type_standardized": "hsc", "snapped_lon": 86.166021, "snapped_lat": 20.069067 }, "geometry": { "type": "Point", "coordinates": [ 86.166021, 20.069067 ] } },
{ "type": "Feature", "properties": { "Statename": "Odisha", "Districtname": "Jagatsinghapur", "Subdistrictname": "Jagatsinghapur", "Blockname": "Jagatsinghpur", "Healthblockname": "Jagatsinghpur", "Healthfacilitytype": "health sub centre", "Facilityname": "Jotta", "NIN": 4665773737, "latitude": 20.19704, "longitude": 86.19391, "facility_type_standardized": "hsc", "snapped_lon": 86.166021, "snapped_lat": 20.069067 }, "geometry": { "type": "Point", "coordinates": [ 86.166021, 20.069067 ] } },
{ "type": "Feature", "properties": { "Statename": "Odisha", "Districtname": "Jagatsinghapur", "Subdistrictname": "Balikuda", "Blockname": "Balikuda", "Healthblockname": "Balikuda", "Healthfacilitytype": "health sub centre", "Facilityname": "Tandikul", "NIN": 8676236733, "latitude": 20.19747, "longitude": 86.32081, "facility_type_standardized": "hsc", "snapped_lon": 86.287996, "snapped_lat": 20.084202 }, "geometry": { "type": "Point", "coordinates": [ 86.287996, 20.084202 ] } },
{ "type": "Feature", "properties": { "Statename": "Odisha", "Districtname": "Jagatsinghapur", "Subdistrictname": "Jagatsinghapur", "Blockname": "Erasama", "Healthblockname": "Erasama", "Healthfacilitytype": "health sub centre", "Facilityname": "Erasama", "NIN": 8137824812, "latitude": 20.2009, "longitude": 86.41694, "facility_type_standardized": "hsc", "snapped_lon": 86.461032, "snapped_lat": 20.114504 }, "geometry": { "type": "Point", "coordinates": [ 86.461032, 20.114504 ] } },
{ "type": "Feature", "properties": { "Statename": "Odisha", "Districtname": "Jagatsinghapur", "Subdistrictname": "Balikuda", "Blockname": "Balikuda", "Healthblockname": "Balikuda", "Healthfacilitytype": "health sub centre", "Facilityname": "Podana", "NIN": 3675862472, "latitude": 20.2026, "longitude": 86.31398, "facility_type_standardized": "hsc", "snapped_lon": 86.286269, "snapped_lat": 20.084597 }, "geometry": { "type": "Point", "coordinates": [ 86.286269, 20.084597 ] } },
{ "type": "Feature", "properties": { "Statename": "Odisha", "Districtname": "Jagatsinghapur", "Subdistrictname": "Ersama", "Blockname": "Erasama", "Healthblockname": "Erasama", "Healthfacilitytype": "health sub centre", "Facilityname": "Kanaguli", "NIN": 1786236784, "latitude": 20.20299, "longitude": 86.49127, "facility_type_standardized": "hsc", "snapped_lon": 86.480118, "snapped_lat": 20.123966 }, "geometry": { "type": "Point", "coordinates": [ 86.480118, 20.123966 ] } },
{ "type": "Feature", "properties": { "Statename": "Odisha", "Districtname": "Jagatsinghapur", "Subdistrictname": "Ersama", "Blockname": "Erasama", "Healthblockname": "Erasama", "Healthfacilitytype": "health sub centre", "Facilityname": "Japa", "NIN": 8837281537, "latitude": 20.2074, "longitude": 86.43573, "facility_type_standardized": "hsc", "snapped_lon": 86.475923, "snapped_lat": 20.122346 }, "geometry": { "type": "Point", "coordinates": [ 86.475923, 20.122346 ] } },
{ "type": "Feature", "properties": { "Statename": "Odisha", "Districtname": "Jagatsinghapur", "Subdistrictname": "Jagatsinghapur", "Blockname": "Jagatsinghpur", "Healthblockname": "Jagatsinghpur", "Healthfacilitytype": "health sub centre", "Facilityname": "Odissogarh", "NIN": 5112324149, "latitude": 20.20946, "longitude": 86.18114, "facility_type_standardized": "hsc", "snapped_lon": 86.166021, "snapped_lat": 20.069067 }, "geometry": { "type": "Point", "coordinates": [ 86.166021, 20.069067 ] } },
{ "type": "Feature", "properties": { "Statename": "Odisha", "Districtname": "Jagatsinghapur", "Subdistrictname": "Balikuda", "Blockname": "Erasama", "Healthblockname": "Erasama", "Healthfacilitytype": "health sub centre", "Facilityname": "Naugoan", "NIN": 7144383812, "latitude": 20.2139, "longitude": 86.53639, "facility_type_standardized": "hsc", "snapped_lon": 86.571021, "snapped_lat": 20.23589 }, "geometry": { "type": "Point", "coordinates": [ 86.571021, 20.23589 ] } },
{ "type": "Feature", "properties": { "Statename": "Odisha", "Districtname": "Jagatsinghapur", "Subdistrictname": "Tirtol", "Blockname": "Tirtol", "Healthblockname": "Tirtol", "Healthfacilitytype": "health sub centre", "Facilityname": "Ibrisingh", "NIN": 1573212410, "latitude": 20.21441, "longitude": 86.36336, "facility_type_standardized": "hsc", "snapped_lon": 86.461032, "snapped_lat": 20.114504 }, "geometry": { "type": "Point", "coordinates": [ 86.461032, 20.114504 ] } },
{ "type": "Feature", "properties": { "Statename": "Odisha", "Districtname": "Jagatsinghapur", "Subdistrictname": "Balikuda", "Blockname": "Balikuda", "Healthblockname": "Balikuda", "Healthfacilitytype": "health sub centre", "Facilityname": "Maulugaon", "NIN": 4375877166, "latitude": 20.21477, "longitude": 86.27466, "facility_type_standardized": "hsc", "snapped_lon": 86.276694, "snapped_lat": 20.086687 }, "geometry": { "type": "Point", "coordinates": [ 86.276694, 20.086687 ] } },
{ "type": "Feature", "properties": { "Statename": "Odisha", "Districtname": "Jagatsinghapur", "Subdistrictname": "Jagatsinghapur", "Blockname": "Jagatsinghpur", "Healthblockname": "Jagatsinghpur", "Healthfacilitytype": "health sub centre", "Facilityname": "Kaduapada", "NIN": 8414854714, "latitude": 20.215, "longitude": 86.2267, "facility_type_standardized": "hsc", "snapped_lon": 86.276694, "snapped_lat": 20.086687 }, "geometry": { "type": "Point", "coordinates": [ 86.276694, 20.086687 ] } },
{ "type": "Feature", "properties": { "Statename": "Odisha", "Districtname": "Jagatsinghapur", "Subdistrictname": "Jagatsinghapur", "Blockname": "Jagatsinghpur", "Healthblockname": "Jagatsinghpur", "Healthfacilitytype": "health sub centre", "Facilityname": "Odisso", "NIN": 3673628586, "latitude": 20.21979, "longitude": 86.1907, "facility_type_standardized": "hsc", "snapped_lon": 86.166021, "snapped_lat": 20.069067 }, "geometry": { "type": "Point", "coordinates": [ 86.166021, 20.069067 ] } },
{ "type": "Feature", "properties": { "Statename": "Odisha", "Districtname": "Jagatsinghapur", "Subdistrictname": "Jagatsinghapur", "Blockname": "Jagatsinghpur", "Healthblockname": "Jagatsinghpur", "Healthfacilitytype": "health sub centre", "Facilityname": "Alipingal", "NIN": 6487417328, "latitude": 20.22115, "longitude": 86.15615, "facility_type_standardized": "hsc", "snapped_lon": 86.166021, "snapped_lat": 20.069067 }, "geometry": { "type": "Point", "coordinates": [ 86.166021, 20.069067 ] } },
{ "type": "Feature", "properties": { "Statename": "Odisha", "Districtname": "Jagatsinghapur", "Subdistrictname": "Paradip", "Blockname": "Kujanga", "Healthblockname": "Kujanga", "Healthfacilitytype": "health sub centre", "Facilityname": "Nehuru Bangala", "NIN": 2231631140, "latitude": 20.22255, "longitude": 86.38291, "facility_type_standardized": "hsc", "snapped_lon": 86.461032, "snapped_lat": 20.114504 }, "geometry": { "type": "Point", "coordinates": [ 86.461032, 20.114504 ] } },
{ "type": "Feature", "properties": { "Statename": "Odisha", "Districtname": "Jagatsinghapur", "Subdistrictname": "Jagatsinghapur", "Blockname": "Jagatsinghpur", "Healthblockname": "Jagatsinghpur", "Healthfacilitytype": "health sub centre", "Facilityname": "Rasalpur", "NIN": 1176655221, "latitude": 20.22424, "longitude": 86.1759, "facility_type_standardized": "hsc", "snapped_lon": 86.166021, "snapped_lat": 20.069067 }, "geometry": { "type": "Point", "coordinates": [ 86.166021, 20.069067 ] } },
{ "type": "Feature", "properties": { "Statename": "Odisha", "Districtname": "Jagatsinghapur", "Subdistrictname": "Ersama", "Blockname": "Erasama", "Healthblockname": "Erasama", "Healthfacilitytype": "health sub centre", "Facilityname": "Andhari", "NIN": 6473548177, "latitude": 20.22731, "longitude": 86.45638, "facility_type_standardized": "hsc", "snapped_lon": 86.480043, "snapped_lat": 20.123976 }, "geometry": { "type": "Point", "coordinates": [ 86.480043, 20.123976 ] } },
{ "type": "Feature", "properties": { "Statename": "Odisha", "Districtname": "Jagatsinghapur", "Subdistrictname": "Tirtol", "Blockname": "Tirtol", "Healthblockname": "Tirtol", "Healthfacilitytype": "health sub centre", "Facilityname": "Katara", "NIN": 7485432426, "latitude": 20.22765, "longitude": 86.27573, "facility_type_standardized": "hsc", "snapped_lon": 86.276694, "snapped_lat": 20.086687 }, "geometry": { "type": "Point", "coordinates": [ 86.276694, 20.086687 ] } },
{ "type": "Feature", "properties": { "Statename": "Odisha", "Districtname": "Jagatsinghapur", "Subdistrictname": "Jagatsinghapur", "Blockname": "Jagatsinghpur", "Healthblockname": "Jagatsinghpur", "Healthfacilitytype": "health sub centre", "Facilityname": "Sidhal", "NIN": 2618555219, "latitude": 20.22834, "longitude": 86.23441, "facility_type_standardized": "hsc", "snapped_lon": 86.276694, "snapped_lat": 20.086687 }, "geometry": { "type": "Point", "coordinates": [ 86.276694, 20.086687 ] } },
{ "type": "Feature", "properties": { "Statename": "Odisha", "Districtname": "Jagatsinghapur", "Subdistrictname": "Tirtol", "Blockname": "Tirtol", "Healthblockname": "Tirtol", "Healthfacilitytype": "health sub centre", "Facilityname": "Alana", "NIN": 6264548378, "latitude": 20.22929, "longitude": 86.3116, "facility_type_standardized": "hsc", "snapped_lon": 86.277518, "snapped_lat": 20.086526 }, "geometry": { "type": "Point", "coordinates": [ 86.277518, 20.086526 ] } },
{ "type": "Feature", "properties": { "Statename": "Odisha", "Districtname": "Jagatsinghapur", "Subdistrictname": "Ersama", "Blockname": "Erasama", "Healthblockname": "Erasama", "Healthfacilitytype": "health sub centre", "Facilityname": "Dhinkia", "NIN": 4516175512, "latitude": 20.23026, "longitude": 86.5774, "facility_type_standardized": "hsc", "snapped_lon": 86.57335, "snapped_lat": 20.237251 }, "geometry": { "type": "Point", "coordinates": [ 86.57335, 20.237251 ] } },
{ "type": "Feature", "properties": { "Statename": "Odisha", "Districtname": "Jagatsinghapur", "Subdistrictname": "Jagatsinghapur", "Blockname": "Jagatsinghpur", "Healthblockname": "Jagatsinghpur", "Healthfacilitytype": "health sub centre", "Facilityname": "Balarampur", "NIN": 1727787424, "latitude": 20.23307, "longitude": 86.21135, "facility_type_standardized": "hsc", "snapped_lon": 86.276694, "snapped_lat": 20.086687 }, "geometry": { "type": "Point", "coordinates": [ 86.276694, 20.086687 ] } },
{ "type": "Feature", "properties": { "Statename": "Odisha", "Districtname": "Jagatsinghapur", "Subdistrictname": "Tirtol", "Blockname": "Tirtol", "Healthblockname": "Tirtol", "Healthfacilitytype": "health sub centre", "Facilityname": "Mahilo", "NIN": 3147427383, "latitude": 20.236, "longitude": 86.2598, "facility_type_standardized": "hsc", "snapped_lon": 86.276694, "snapped_lat": 20.086687 }, "geometry": { "type": "Point", "coordinates": [ 86.276694, 20.086687 ] } },
{ "type": "Feature", "properties": { "Statename": "Odisha", "Districtname": "Jagatsinghapur", "Subdistrictname": "Kujang", "Blockname": "Kujang", "Healthblockname": "Kujanga", "Healthfacilitytype": "health sub centre", "Facilityname": "Dhunpur", "NIN": 2734488121, "latitude": 20.23777, "longitude": 86.36408, "facility_type_standardized": "hsc", "snapped_lon": 86.461032, "snapped_lat": 20.114504 }, "geometry": { "type": "Point", "coordinates": [ 86.461032, 20.114504 ] } },
{ "type": "Feature", "properties": { "Statename": "Odisha", "Districtname": "Jagatsinghapur", "Subdistrictname": "Paradip", "Blockname": "Kujanga", "Healthblockname": "Kujanga", "Healthfacilitytype": "health sub centre", "Facilityname": "Atharbanki", "NIN": 6788313275, "latitude": 20.23797, "longitude": 86.40752, "facility_type_standardized": "hsc", "snapped_lon": 86.475923, "snapped_lat": 20.122346 }, "geometry": { "type": "Point", "coordinates": [ 86.475923, 20.122346 ] } },
{ "type": "Feature", "properties": { "Statename": "Odisha", "Districtname": "Jagatsinghapur", "Subdistrictname": "Kujang", "Blockname": "Erasama", "Healthblockname": "Erasama", "Healthfacilitytype": "health sub centre", "Facilityname": "Balitutha", "NIN": 3838822561, "latitude": 20.2392, "longitude": 86.53206, "facility_type_standardized": "hsc", "snapped_lon": 86.571021, "snapped_lat": 20.23589 }, "geometry": { "type": "Point", "coordinates": [ 86.571021, 20.23589 ] } },
{ "type": "Feature", "properties": { "Statename": "Odisha", "Districtname": "Jagatsinghapur", "Subdistrictname": "Tirtol", "Blockname": "Tirtol", "Healthblockname": "Tirtol", "Healthfacilitytype": "health sub centre", "Facilityname": "Jaganathpur", "NIN": 1538767771, "latitude": 20.23978, "longitude": 86.35421, "facility_type_standardized": "hsc", "snapped_lon": 86.461032, "snapped_lat": 20.114504 }, "geometry": { "type": "Point", "coordinates": [ 86.461032, 20.114504 ] } },
{ "type": "Feature", "properties": { "Statename": "Odisha", "Districtname": "Jagatsinghapur", "Subdistrictname": "Jagatsinghapur", "Blockname": "Jagatsinghpur", "Healthblockname": "Jagatsinghpur", "Healthfacilitytype": "health sub centre", "Facilityname": "Palasa", "NIN": 3584443174, "latitude": 20.24302, "longitude": 86.1161, "facility_type_standardized": "hsc", "snapped_lon": 86.166021, "snapped_lat": 20.069067 }, "geometry": { "type": "Point", "coordinates": [ 86.166021, 20.069067 ] } },
{ "type": "Feature", "properties": { "Statename": "Odisha", "Districtname": "Jagatsinghapur", "Subdistrictname": "Jagatsinghapur", "Blockname": "Jagatsinghpur", "Healthblockname": "Jagatsinghpur", "Healthfacilitytype": "health sub centre", "Facilityname": "Mundilo", "NIN": 6275747431, "latitude": 20.24623, "longitude": 86.08744, "facility_type_standardized": "hsc", "snapped_lon": 86.166021, "snapped_lat": 20.069067 }, "geometry": { "type": "Point", "coordinates": [ 86.166021, 20.069067 ] } },
{ "type": "Feature", "properties": { "Statename": "Odisha", "Districtname": "Jagatsinghapur", "Subdistrictname": "Ersama", "Blockname": "Erasama", "Healthblockname": "Erasama", "Healthfacilitytype": "health sub centre", "Facilityname": "Olara", "NIN": 3717857670, "latitude": 20.24706, "longitude": 86.59875, "facility_type_standardized": "hsc", "snapped_lon": 86.599364, "snapped_lat": 20.23957 }, "geometry": { "type": "Point", "coordinates": [ 86.599364, 20.23957 ] } },
{ "type": "Feature", "properties": { "Statename": "Odisha", "Districtname": "Jagatsinghapur", "Subdistrictname": "Jagatsinghapur", "Blockname": "Jagatsinghpur", "Healthblockname": "Jagatsinghpur", "Healthfacilitytype": "health sub centre", "Facilityname": "Salajanga", "NIN": 2834183465, "latitude": 20.24776, "longitude": 86.1279, "facility_type_standardized": "hsc", "snapped_lon": 86.166021, "snapped_lat": 20.069067 }, "geometry": { "type": "Point", "coordinates": [ 86.166021, 20.069067 ] } },
{ "type": "Feature", "properties": { "Statename": "Odisha", "Districtname": "Jagatsinghapur", "Subdistrictname": "Ersama", "Blockname": "Erasama", "Healthblockname": "Erasama", "Healthfacilitytype": "health sub centre", "Facilityname": "Nuadihi", "NIN": 2611126372, "latitude": 20.24798, "longitude": 86.4423, "facility_type_standardized": "hsc", "snapped_lon": 86.571021, "snapped_lat": 20.23589 }, "geometry": { "type": "Point", "coordinates": [ 86.571021, 20.23589 ] } },
{ "type": "Feature", "properties": { "Statename": "Odisha", "Districtname": "Jagatsinghapur", "Subdistrictname": "Kujang", "Blockname": "Kujang", "Healthblockname": "Kujanga", "Healthfacilitytype": "health sub centre", "Facilityname": "Pandua", "NIN": 7462366381, "latitude": 20.24912, "longitude": 86.41069, "facility_type_standardized": "hsc", "snapped_lon": 86.475923, "snapped_lat": 20.122346 }, "geometry": { "type": "Point", "coordinates": [ 86.475923, 20.122346 ] } },
{ "type": "Feature", "properties": { "Statename": "Odisha", "Districtname": "Jagatsinghapur", "Subdistrictname": "Ersama", "Blockname": "Erasama", "Healthblockname": "Erasama", "Healthfacilitytype": "health sub centre", "Facilityname": "Barabatia", "NIN": 6277847619, "latitude": 20.24942, "longitude": 86.46668, "facility_type_standardized": "hsc", "snapped_lon": 86.571021, "snapped_lat": 20.23589 }, "geometry": { "type": "Point", "coordinates": [ 86.571021, 20.23589 ] } },
{ "type": "Feature", "properties": { "Statename": "Odisha", "Districtname": "Jagatsinghapur", "Subdistrictname": "Jagatsinghapur", "Blockname": "Jagatsinghpur", "Healthblockname": "Jagatsinghpur", "Healthfacilitytype": "health sub centre", "Facilityname": "Bhagabanpur", "NIN": 4337346243, "latitude": 20.2509, "longitude": 86.24012, "facility_type_standardized": "hsc", "snapped_lon": 86.276694, "snapped_lat": 20.086687 }, "geometry": { "type": "Point", "coordinates": [ 86.276694, 20.086687 ] } },
{ "type": "Feature", "properties": { "Statename": "Odisha", "Districtname": "Jagatsinghapur", "Subdistrictname": "Jagatsinghapur", "Blockname": "Jagatsinghpur", "Healthblockname": "Jagatsinghpur", "Healthfacilitytype": "health sub centre", "Facilityname": "Neepur", "NIN": 7285324864, "latitude": 20.25124, "longitude": 86.20671, "facility_type_standardized": "hsc", "snapped_lon": 86.276694, "snapped_lat": 20.086687 }, "geometry": { "type": "Point", "coordinates": [ 86.276694, 20.086687 ] } },
{ "type": "Feature", "properties": { "Statename": "Odisha", "Districtname": "Jagatsinghapur", "Subdistrictname": "Tirtol", "Blockname": "Tirtol", "Healthblockname": "Tirtol", "Healthfacilitytype": "health sub centre", "Facilityname": "Begunia", "NIN": 4352644746, "latitude": 20.25179, "longitude": 86.28681, "facility_type_standardized": "hsc", "snapped_lon": 86.276694, "snapped_lat": 20.086687 }, "geometry": { "type": "Point", "coordinates": [ 86.276694, 20.086687 ] } },
{ "type": "Feature", "properties": { "Statename": "Odisha", "Districtname": "Jagatsinghapur", "Subdistrictname": "Jagatsinghapur", "Blockname": "Jagatsinghpur", "Healthblockname": "Jagatsinghpur", "Healthfacilitytype": "health sub centre", "Facilityname": "Piteipur", "NIN": 1767778267, "latitude": 20.25303, "longitude": 86.23238, "facility_type_standardized": "hsc", "snapped_lon": 86.276694, "snapped_lat": 20.086687 }, "geometry": { "type": "Point", "coordinates": [ 86.276694, 20.086687 ] } },
{ "type": "Feature", "properties": { "Statename": "Odisha", "Districtname": "Jagatsinghapur", "Subdistrictname": "Jagatsinghapur", "Blockname": "Jagatsinghpur", "Healthblockname": "Jagatsinghpur", "Healthfacilitytype": "health sub centre", "Facilityname": "Janakoti", "NIN": 7662445449, "latitude": 20.25972, "longitude": 86.14576, "facility_type_standardized": "hsc", "snapped_lon": 86.166021, "snapped_lat": 20.069067 }, "geometry": { "type": "Point", "coordinates": [ 86.166021, 20.069067 ] } },
{ "type": "Feature", "properties": { "Statename": "Odisha", "Districtname": "Jagatsinghapur", "Subdistrictname": "Jagatsinghapur", "Blockname": "Jagatsinghpur", "Healthblockname": "Jagatsinghpur", "Healthfacilitytype": "health sub centre", "Facilityname": "Taradapada", "NIN": 8568374311, "latitude": 20.26326, "longitude": 86.20411, "facility_type_standardized": "hsc", "snapped_lon": 86.276694, "snapped_lat": 20.086687 }, "geometry": { "type": "Point", "coordinates": [ 86.276694, 20.086687 ] } },
{ "type": "Feature", "properties": { "Statename": "Odisha", "Districtname": "Jagatsinghapur", "Subdistrictname": "Tirtol", "Blockname": "Tirtol", "Healthblockname": "Tirtol", "Healthfacilitytype": "health sub centre", "Facilityname": "Bodhei", "NIN": 1667738858, "latitude": 20.26374, "longitude": 86.36286, "facility_type_standardized": "hsc", "snapped_lon": 86.461032, "snapped_lat": 20.114504 }, "geometry": { "type": "Point", "coordinates": [ 86.461032, 20.114504 ] } },
{ "type": "Feature", "properties": { "Statename": "Odisha", "Districtname": "Jagatsinghapur", "Subdistrictname": "Paradip", "Blockname": "Kujanga", "Healthblockname": "Kujanga", "Healthfacilitytype": "health sub centre", "Facilityname": "Sandakuda", "NIN": 8847567214, "latitude": 20.26478, "longitude": 86.53678, "facility_type_standardized": "hsc", "snapped_lon": 86.571021, "snapped_lat": 20.23589 }, "geometry": { "type": "Point", "coordinates": [ 86.571021, 20.23589 ] } },
{ "type": "Feature", "properties": { "Statename": "Odisha", "Districtname": "Jagatsinghapur", "Subdistrictname": "Ersama", "Blockname": "Erasama", "Healthblockname": "Erasama", "Healthfacilitytype": "health sub centre", "Facilityname": "Chatua", "NIN": 7378867118, "latitude": 20.26788, "longitude": 86.50234, "facility_type_standardized": "hsc", "snapped_lon": 86.571021, "snapped_lat": 20.23589 }, "geometry": { "type": "Point", "coordinates": [ 86.571021, 20.23589 ] } },
{ "type": "Feature", "properties": { "Statename": "Odisha", "Districtname": "Jagatsinghapur", "Subdistrictname": "Tirtol", "Blockname": "Tirtol", "Healthblockname": "Tirtol", "Healthfacilitytype": "health sub centre", "Facilityname": "Gopalpur", "NIN": 6855152515, "latitude": 20.26825, "longitude": 86.26332, "facility_type_standardized": "hsc", "snapped_lon": 86.276694, "snapped_lat": 20.086687 }, "geometry": { "type": "Point", "coordinates": [ 86.276694, 20.086687 ] } },
{ "type": "Feature", "properties": { "Statename": "Odisha", "Districtname": "Jagatsinghapur", "Subdistrictname": "Tirtol", "Blockname": "Tirtol", "Healthblockname": "Tirtol", "Healthfacilitytype": "health sub centre", "Facilityname": "Gobindpur", "NIN": 5574365887, "latitude": 20.26955, "longitude": 86.32084, "facility_type_standardized": "hsc", "snapped_lon": 86.277518, "snapped_lat": 20.086526 }, "geometry": { "type": "Point", "coordinates": [ 86.277518, 20.086526 ] } },
{ "type": "Feature", "properties": { "Statename": "Odisha", "Districtname": "Jagatsinghapur", "Subdistrictname": "Kujang", "Blockname": "Kujang", "Healthblockname": "Kujanga", "Healthfacilitytype": "health sub centre", "Facilityname": "Dagarpada", "NIN": 2436766865, "latitude": 20.2696, "longitude": 86.38315, "facility_type_standardized": "hsc", "snapped_lon": 86.461032, "snapped_lat": 20.114504 }, "geometry": { "type": "Point", "coordinates": [ 86.461032, 20.114504 ] } },
{ "type": "Feature", "properties": { "Statename": "Odisha", "Districtname": "Jagatsinghapur", "Subdistrictname": "Jagatsinghapur", "Blockname": "Jagatsinghpur", "Healthblockname": "Jagatsinghpur", "Healthfacilitytype": "health sub centre", "Facilityname": "Katesinghpur", "NIN": 4753723685, "latitude": 20.26965, "longitude": 86.0945, "facility_type_standardized": "hsc", "snapped_lon": 86.166021, "snapped_lat": 20.069067 }, "geometry": { "type": "Point", "coordinates": [ 86.166021, 20.069067 ] } },
{ "type": "Feature", "properties": { "Statename": "Odisha", "Districtname": "Jagatsinghapur", "Subdistrictname": "Jagatsinghapur", "Blockname": "Jagatsinghpur", "Healthblockname": "Jagatsinghpur", "Healthfacilitytype": "health sub centre", "Facilityname": "Patenigaon", "NIN": 6342678452, "latitude": 20.27025, "longitude": 86.18581, "facility_type_standardized": "hsc", "snapped_lon": 86.166021, "snapped_lat": 20.069067 }, "geometry": { "type": "Point", "coordinates": [ 86.166021, 20.069067 ] } },
{ "type": "Feature", "properties": { "Statename": "Odisha", "Districtname": "Jagatsinghapur", "Subdistrictname": "Kujang", "Blockname": "Kujang", "Healthblockname": "Kujanga", "Healthfacilitytype": "health sub centre", "Facilityname": "Potanai", "NIN": 1412731133, "latitude": 20.27026, "longitude": 86.46745, "facility_type_standardized": "hsc", "snapped_lon": 86.571021, "snapped_lat": 20.23589 }, "geometry": { "type": "Point", "coordinates": [ 86.571021, 20.23589 ] } },
{ "type": "Feature", "properties": { "Statename": "Odisha", "Districtname": "Jagatsinghapur", "Subdistrictname": "Kujang", "Blockname": "Kujang", "Healthblockname": "Kujanga", "Healthfacilitytype": "health sub centre", "Facilityname": "Kujanga", "NIN": 4218311126, "latitude": 20.27102, "longitude": 86.40532, "facility_type_standardized": "hsc", "snapped_lon": 86.475923, "snapped_lat": 20.122346 }, "geometry": { "type": "Point", "coordinates": [ 86.475923, 20.122346 ] } },
{ "type": "Feature", "properties": { "Statename": "Odisha", "Districtname": "Jagatsinghapur", "Subdistrictname": "Kujang", "Blockname": "Kujang", "Healthblockname": "Kujanga", "Healthfacilitytype": "health sub centre", "Facilityname": "Bagadia", "NIN": 5766678816, "latitude": 20.27139, "longitude": 86.59425, "facility_type_standardized": "hsc", "snapped_lon": 86.585525, "snapped_lat": 20.262395 }, "geometry": { "type": "Point", "coordinates": [ 86.585525, 20.262395 ] } },
{ "type": "Feature", "properties": { "Statename": "Odisha", "Districtname": "Jagatsinghapur", "Subdistrictname": "Jagatsinghapur", "Blockname": "Jagatsinghpur", "Healthblockname": "Jagatsinghpur", "Healthfacilitytype": "health sub centre", "Facilityname": "Punanga", "NIN": 6458144463, "latitude": 20.27347, "longitude": 86.15223, "facility_type_standardized": "hsc", "snapped_lon": 86.166021, "snapped_lat": 20.069067 }, "geometry": { "type": "Point", "coordinates": [ 86.166021, 20.069067 ] } },
{ "type": "Feature", "properties": { "Statename": "Odisha", "Districtname": "Jagatsinghapur", "Subdistrictname": "Jagatsinghapur", "Blockname": "Jagatsinghpur", "Healthblockname": "Jagatsinghpur", "Healthfacilitytype": "health sub centre", "Facilityname": "Sanpur", "NIN": 8123746771, "latitude": 20.2778, "longitude": 86.21926, "facility_type_standardized": "hsc", "snapped_lon": 86.276694, "snapped_lat": 20.086687 }, "geometry": { "type": "Point", "coordinates": [ 86.276694, 20.086687 ] } },
{ "type": "Feature", "properties": { "Statename": "Odisha", "Districtname": "Jagatsinghapur", "Subdistrictname": "Jagatsinghapur", "Blockname": "Jagatsinghpur", "Healthblockname": "Jagatsinghpur", "Healthfacilitytype": "health sub centre", "Facilityname": "Mandasahi", "NIN": 7414637640, "latitude": 20.27798, "longitude": 86.11296, "facility_type_standardized": "hsc", "snapped_lon": 86.166021, "snapped_lat": 20.069067 }, "geometry": { "type": "Point", "coordinates": [ 86.166021, 20.069067 ] } },
{ "type": "Feature", "properties": { "Statename": "Odisha", "Districtname": "Jagatsinghapur", "Subdistrictname": "Tirtol", "Blockname": "Tirtol", "Healthblockname": "Tirtol", "Healthfacilitytype": "health sub centre", "Facilityname": "Kanakpur", "NIN": 8441478214, "latitude": 20.27807, "longitude": 86.29518, "facility_type_standardized": "hsc", "snapped_lon": 86.276694, "snapped_lat": 20.086687 }, "geometry": { "type": "Point", "coordinates": [ 86.276694, 20.086687 ] } },
{ "type": "Feature", "properties": { "Statename": "Odisha", "Districtname": "Jagatsinghapur", "Subdistrictname": "Kujang", "Blockname": "Kujang", "Healthblockname": "Kujanga", "Healthfacilitytype": "health sub centre", "Facilityname": "Garei", "NIN": 4835232846, "latitude": 20.27822, "longitude": 86.43521, "facility_type_standardized": "hsc", "snapped_lon": 86.571021, "snapped_lat": 20.23589 }, "geometry": { "type": "Point", "coordinates": [ 86.571021, 20.23589 ] } },
{ "type": "Feature", "properties": { "Statename": "Odisha", "Districtname": "Jagatsinghapur", "Subdistrictname": "Kujang", "Blockname": "Kujang", "Healthblockname": "Kujanga", "Healthfacilitytype": "health sub centre", "Facilityname": "Fatepur", "NIN": 8717267341, "latitude": 20.28049, "longitude": 86.57154, "facility_type_standardized": "hsc", "snapped_lon": 86.585525, "snapped_lat": 20.262395 }, "geometry": { "type": "Point", "coordinates": [ 86.585525, 20.262395 ] } },
{ "type": "Feature", "properties": { "Statename": "Odisha", "Districtname": "Jagatsinghapur", "Subdistrictname": "Biridi", "Blockname": "Biridi", "Healthblockname": "Biridi", "Healthfacilitytype": "health sub centre", "Facilityname": "Baredia", "NIN": 8632813476, "latitude": 20.28188, "longitude": 86.06776, "facility_type_standardized": "hsc", "snapped_lon": 86.166021, "snapped_lat": 20.069067 }, "geometry": { "type": "Point", "coordinates": [ 86.166021, 20.069067 ] } },
{ "type": "Feature", "properties": { "Statename": "Odisha", "Districtname": "Jagatsinghapur", "Subdistrictname": "Kujang", "Blockname": "Kujang", "Healthblockname": "Kujanga", "Healthfacilitytype": "health sub centre", "Facilityname": "Patapur", "NIN": 7474253676, "latitude": 20.28331, "longitude": 86.50891, "facility_type_standardized": "hsc", "snapped_lon": 86.571021, "snapped_lat": 20.23589 }, "geometry": { "type": "Point", "coordinates": [ 86.571021, 20.23589 ] } },
{ "type": "Feature", "properties": { "Statename": "Odisha", "Districtname": "Jagatsinghapur", "Subdistrictname": "Tirtol", "Blockname": "Tirtol", "Healthblockname": "Tirtol", "Healthfacilitytype": "health sub centre", "Facilityname": "Sanara", "NIN": 6444346149, "latitude": 20.28565, "longitude": 86.2406, "facility_type_standardized": "hsc", "snapped_lon": 86.276694, "snapped_lat": 20.086687 }, "geometry": { "type": "Point", "coordinates": [ 86.276694, 20.086687 ] } },
{ "type": "Feature", "properties": { "Statename": "Odisha", "Districtname": "Jagatsinghapur", "Subdistrictname": "Kujang", "Blockname": "Kujang", "Healthblockname": "Kujanga", "Healthfacilitytype": "health sub centre", "Facilityname": "Borikhi", "NIN": 7185211310, "latitude": 20.28702, "longitude": 86.47933, "facility_type_standardized": "hsc", "snapped_lon": 86.571021, "snapped_lat": 20.23589 }, "geometry": { "type": "Point", "coordinates": [ 86.571021, 20.23589 ] } },
{ "type": "Feature", "properties": { "Statename": "Odisha", "Districtname": "Jagatsinghapur", "Subdistrictname": "Tirtol", "Blockname": "Tirtol", "Healthblockname": "Tirtol", "Healthfacilitytype": "health sub centre", "Facilityname": "Garam", "NIN": 7358182777, "latitude": 20.28757, "longitude": 86.32943, "facility_type_standardized": "hsc", "snapped_lon": 86.286269, "snapped_lat": 20.084597 }, "geometry": { "type": "Point", "coordinates": [ 86.286269, 20.084597 ] } },
{ "type": "Feature", "properties": { "Statename": "Odisha", "Districtname": "Jagatsinghapur", "Subdistrictname": "Tirtol", "Blockname": "Tirtol", "Healthblockname": "Tirtol", "Healthfacilitytype": "health sub centre", "Facilityname": "Manijanga", "NIN": 6772624380, "latitude": 20.29045, "longitude": 86.28256, "facility_type_standardized": "hsc", "snapped_lon": 86.276694, "snapped_lat": 20.086687 }, "geometry": { "type": "Point", "coordinates": [ 86.276694, 20.086687 ] } },
{ "type": "Feature", "properties": { "Statename": "Odisha", "Districtname": "Jagatsinghapur", "Subdistrictname": "Tirtol", "Blockname": "Tirtol", "Healthblockname": "Tirtol", "Healthfacilitytype": "health sub centre", "Facilityname": "Mulisingh", "NIN": 8227288712, "latitude": 20.29045, "longitude": 86.28256, "facility_type_standardized": "hsc", "snapped_lon": 86.276694, "snapped_lat": 20.086687 }, "geometry": { "type": "Point", "coordinates": [ 86.276694, 20.086687 ] } },
{ "type": "Feature", "properties": { "Statename": "Odisha", "Districtname": "Jagatsinghapur", "Subdistrictname": "Kujang", "Blockname": "Kujang", "Healthblockname": "Kujanga", "Healthfacilitytype": "health sub centre", "Facilityname": "Ganadkipur", "NIN": 1717111379, "latitude": 20.29124, "longitude": 86.55883, "facility_type_standardized": "hsc", "snapped_lon": 86.585525, "snapped_lat": 20.262395 }, "geometry": { "type": "Point", "coordinates": [ 86.585525, 20.262395 ] } },
{ "type": "Feature", "properties": { "Statename": "Odisha", "Districtname": "Jagatsinghapur", "Subdistrictname": "Jagatsinghapur", "Blockname": "Jagatsinghpur", "Healthblockname": "Jagatsinghpur", "Healthfacilitytype": "health sub centre", "Facilityname": "Madhusudanpur Sasan", "NIN": 5758264864, "latitude": 20.29129, "longitude": 86.13356, "facility_type_standardized": "hsc", "snapped_lon": 86.166021, "snapped_lat": 20.069067 }, "geometry": { "type": "Point", "coordinates": [ 86.166021, 20.069067 ] } },
{ "type": "Feature", "properties": { "Statename": "Odisha", "Districtname": "Jagatsinghapur", "Subdistrictname": "Kujang", "Blockname": "Kujang", "Healthblockname": "Kujanga", "Healthfacilitytype": "health sub centre", "Facilityname": "Balia", "NIN": 4158188856, "latitude": 20.29138, "longitude": 86.5176, "facility_type_standardized": "hsc", "snapped_lon": 86.585525, "snapped_lat": 20.262395 }, "geometry": { "type": "Point", "coordinates": [ 86.585525, 20.262395 ] } },
{ "type": "Feature", "properties": { "Statename": "Odisha", "Districtname": "Jagatsinghapur", "Subdistrictname": "Tirtol", "Blockname": "Tirtol", "Healthblockname": "Tirtol", "Healthfacilitytype": "health sub centre", "Facilityname": "Nimakana", "NIN": 5166325257, "latitude": 20.29209, "longitude": 86.3785, "facility_type_standardized": "hsc", "snapped_lon": 86.475923, "snapped_lat": 20.122346 }, "geometry": { "type": "Point", "coordinates": [ 86.475923, 20.122346 ] } },
{ "type": "Feature", "properties": { "Statename": "Odisha", "Districtname": "Jagatsinghapur", "Subdistrictname": "Jagatsinghapur", "Blockname": "Jagatsinghpur", "Healthblockname": "Jagatsinghpur", "Healthfacilitytype": "health sub centre", "Facilityname": "Palasola", "NIN": 2223656212, "latitude": 20.29215, "longitude": 86.18229, "facility_type_standardized": "hsc", "snapped_lon": 86.166021, "snapped_lat": 20.069067 }, "geometry": { "type": "Point", "coordinates": [ 86.166021, 20.069067 ] } },
{ "type": "Feature", "properties": { "Statename": "Odisha", "Districtname": "Jagatsinghapur", "Subdistrictname": "Jagatsinghapur", "Blockname": "Raghunathpur", "Healthblockname": "Raghunathpur", "Healthfacilitytype": "health sub centre", "Facilityname": "Radhanga", "NIN": 2754881437, "latitude": 20.29255, "longitude": 86.20651, "facility_type_standardized": "hsc", "snapped_lon": 86.276694, "snapped_lat": 20.086687 }, "geometry": { "type": "Point", "coordinates": [ 86.276694, 20.086687 ] } },
{ "type": "Feature", "properties": { "Statename": "Odisha", "Districtname": "Jagatsinghapur", "Subdistrictname": "Biridi", "Blockname": "Biridi", "Healthblockname": "Biridi", "Healthfacilitytype": "health sub centre", "Facilityname": "Basandara", "NIN": 1858753443, "latitude": 20.29319, "longitude": 86.05175, "facility_type_standardized": "hsc", "snapped_lon": 86.166021, "snapped_lat": 20.069067 }, "geometry": { "type": "Point", "coordinates": [ 86.166021, 20.069067 ] } },
{ "type": "Feature", "properties": { "Statename": "Odisha", "Districtname": "Jagatsinghapur", "Subdistrictname": "Kujang", "Blockname": "Kujang", "Healthblockname": "Kujanga", "Healthfacilitytype": "health sub centre", "Facilityname": "Sailo", "NIN": 4111352334, "latitude": 20.29657, "longitude": 86.4085, "facility_type_standardized": "hsc", "snapped_lon": 86.571021, "snapped_lat": 20.23589 }, "geometry": { "type": "Point", "coordinates": [ 86.571021, 20.23589 ] } },
{ "type": "Feature", "properties": { "Statename": "Odisha", "Districtname": "Jagatsinghapur", "Subdistrictname": "Tirtol", "Blockname": "Raghunathpur", "Healthblockname": "Raghunathpur", "Healthfacilitytype": "health sub centre", "Facilityname": "Eradanga", "NIN": 7475786252, "latitude": 20.29742, "longitude": 86.24792, "facility_type_standardized": "hsc", "snapped_lon": 86.276694, "snapped_lat": 20.086687 }, "geometry": { "type": "Point", "coordinates": [ 86.276694, 20.086687 ] } },
{ "type": "Feature", "properties": { "Statename": "Odisha", "Districtname": "Jagatsinghapur", "Subdistrictname": "Biridi", "Blockname": "Biridi", "Healthblockname": "Biridi", "Healthfacilitytype": "health sub centre", "Facilityname": "Puran", "NIN": 3721647489, "latitude": 20.29842, "longitude": 86.06615, "facility_type_standardized": "hsc", "snapped_lon": 86.166021, "snapped_lat": 20.069067 }, "geometry": { "type": "Point", "coordinates": [ 86.166021, 20.069067 ] } },
{ "type": "Feature", "properties": { "Statename": "Odisha", "Districtname": "Jagatsinghapur", "Subdistrictname": "Kujang", "Blockname": "Kujang", "Healthblockname": "Kujanga", "Healthfacilitytype": "health sub centre", "Facilityname": "Kothi", "NIN": 3837735335, "latitude": 20.2986, "longitude": 86.57835, "facility_type_standardized": "hsc", "snapped_lon": 86.585525, "snapped_lat": 20.262395 }, "geometry": { "type": "Point", "coordinates": [ 86.585525, 20.262395 ] } },
{ "type": "Feature", "properties": { "Statename": "Odisha", "Districtname": "Jagatsinghapur", "Subdistrictname": "Kujang", "Blockname": "Kujang", "Healthblockname": "Kujanga", "Healthfacilitytype": "health sub centre", "Facilityname": "Gopiakuda", "NIN": 5835428763, "latitude": 20.29884, "longitude": 86.54873, "facility_type_standardized": "hsc", "snapped_lon": 86.585525, "snapped_lat": 20.262395 }, "geometry": { "type": "Point", "coordinates": [ 86.585525, 20.262395 ] } },
{ "type": "Feature", "properties": { "Statename": "Odisha", "Districtname": "Jagatsinghapur", "Subdistrictname": "Jagatsinghapur", "Blockname": "Jagatsinghpur", "Healthblockname": "Jagatsinghpur", "Healthfacilitytype": "health sub centre", "Facilityname": "Singharpur", "NIN": 1583377443, "latitude": 20.29902, "longitude": 86.14393, "facility_type_standardized": "hsc", "snapped_lon": 86.166021, "snapped_lat": 20.069067 }, "geometry": { "type": "Point", "coordinates": [ 86.166021, 20.069067 ] } },
{ "type": "Feature", "properties": { "Statename": "Odisha", "Districtname": "Jagatsinghapur", "Subdistrictname": "Jagatsinghapur", "Blockname": "Jagatsinghpur", "Healthblockname": "Jagatsinghpur", "Healthfacilitytype": "health sub centre", "Facilityname": "Rambhadeipur", "NIN": 4358337667, "latitude": 20.30034, "longitude": 86.11174, "facility_type_standardized": "hsc", "snapped_lon": 86.166021, "snapped_lat": 20.069067 }, "geometry": { "type": "Point", "coordinates": [ 86.166021, 20.069067 ] } },
{ "type": "Feature", "properties": { "Statename": "Odisha", "Districtname": "Jagatsinghapur", "Subdistrictname": "Kujang", "Blockname": "Kujang", "Healthblockname": "Kujanga", "Healthfacilitytype": "health sub centre", "Facilityname": "Pankapal", "NIN": 8188284155, "latitude": 20.30257, "longitude": 86.44951, "facility_type_standardized": "hsc", "snapped_lon": 86.571021, "snapped_lat": 20.23589 }, "geometry": { "type": "Point", "coordinates": [ 86.571021, 20.23589 ] } },
{ "type": "Feature", "properties": { "Statename": "Odisha", "Districtname": "Jagatsinghapur", "Subdistrictname": "Kujang", "Blockname": "Kujang", "Healthblockname": "Kujanga", "Healthfacilitytype": "health sub centre", "Facilityname": "Talapada", "NIN": 8222434774, "latitude": 20.30326, "longitude": 86.40423, "facility_type_standardized": "hsc", "snapped_lon": 86.571021, "snapped_lat": 20.23589 }, "geometry": { "type": "Point", "coordinates": [ 86.571021, 20.23589 ] } },
{ "type": "Feature", "properties": { "Statename": "Odisha", "Districtname": "Jagatsinghapur", "Subdistrictname": "Tirtol", "Blockname": "Tirtol", "Healthblockname": "Tirtol", "Healthfacilitytype": "health sub centre", "Facilityname": "Tirtol", "NIN": 6187453441, "latitude": 20.30417, "longitude": 86.38222, "facility_type_standardized": "hsc", "snapped_lon": 86.571021, "snapped_lat": 20.23589 }, "geometry": { "type": "Point", "coordinates": [ 86.571021, 20.23589 ] } },
{ "type": "Feature", "properties": { "Statename": "Odisha", "Districtname": "Jagatsinghapur", "Subdistrictname": "Kujang", "Blockname": "Kujang", "Healthblockname": "Kujanga", "Healthfacilitytype": "health sub centre", "Facilityname": "Mangarajpur", "NIN": 8417584656, "latitude": 20.30418, "longitude": 86.56596, "facility_type_standardized": "hsc", "snapped_lon": 86.585525, "snapped_lat": 20.262395 }, "geometry": { "type": "Point", "coordinates": [ 86.585525, 20.262395 ] } },
{ "type": "Feature", "properties": { "Statename": "Odisha", "Districtname": "Jagatsinghapur", "Subdistrictname": "Kujang", "Blockname": "Kujang", "Healthblockname": "Kujanga", "Healthfacilitytype": "health sub centre", "Facilityname": "Jagatnathpur", "NIN": 5528678856, "latitude": 20.30627, "longitude": 86.62858, "facility_type_standardized": "hsc", "snapped_lon": 86.65663, "snapped_lat": 20.290198 }, "geometry": { "type": "Point", "coordinates": [ 86.65663, 20.290198 ] } },
{ "type": "Feature", "properties": { "Statename": "Odisha", "Districtname": "Jagatsinghapur", "Subdistrictname": "Tirtol", "Blockname": "Tirtol", "Healthblockname": "Tirtol", "Healthfacilitytype": "health sub centre", "Facilityname": "Tentulipada", "NIN": 6524873855, "latitude": 20.30694, "longitude": 86.32183, "facility_type_standardized": "hsc", "snapped_lon": 86.277518, "snapped_lat": 20.086526 }, "geometry": { "type": "Point", "coordinates": [ 86.277518, 20.086526 ] } },
{ "type": "Feature", "properties": { "Statename": "Odisha", "Districtname": "Jagatsinghapur", "Subdistrictname": "Jagatsinghapur", "Blockname": "Raghunathpur", "Healthblockname": "Raghunathpur", "Healthfacilitytype": "health sub centre", "Facilityname": "Tarikunda", "NIN": 7264458758, "latitude": 20.30851, "longitude": 86.13081, "facility_type_standardized": "hsc", "snapped_lon": 86.166021, "snapped_lat": 20.069067 }, "geometry": { "type": "Point", "coordinates": [ 86.166021, 20.069067 ] } },
{ "type": "Feature", "properties": { "Statename": "Odisha", "Districtname": "Jagatsinghapur", "Subdistrictname": "Balikuda", "Blockname": "Raghunathpur", "Healthblockname": "Raghunathpur", "Healthfacilitytype": "health sub centre", "Facilityname": "Redhua", "NIN": 2586883411, "latitude": 20.30888, "longitude": 86.21403, "facility_type_standardized": "hsc", "snapped_lon": 86.276694, "snapped_lat": 20.086687 }, "geometry": { "type": "Point", "coordinates": [ 86.276694, 20.086687 ] } },
{ "type": "Feature", "properties": { "Statename": "Odisha", "Districtname": "Jagatsinghapur", "Subdistrictname": "Kujang", "Blockname": "Kujang", "Healthblockname": "Kujanga", "Healthfacilitytype": "health sub centre", "Facilityname": "Taladanda", "NIN": 7516828865, "latitude": 20.30974, "longitude": 86.47757, "facility_type_standardized": "hsc", "snapped_lon": 86.585525, "snapped_lat": 20.262395 }, "geometry": { "type": "Point", "coordinates": [ 86.585525, 20.262395 ] } },
{ "type": "Feature", "properties": { "Statename": "Odisha", "Districtname": "Jagatsinghapur", "Subdistrictname": "Jagatsinghapur", "Blockname": "Jagatsinghpur", "Healthblockname": "Jagatsinghpur", "Healthfacilitytype": "health sub centre", "Facilityname": "Samanga", "NIN": 3842858312, "latitude": 20.31015, "longitude": 86.16722, "facility_type_standardized": "hsc", "snapped_lon": 86.166021, "snapped_lat": 20.069067 }, "geometry": { "type": "Point", "coordinates": [ 86.166021, 20.069067 ] } },
{ "type": "Feature", "properties": { "Statename": "Odisha", "Districtname": "Jagatsinghapur", "Subdistrictname": "Tirtol", "Blockname": "Tirtol", "Healthblockname": "Tirtol", "Healthfacilitytype": "health sub centre", "Facilityname": "Tarjanga", "NIN": 1686686468, "latitude": 20.31086, "longitude": 86.3063, "facility_type_standardized": "hsc", "snapped_lon": 86.276694, "snapped_lat": 20.086687 }, "geometry": { "type": "Point", "coordinates": [ 86.276694, 20.086687 ] } },
{ "type": "Feature", "properties": { "Statename": "Odisha", "Districtname": "Jagatsinghapur", "Subdistrictname": "Jagatsinghapur", "Blockname": "Raghunathpur", "Healthblockname": "Raghunathpur", "Healthfacilitytype": "health sub centre", "Facilityname": "Chhapada", "NIN": 4142818741, "latitude": 20.31355, "longitude": 86.26492, "facility_type_standardized": "hsc", "snapped_lon": 86.276694, "snapped_lat": 20.086687 }, "geometry": { "type": "Point", "coordinates": [ 86.276694, 20.086687 ] } },
{ "type": "Feature", "properties": { "Statename": "Odisha", "Districtname": "Jagatsinghapur", "Subdistrictname": "Kujang", "Blockname": "Kujang", "Healthblockname": "Kujanga", "Healthfacilitytype": "health sub centre", "Facilityname": "Paradeep Garh", "NIN": 1815153711, "latitude": 20.31455, "longitude": 86.61188, "facility_type_standardized": "hsc", "snapped_lon": 86.607985, "snapped_lat": 20.270536 }, "geometry": { "type": "Point", "coordinates": [ 86.607985, 20.270536 ] } },
{ "type": "Feature", "properties": { "Statename": "Odisha", "Districtname": "Jagatsinghapur", "Subdistrictname": "Kujang", "Blockname": "Kujang", "Healthblockname": "Kujanga", "Healthfacilitytype": "health sub centre", "Facilityname": "Hasina", "NIN": 4373344714, "latitude": 20.31476, "longitude": 86.5642, "facility_type_standardized": "hsc", "snapped_lon": 86.585525, "snapped_lat": 20.262395 }, "geometry": { "type": "Point", "coordinates": [ 86.585525, 20.262395 ] } },
{ "type": "Feature", "properties": { "Statename": "Odisha", "Districtname": "Jagatsinghapur", "Subdistrictname": "Tirtol", "Blockname": "Tirtol", "Healthblockname": "Tirtol", "Healthfacilitytype": "health sub centre", "Facilityname": "Tartol", "NIN": 3617586841, "latitude": 20.31476, "longitude": 86.36757, "facility_type_standardized": "hsc", "snapped_lon": 86.571021, "snapped_lat": 20.23589 }, "geometry": { "type": "Point", "coordinates": [ 86.571021, 20.23589 ] } },
{ "type": "Feature", "properties": { "Statename": "Odisha", "Districtname": "Jagatsinghapur", "Subdistrictname": "Kujang", "Blockname": "Kujang", "Healthblockname": "Kujanga", "Healthfacilitytype": "health sub centre", "Facilityname": "Zillanasi", "NIN": 6548745634, "latitude": 20.31844, "longitude": 86.49312, "facility_type_standardized": "hsc", "snapped_lon": 86.585525, "snapped_lat": 20.262395 }, "geometry": { "type": "Point", "coordinates": [ 86.585525, 20.262395 ] } },
{ "type": "Feature", "properties": { "Statename": "Odisha", "Districtname": "Jagatsinghapur", "Subdistrictname": "Kujang", "Blockname": "Kujang", "Healthblockname": "Kujanga", "Healthfacilitytype": "health sub centre", "Facilityname": "Balarampur", "NIN": 8784877840, "latitude": 20.31877, "longitude": 86.53601, "facility_type_standardized": "hsc", "snapped_lon": 86.585525, "snapped_lat": 20.262395 }, "geometry": { "type": "Point", "coordinates": [ 86.585525, 20.262395 ] } },
{ "type": "Feature", "properties": { "Statename": "Odisha", "Districtname": "Jagatsinghapur", "Subdistrictname": "Biridi", "Blockname": "Biridi", "Healthblockname": "Biridi", "Healthfacilitytype": "health sub centre", "Facilityname": "Balia", "NIN": 1387775677, "latitude": 20.3193, "longitude": 86.074, "facility_type_standardized": "hsc", "snapped_lon": 86.166021, "snapped_lat": 20.069067 }, "geometry": { "type": "Point", "coordinates": [ 86.166021, 20.069067 ] } },
{ "type": "Feature", "properties": { "Statename": "Odisha", "Districtname": "Jagatsinghapur", "Subdistrictname": "Jagatsinghapur", "Blockname": "Raghunathpur", "Healthblockname": "Raghunathpur", "Healthfacilitytype": "health sub centre", "Facilityname": "Sadeipur", "NIN": 8337178357, "latitude": 20.32033, "longitude": 86.16761, "facility_type_standardized": "hsc", "snapped_lon": 86.166021, "snapped_lat": 20.069067 }, "geometry": { "type": "Point", "coordinates": [ 86.166021, 20.069067 ] } },
{ "type": "Feature", "properties": { "Statename": "Odisha", "Districtname": "Jagatsinghapur", "Subdistrictname": "Biridi", "Blockname": "Biridi", "Healthblockname": "Biridi", "Healthfacilitytype": "health sub centre", "Facilityname": "Manguli", "NIN": 1535156812, "latitude": 20.32301, "longitude": 86.05209, "facility_type_standardized": "hsc", "snapped_lon": 86.166021, "snapped_lat": 20.069067 }, "geometry": { "type": "Point", "coordinates": [ 86.166021, 20.069067 ] } },
{ "type": "Feature", "properties": { "Statename": "Odisha", "Districtname": "Jagatsinghapur", "Subdistrictname": "Kujang", "Blockname": "Kujang", "Healthblockname": "Kujanga", "Healthfacilitytype": "health sub centre", "Facilityname": "Bhutamundei", "NIN": 8836158728, "latitude": 20.32384, "longitude": 86.58355, "facility_type_standardized": "hsc", "snapped_lon": 86.607985, "snapped_lat": 20.270536 }, "geometry": { "type": "Point", "coordinates": [ 86.607985, 20.270536 ] } },
{ "type": "Feature", "properties": { "Statename": "Odisha", "Districtname": "Jagatsinghapur", "Subdistrictname": "Kujang", "Blockname": "Kujang", "Healthblockname": "Kujanga", "Healthfacilitytype": "health sub centre", "Facilityname": "Pipal", "NIN": 1183212230, "latitude": 20.32397, "longitude": 86.60051, "facility_type_standardized": "hsc", "snapped_lon": 86.607985, "snapped_lat": 20.270536 }, "geometry": { "type": "Point", "coordinates": [ 86.607985, 20.270536 ] } },
{ "type": "Feature", "properties": { "Statename": "Odisha", "Districtname": "Jagatsinghapur", "Subdistrictname": "Kujang", "Blockname": "Kujang", "Healthblockname": "Kujanga", "Healthfacilitytype": "health sub centre", "Facilityname": "Nuagard", "NIN": 5537247784, "latitude": 20.32554, "longitude": 86.628, "facility_type_standardized": "hsc", "snapped_lon": 86.65663, "snapped_lat": 20.290198 }, "geometry": { "type": "Point", "coordinates": [ 86.65663, 20.290198 ] } },
{ "type": "Feature", "properties": { "Statename": "Odisha", "Districtname": "Jagatsinghapur", "Subdistrictname": "Jagatsinghapur", "Blockname": "Raghunathpur", "Healthblockname": "Raghunathpur", "Healthfacilitytype": "health sub centre", "Facilityname": "Badakorakora", "NIN": 2484373176, "latitude": 20.32671, "longitude": 86.19837, "facility_type_standardized": "hsc", "snapped_lon": 86.276694, "snapped_lat": 20.086687 }, "geometry": { "type": "Point", "coordinates": [ 86.276694, 20.086687 ] } },
{ "type": "Feature", "properties": { "Statename": "Odisha", "Districtname": "Jagatsinghapur", "Subdistrictname": "Kujang", "Blockname": "Kujang", "Healthblockname": "Kujanga", "Healthfacilitytype": "health sub centre", "Facilityname": "Hansura", "NIN": 8454674618, "latitude": 20.32744, "longitude": 86.42527, "facility_type_standardized": "hsc", "snapped_lon": 86.571021, "snapped_lat": 20.23589 }, "geometry": { "type": "Point", "coordinates": [ 86.571021, 20.23589 ] } },