{
"type": "FeatureCollection",
"name": "kendujhar_facilities_snapped",
"crs": { "type": "name", "properties": { "name": "urn:ogc:def:crs:OGC:1.3:CRS84" } },
"features": [
{ "type": "Feature", "properties": { "Statename": "Odisha", "Districtname": "Kendujhar", "Subdistrictname": "Nandipada", "Blockname": "Hatadihi", "Healthblockname": "Hatadihi", "Healthfacilitytype": "community health centre", "Facilityname": "Salania", "NIN": 4653733479, "latitude": 21.08016, "longitude": 86.28049, "facility_type_standardized": "chc", "snapped_lon": 86.276635, "snapped_lat": 21.074719 }, "geometry": { "type": "Point", "coordinates": [ 86.276635, 21.074719 ] } },
{ "type": "Feature", "properties": { "Statename": "Odisha", "Districtname": "Kendujhar", "Subdistrictname": "Sainkul", "Blockname": "Ghasipura", "Healthblockname": "Ghasipura", "Healthfacilitytype": "community health centre", "Facilityname": "Sainkul", "NIN": 2513245221, "latitude": 21.12076, "longitude": 86.12842, "facility_type_standardized": "chc", "snapped_lon": 86.128645, "snapped_lat": 21.117868 }, "geometry": { "type": "Point", "coordinates": [ 86.128645, 21.117868 ] } },
{ "type": "Feature", "properties": { "Statename": "Odisha", "Districtname": "Kendujhar", "Subdistrictname": "Ghasipura", "Blockname": "Ghasipura", "Healthblockname": "Ghasipura", "Healthfacilitytype": "community health centre", "Facilityname": "Kesudurpal", "NIN": 5837544666, "latitude": 21.16486, "longitude": 86.01045, "facility_type_standardized": "chc", "snapped_lon": 86.003182, "snapped_lat": 21.162633 }, "geometry": { "type": "Point", "coordinates": [ 86.003182, 21.162633 ] } },
{ "type": "Feature", "properties": { "Statename": "Odisha", "Districtname": "Kendujhar", "Subdistrictname": "Anandapur", "Blockname": "Anandapur", "Healthblockname": "Anandapur", "Healthfacilitytype": "community health centre", "Facilityname": "Fakirpur", "NIN": 2121342717, "latitude": 21.21646, "longitude": 86.11403, "facility_type_standardized": "chc", "snapped_lon": 86.098401, "snapped_lat": 21.21295 }, "geometry": { "type": "Point", "coordinates": [ 86.098401, 21.21295 ] } },
{ "type": "Feature", "properties": { "Statename": "Odisha", "Districtname": "Kendujhar", "Subdistrictname": "Daitari", "Blockname": "Harichadanpur", "Healthblockname": "Harichandapur", "Healthfacilitytype": "community health centre", "Facilityname": "Bhagamunda", "NIN": 3367477563, "latitude": 21.27373, "longitude": 85.85773, "facility_type_standardized": "chc", "snapped_lon": 85.862226, "snapped_lat": 21.267575 }, "geometry": { "type": "Point", "coordinates": [ 85.862226, 21.267575 ] } },
{ "type": "Feature", "properties": { "Statename": "Odisha", "Districtname": "Kendujhar", "Subdistrictname": "Harichandanpur", "Blockname": "Harichadanpur", "Healthblockname": "Harichandapur", "Healthfacilitytype": "community health centre", "Facilityname": "Harichandanpur", "NIN": 6236673841, "latitude": 21.34315, "longitude": 85.78982, "facility_type_standardized": "chc", "snapped_lon": 85.787212, "snapped_lat": 21.348474 }, "geometry": { "type": "Point", "coordinates": [ 85.787212, 21.348474 ] } },
{ "type": "Feature", "properties": { "Statename": "Odisha", "Districtname": "Kendujhar", "Subdistrictname": "Harichandanpur", "Blockname": "Telkoi", "Healthblockname": "Telkoi", "Healthfacilitytype": "community health centre", "Facilityname": "Telkoi", "NIN": 5273711217, "latitude": 21.3663, "longitude": 85.40726, "facility_type_standardized": "chc", "snapped_lon": 85.405362, "snapped_lat": 21.370017 }, "geometry": { "type": "Point", "coordinates": [ 85.405362, 21.370017 ] } },
{ "type": "Feature", "properties": { "Statename": "Odisha", "Districtname": "Kendujhar", "Subdistrictname": "Ghatgaon", "Blockname": "Ghatgaon", "Healthblockname": "Ghatagaon", "Healthfacilitytype": "community health centre", "Facilityname": "Ghatagaon", "NIN": 3443331875, "latitude": 21.39319, "longitude": 85.899, "facility_type_standardized": "chc", "snapped_lon": 85.893667, "snapped_lat": 21.388798 }, "geometry": { "type": "Point", "coordinates": [ 85.893667, 21.388798 ] } },
{ "type": "Feature", "properties": { "Statename": "Odisha", "Districtname": "Kendujhar", "Subdistrictname": "Nayakote", "Blockname": "Bansapal", "Healthblockname": "Bansapal", "Healthfacilitytype": "community health centre", "Facilityname": "Banspal", "NIN": 1386826380, "latitude": 21.6275, "longitude": 85.41817, "facility_type_standardized": "chc", "snapped_lon": 85.4256, "snapped_lat": 21.615183 }, "geometry": { "type": "Point", "coordinates": [ 85.4256, 21.615183 ] } },
{ "type": "Feature", "properties": { "Statename": "Odisha", "Districtname": "Kendujhar", "Subdistrictname": "Pandapara", "Blockname": "Patana", "Healthblockname": "Patana", "Healthfacilitytype": "community health centre", "Facilityname": "Patna", "NIN": 4788452169, "latitude": 21.63728, "longitude": 85.89397, "facility_type_standardized": "chc", "snapped_lon": 85.896178, "snapped_lat": 21.639582 }, "geometry": { "type": "Point", "coordinates": [ 85.896178, 21.639582 ] } },
{ "type": "Feature", "properties": { "Statename": "Odisha", "Districtname": "Kendujhar", "Subdistrictname": "Patana", "Blockname": "Saharapada", "Healthblockname": "Saharpada", "Healthfacilitytype": "community health centre", "Facilityname": "Udyapur", "NIN": 6183768248, "latitude": 21.70041, "longitude": 85.85273, "facility_type_standardized": "chc", "snapped_lon": 85.844673, "snapped_lat": 21.706919 }, "geometry": { "type": "Point", "coordinates": [ 85.844673, 21.706919 ] } },
{ "type": "Feature", "properties": { "Statename": "Odisha", "Districtname": "Kendujhar", "Subdistrictname": "Kendujhar Sadar", "Blockname": "Kendujhar Sadar", "Healthblockname": "Keonjhar", "Healthfacilitytype": "community health centre", "Facilityname": "Padampur", "NIN": 1111373633, "latitude": 21.72423, "longitude": 85.58954, "facility_type_standardized": "chc", "snapped_lon": 85.595386, "snapped_lat": 21.718358 }, "geometry": { "type": "Point", "coordinates": [ 85.595386, 21.718358 ] } },
{ "type": "Feature", "properties": { "Statename": "Odisha", "Districtname": "Kendujhar", "Subdistrictname": "Jhumpura", "Blockname": "Jhumpura", "Healthblockname": "Jhumpura", "Healthfacilitytype": "community health centre", "Facilityname": "Jhumpura", "NIN": 3641774439, "latitude": 21.82409, "longitude": 85.56942, "facility_type_standardized": "chc", "snapped_lon": 85.574171, "snapped_lat": 21.822121 }, "geometry": { "type": "Point", "coordinates": [ 85.574171, 21.822121 ] } },
{ "type": "Feature", "properties": { "Statename": "Odisha", "Districtname": "Kendujhar", "Subdistrictname": "Baria", "Blockname": "Champua", "Healthblockname": "Champua", "Healthfacilitytype": "community health centre", "Facilityname": "Bhanda", "NIN": 2226145528, "latitude": 21.93896, "longitude": 85.74517, "facility_type_standardized": "chc", "snapped_lon": 85.743592, "snapped_lat": 21.939463 }, "geometry": { "type": "Point", "coordinates": [ 85.743592, 21.939463 ] } },
{ "type": "Feature", "properties": { "Statename": "Odisha", "Districtname": "Kendujhar", "Subdistrictname": "Champua", "Blockname": "Joda", "Healthblockname": "Joda", "Healthfacilitytype": "community health centre", "Facilityname": "Basudevpur", "NIN": 1111373666, "latitude": 22.02698, "longitude": 85.51892, "facility_type_standardized": "chc", "snapped_lon": 85.520275, "snapped_lat": 22.023936 }, "geometry": { "type": "Point", "coordinates": [ 85.520275, 22.023936 ] } },
{ "type": "Feature", "properties": { "Statename": "Odisha", "Districtname": "Kendujhar", "Subdistrictname": "Bamebari", "Blockname": "Notmapped", "Healthblockname": "Joda", "Healthfacilitytype": "community health centre", "Facilityname": "Joda", "NIN": 7254151256, "latitude": 22.02989, "longitude": 85.42966, "facility_type_standardized": "chc", "snapped_lon": 85.427985, "snapped_lat": 22.007905 }, "geometry": { "type": "Point", "coordinates": [ 85.427985, 22.007905 ] } },
{ "type": "Feature", "properties": { "Statename": "Odisha", "Districtname": "Kendujhar", "Subdistrictname": "Joda", "Blockname": "Notmapped", "Healthblockname": "Joda", "Healthfacilitytype": "community health centre", "Facilityname": "Barbil", "NIN": 1741574881, "latitude": 22.12143, "longitude": 85.39716, "facility_type_standardized": "chc", "snapped_lon": 85.395095, "snapped_lat": 22.117971 }, "geometry": { "type": "Point", "coordinates": [ 85.395095, 22.117971 ] } },
{ "type": "Feature", "properties": { "Statename": "Odisha", "Districtname": "Kendujhar", "Subdistrictname": "Kendujhar Town", "Blockname": "Notmapped", "Healthblockname": "Keonjhar", "Healthfacilitytype": "district hospital", "Facilityname": "Keonjhar", "NIN": 1158632156, "latitude": 21.62938, "longitude": 85.5814, "facility_type_standardized": "dh", "snapped_lon": 85.592121, "snapped_lat": 21.634358 }, "geometry": { "type": "Point", "coordinates": [ 85.592121, 21.634358 ] } },
{ "type": "Feature", "properties": { "Statename": "Odisha", "Districtname": "Kendujhar", "Subdistrictname": "Sainkul", "Blockname": "Ghasipura", "Healthblockname": "Ghasipura", "Healthfacilitytype": "primary health centre", "Facilityname": "Purunabandhagoda", "NIN": 3727681383, "latitude": 21.05786, "longitude": 86.06397, "facility_type_standardized": "phc", "snapped_lon": 86.064666, "snapped_lat": 21.059457 }, "geometry": { "type": "Point", "coordinates": [ 86.064666, 21.059457 ] } },
{ "type": "Feature", "properties": { "Statename": "Odisha", "Districtname": "Kendujhar", "Subdistrictname": "Sainkul", "Blockname": "Ghasipura", "Healthblockname": "Ghasipura", "Healthfacilitytype": "primary health centre", "Facilityname": "Odapada", "NIN": 1135651584, "latitude": 21.06704, "longitude": 86.19774, "facility_type_standardized": "phc", "snapped_lon": 86.202588, "snapped_lat": 21.055985 }, "geometry": { "type": "Point", "coordinates": [ 86.202588, 21.055985 ] } },
{ "type": "Feature", "properties": { "Statename": "Odisha", "Districtname": "Kendujhar", "Subdistrictname": "Nandipada", "Blockname": "Hatadihi", "Healthblockname": "Hatadihi", "Healthfacilitytype": "primary health centre", "Facilityname": "Orali", "NIN": 4643715842, "latitude": 21.12172, "longitude": 86.27818, "facility_type_standardized": "phc", "snapped_lon": 86.27864, "snapped_lat": 21.127874 }, "geometry": { "type": "Point", "coordinates": [ 86.27864, 21.127874 ] } },
{ "type": "Feature", "properties": { "Statename": "Odisha", "Districtname": "Kendujhar", "Subdistrictname": "Nandipada", "Blockname": "Hatadihi", "Healthblockname": "Hatadihi", "Healthfacilitytype": "primary health centre", "Facilityname": "Tukuna", "NIN": 8411743746, "latitude": 21.12198, "longitude": 86.226, "facility_type_standardized": "phc", "snapped_lon": 86.22188, "snapped_lat": 21.122553 }, "geometry": { "type": "Point", "coordinates": [ 86.22188, 21.122553 ] } },
{ "type": "Feature", "properties": { "Statename": "Odisha", "Districtname": "Kendujhar", "Subdistrictname": "Sainkul", "Blockname": "Ghasipura", "Healthblockname": "Ghasipura", "Healthfacilitytype": "primary health centre", "Facilityname": "Batto", "NIN": 4112886876, "latitude": 21.13084, "longitude": 86.18278, "facility_type_standardized": "phc", "snapped_lon": 86.178925, "snapped_lat": 21.131548 }, "geometry": { "type": "Point", "coordinates": [ 86.178925, 21.131548 ] } },
{ "type": "Feature", "properties": { "Statename": "Odisha", "Districtname": "Kendujhar", "Subdistrictname": "Anandapur", "Blockname": "Ghasipura", "Healthblockname": "Ghasipura", "Healthfacilitytype": "primary health centre", "Facilityname": "Khalpal", "NIN": 7754658578, "latitude": 21.1468, "longitude": 85.96894, "facility_type_standardized": "phc", "snapped_lon": 85.968235, "snapped_lat": 21.148358 }, "geometry": { "type": "Point", "coordinates": [ 85.968235, 21.148358 ] } },
{ "type": "Feature", "properties": { "Statename": "Odisha", "Districtname": "Kendujhar", "Subdistrictname": "Nandipada", "Blockname": "Hatadihi", "Healthblockname": "Hatadihi", "Healthfacilitytype": "primary health centre", "Facilityname": "Mugupur", "NIN": 2845233846, "latitude": 21.15698, "longitude": 86.2005, "facility_type_standardized": "phc", "snapped_lon": 86.199882, "snapped_lat": 21.158352 }, "geometry": { "type": "Point", "coordinates": [ 86.199882, 21.158352 ] } },
{ "type": "Feature", "properties": { "Statename": "Odisha", "Districtname": "Kendujhar", "Subdistrictname": "Ghasipura", "Blockname": "Ghasipura", "Healthblockname": "Ghasipura", "Healthfacilitytype": "primary health centre", "Facilityname": "Deogaon", "NIN": 4311635512, "latitude": 21.16208, "longitude": 86.05002, "facility_type_standardized": "phc", "snapped_lon": 86.052419, "snapped_lat": 21.163209 }, "geometry": { "type": "Point", "coordinates": [ 86.052419, 21.163209 ] } },
{ "type": "Feature", "properties": { "Statename": "Odisha", "Districtname": "Kendujhar", "Subdistrictname": "Telkoi", "Blockname": "Telkoi", "Healthblockname": "Telkoi", "Healthfacilitytype": "primary health centre", "Facilityname": "Raisuan", "NIN": 1388858613, "latitude": 21.16389, "longitude": 85.50448, "facility_type_standardized": "phc", "snapped_lon": 85.482409, "snapped_lat": 21.111276 }, "geometry": { "type": "Point", "coordinates": [ 85.482409, 21.111276 ] } },
{ "type": "Feature", "properties": { "Statename": "Odisha", "Districtname": "Kendujhar", "Subdistrictname": "Ghasipura", "Blockname": "Anandapur", "Healthblockname": "Anandapur", "Healthfacilitytype": "primary health centre", "Facilityname": "Panchupalli", "NIN": 4445138821, "latitude": 21.17278, "longitude": 86.17315, "facility_type_standardized": "phc", "snapped_lon": 86.174945, "snapped_lat": 21.166489 }, "geometry": { "type": "Point", "coordinates": [ 86.174945, 21.166489 ] } },
{ "type": "Feature", "properties": { "Statename": "Odisha", "Districtname": "Kendujhar", "Subdistrictname": "Ghasipura", "Blockname": "Ghasipura", "Healthblockname": "Ghasipura", "Healthfacilitytype": "primary health centre", "Facilityname": "Bhandaridiha", "NIN": 8162212610, "latitude": 21.2048, "longitude": 86.0197, "facility_type_standardized": "phc", "snapped_lon": 86.009318, "snapped_lat": 21.222561 }, "geometry": { "type": "Point", "coordinates": [ 86.009318, 21.222561 ] } },
{ "type": "Feature", "properties": { "Statename": "Odisha", "Districtname": "Kendujhar", "Subdistrictname": "Anandapur", "Blockname": "Anandapur", "Healthblockname": "Anandapur", "Healthfacilitytype": "primary health centre", "Facilityname": "Anandapur", "NIN": 1578783753, "latitude": 21.2058, "longitude": 86.14752, "facility_type_standardized": "phc", "snapped_lon": 86.140041, "snapped_lat": 21.209763 }, "geometry": { "type": "Point", "coordinates": [ 86.140041, 21.209763 ] } },
{ "type": "Feature", "properties": { "Statename": "Odisha", "Districtname": "Kendujhar", "Subdistrictname": "Nandipada", "Blockname": "Hatadihi", "Healthblockname": "Hatadihi", "Healthfacilitytype": "primary health centre", "Facilityname": "Sundarpal", "NIN": 1535576159, "latitude": 21.2077, "longitude": 86.27258, "facility_type_standardized": "phc", "snapped_lon": 86.270017, "snapped_lat": 21.208983 }, "geometry": { "type": "Point", "coordinates": [ 86.270017, 21.208983 ] } },
{ "type": "Feature", "properties": { "Statename": "Odisha", "Districtname": "Kendujhar", "Subdistrictname": "Soso", "Blockname": "Hatadihi", "Healthblockname": "Hatadihi", "Healthfacilitytype": "primary health centre", "Facilityname": "Soso", "NIN": 7217112320, "latitude": 21.21222, "longitude": 86.33052, "facility_type_standardized": "phc", "snapped_lon": 86.336172, "snapped_lat": 21.219566 }, "geometry": { "type": "Point", "coordinates": [ 86.336172, 21.219566 ] } },
{ "type": "Feature", "properties": { "Statename": "Odisha", "Districtname": "Kendujhar", "Subdistrictname": "Ghasipura", "Blockname": "Ghasipura", "Healthblockname": "Ghasipura", "Healthfacilitytype": "primary health centre", "Facilityname": "Nipania", "NIN": 3612542120, "latitude": 21.21331, "longitude": 86.04395, "facility_type_standardized": "phc", "snapped_lon": 86.070784, "snapped_lat": 21.22561 }, "geometry": { "type": "Point", "coordinates": [ 86.070784, 21.22561 ] } },
{ "type": "Feature", "properties": { "Statename": "Odisha", "Districtname": "Kendujhar", "Subdistrictname": "Nandipada", "Blockname": "Anandapur", "Healthblockname": "Anandapur", "Healthfacilitytype": "primary health centre", "Facilityname": "Tartara", "NIN": 7777432175, "latitude": 21.21574, "longitude": 86.20277, "facility_type_standardized": "phc", "snapped_lon": 86.207165, "snapped_lat": 21.219654 }, "geometry": { "type": "Point", "coordinates": [ 86.207165, 21.219654 ] } },
{ "type": "Feature", "properties": { "Statename": "Odisha", "Districtname": "Kendujhar", "Subdistrictname": "Anandapur", "Blockname": "Anandapur", "Healthblockname": "Anandapur", "Healthfacilitytype": "primary health centre", "Facilityname": "Salabani", "NIN": 3344871334, "latitude": 21.2222, "longitude": 86.16753, "facility_type_standardized": "phc", "snapped_lon": 86.167735, "snapped_lat": 21.228451 }, "geometry": { "type": "Point", "coordinates": [ 86.167735, 21.228451 ] } },
{ "type": "Feature", "properties": { "Statename": "Odisha", "Districtname": "Kendujhar", "Subdistrictname": "Telkoi", "Blockname": "Telkoi", "Healthblockname": "Telkoi", "Healthfacilitytype": "primary health centre", "Facilityname": "Krushnapur", "NIN": 7417277824, "latitude": 21.2501, "longitude": 85.48212, "facility_type_standardized": "phc", "snapped_lon": 85.438544, "snapped_lat": 21.316817 }, "geometry": { "type": "Point", "coordinates": [ 85.438544, 21.316817 ] } },
{ "type": "Feature", "properties": { "Statename": "Odisha", "Districtname": "Kendujhar", "Subdistrictname": "Telkoi", "Blockname": "Telkoi", "Healthblockname": "Telkoi", "Healthfacilitytype": "primary health centre", "Facilityname": "Karadangi", "NIN": 1111382758, "latitude": 21.28439, "longitude": 85.33138, "facility_type_standardized": "phc", "snapped_lon": 85.406559, "snapped_lat": 21.334001 }, "geometry": { "type": "Point", "coordinates": [ 85.406559, 21.334001 ] } },
{ "type": "Feature", "properties": { "Statename": "Odisha", "Districtname": "Kendujhar", "Subdistrictname": "Ghasipura", "Blockname": "Anandapur", "Healthblockname": "Anandapur", "Healthfacilitytype": "primary health centre", "Facilityname": "Dhakotha", "NIN": 7341453848, "latitude": 21.29999, "longitude": 86.06817, "facility_type_standardized": "phc", "snapped_lon": 86.070061, "snapped_lat": 21.301981 }, "geometry": { "type": "Point", "coordinates": [ 86.070061, 21.301981 ] } },
{ "type": "Feature", "properties": { "Statename": "Odisha", "Districtname": "Kendujhar", "Subdistrictname": "Daitari", "Blockname": "Harichadanpur", "Healthblockname": "Harichandapur", "Healthfacilitytype": "primary health centre", "Facilityname": "Rebenapalaspal", "NIN": 6162115734, "latitude": 21.31214, "longitude": 85.69865, "facility_type_standardized": "phc", "snapped_lon": 85.748388, "snapped_lat": 21.374337 }, "geometry": { "type": "Point", "coordinates": [ 85.748388, 21.374337 ] } },
{ "type": "Feature", "properties": { "Statename": "Odisha", "Districtname": "Kendujhar", "Subdistrictname": "Harichandanpur", "Blockname": "Harichadanpur", "Healthblockname": "Harichandapur", "Healthfacilitytype": "primary health centre", "Facilityname": "Pithagola", "NIN": 3727345476, "latitude": 21.3132, "longitude": 85.63322, "facility_type_standardized": "phc", "snapped_lon": 85.618279, "snapped_lat": 21.400056 }, "geometry": { "type": "Point", "coordinates": [ 85.618279, 21.400056 ] } },
{ "type": "Feature", "properties": { "Statename": "Odisha", "Districtname": "Kendujhar", "Subdistrictname": "Harichandanpur", "Blockname": "Harichadanpur", "Healthblockname": "Harichandapur", "Healthfacilitytype": "primary health centre", "Facilityname": "Kalapat", "NIN": 4823462645, "latitude": 21.34845, "longitude": 85.67309, "facility_type_standardized": "phc", "snapped_lon": 85.668222, "snapped_lat": 21.395232 }, "geometry": { "type": "Point", "coordinates": [ 85.668222, 21.395232 ] } },
{ "type": "Feature", "properties": { "Statename": "Odisha", "Districtname": "Kendujhar", "Subdistrictname": "Pandapara", "Blockname": "Harichadanpur", "Healthblockname": "Harichandapur", "Healthfacilitytype": "primary health centre", "Facilityname": "Janghira", "NIN": 6374375431, "latitude": 21.42715, "longitude": 85.61789, "facility_type_standardized": "phc", "snapped_lon": 85.61697, "snapped_lat": 21.427304 }, "geometry": { "type": "Point", "coordinates": [ 85.61697, 21.427304 ] } },
{ "type": "Feature", "properties": { "Statename": "Odisha", "Districtname": "Kendujhar", "Subdistrictname": "Telkoi", "Blockname": "Telkoi", "Healthblockname": "Telkoi", "Healthfacilitytype": "primary health centre", "Facilityname": "Jagamohanpur", "NIN": 1176771119, "latitude": 21.43774, "longitude": 85.32244, "facility_type_standardized": "phc", "snapped_lon": 85.323315, "snapped_lat": 21.428552 }, "geometry": { "type": "Point", "coordinates": [ 85.323315, 21.428552 ] } },
{ "type": "Feature", "properties": { "Statename": "Odisha", "Districtname": "Kendujhar", "Subdistrictname": "Pandapara", "Blockname": "Ghatgaon", "Healthblockname": "Ghatagaon", "Healthfacilitytype": "primary health centre", "Facilityname": "Pandapada", "NIN": 8326544585, "latitude": 21.46443, "longitude": 85.69682, "facility_type_standardized": "phc", "snapped_lon": 85.699746, "snapped_lat": 21.462218 }, "geometry": { "type": "Point", "coordinates": [ 85.699746, 21.462218 ] } },
{ "type": "Feature", "properties": { "Statename": "Odisha", "Districtname": "Kendujhar", "Subdistrictname": "Anandapur", "Blockname": "Anandapur", "Healthblockname": "Anandapur", "Healthfacilitytype": "primary health centre", "Facilityname": "Panasadiha", "NIN": 1315412815, "latitude": 21.47659, "longitude": 86.08969, "facility_type_standardized": "phc", "snapped_lon": 86.157693, "snapped_lat": 21.483761 }, "geometry": { "type": "Point", "coordinates": [ 86.157693, 21.483761 ] } },
{ "type": "Feature", "properties": { "Statename": "Odisha", "Districtname": "Kendujhar", "Subdistrictname": "Ghatgaon", "Blockname": "Ghatgaon", "Healthblockname": "Ghatagaon", "Healthfacilitytype": "primary health centre", "Facilityname": "Dhenkikote", "NIN": 4626774451, "latitude": 21.49476, "longitude": 85.83467, "facility_type_standardized": "phc", "snapped_lon": 85.833697, "snapped_lat": 21.487909 }, "geometry": { "type": "Point", "coordinates": [ 85.833697, 21.487909 ] } },
{ "type": "Feature", "properties": { "Statename": "Odisha", "Districtname": "Kendujhar", "Subdistrictname": "Pandapara", "Blockname": "Harichadanpur", "Healthblockname": "Harichandapur", "Healthfacilitytype": "primary health centre", "Facilityname": "Boxibarigaon", "NIN": 1155611849, "latitude": 21.49799, "longitude": 85.65376, "facility_type_standardized": "phc", "snapped_lon": 85.65612, "snapped_lat": 21.497641 }, "geometry": { "type": "Point", "coordinates": [ 85.65612, 21.497641 ] } },
{ "type": "Feature", "properties": { "Statename": "Odisha", "Districtname": "Kendujhar", "Subdistrictname": "Kanjipani", "Blockname": "Bansapal", "Healthblockname": "Bansapal", "Healthfacilitytype": "primary health centre", "Facilityname": "Kanjipani", "NIN": 6145351224, "latitude": 21.50682, "longitude": 85.44149, "facility_type_standardized": "phc", "snapped_lon": 85.465345, "snapped_lat": 21.511246 }, "geometry": { "type": "Point", "coordinates": [ 85.465345, 21.511246 ] } },
{ "type": "Feature", "properties": { "Statename": "Odisha", "Districtname": "Kendujhar", "Subdistrictname": "Ghatgaon", "Blockname": "Ghatgaon", "Healthblockname": "Ghatagaon", "Healthfacilitytype": "primary health centre", "Facilityname": "Jharbeda", "NIN": 1734836289, "latitude": 21.53289, "longitude": 85.73178, "facility_type_standardized": "phc", "snapped_lon": 85.721103, "snapped_lat": 21.562919 }, "geometry": { "type": "Point", "coordinates": [ 85.721103, 21.562919 ] } },
{ "type": "Feature", "properties": { "Statename": "Odisha", "Districtname": "Kendujhar", "Subdistrictname": "Kanjipani", "Blockname": "Bansapal", "Healthblockname": "Bansapal", "Healthfacilitytype": "primary health centre", "Facilityname": "Gonasika", "NIN": 5517683883, "latitude": 21.53819, "longitude": 85.50149, "facility_type_standardized": "phc", "snapped_lon": 85.501932, "snapped_lat": 21.537366 }, "geometry": { "type": "Point", "coordinates": [ 85.501932, 21.537366 ] } },
{ "type": "Feature", "properties": { "Statename": "Odisha", "Districtname": "Kendujhar", "Subdistrictname": "Kanjipani", "Blockname": "Bansapal", "Healthblockname": "Bansapal", "Healthfacilitytype": "primary health centre", "Facilityname": "Suakati", "NIN": 3885368617, "latitude": 21.59084, "longitude": 85.50781, "facility_type_standardized": "phc", "snapped_lon": 85.514058, "snapped_lat": 21.587896 }, "geometry": { "type": "Point", "coordinates": [ 85.514058, 21.587896 ] } },
{ "type": "Feature", "properties": { "Statename": "Odisha", "Districtname": "Kendujhar", "Subdistrictname": "Patana", "Blockname": "Saharapada", "Healthblockname": "Saharpada", "Healthfacilitytype": "primary health centre", "Facilityname": "Golkund", "NIN": 4733266839, "latitude": 21.60758, "longitude": 86.05846, "facility_type_standardized": "phc", "snapped_lon": 86.10189, "snapped_lat": 21.64006 }, "geometry": { "type": "Point", "coordinates": [ 86.10189, 21.64006 ] } },
{ "type": "Feature", "properties": { "Statename": "Odisha", "Districtname": "Kendujhar", "Subdistrictname": "Nayakote", "Blockname": "Bansapal", "Healthblockname": "Bansapal", "Healthfacilitytype": "primary health centre", "Facilityname": "Talajagar", "NIN": 1111381586, "latitude": 21.62769, "longitude": 85.53637, "facility_type_standardized": "phc", "snapped_lon": 85.546118, "snapped_lat": 21.624425 }, "geometry": { "type": "Point", "coordinates": [ 85.546118, 21.624425 ] } },
{ "type": "Feature", "properties": { "Statename": "Odisha", "Districtname": "Kendujhar", "Subdistrictname": "Patana", "Blockname": "Saharapada", "Healthblockname": "Saharpada", "Healthfacilitytype": "primary health centre", "Facilityname": "Raidiha", "NIN": 4637427271, "latitude": 21.65181, "longitude": 85.99483, "facility_type_standardized": "phc", "snapped_lon": 85.938524, "snapped_lat": 21.677002 }, "geometry": { "type": "Point", "coordinates": [ 85.938524, 21.677002 ] } },
{ "type": "Feature", "properties": { "Statename": "Odisha", "Districtname": "Kendujhar", "Subdistrictname": "Kendujhar Sadar", "Blockname": "Kendujhar Sadar", "Healthblockname": "Keonjhar", "Healthfacilitytype": "primary health centre", "Facilityname": "Maidankel", "NIN": 1111373815, "latitude": 21.65839, "longitude": 85.7197, "facility_type_standardized": "phc", "snapped_lon": 85.718376, "snapped_lat": 21.6642 }, "geometry": { "type": "Point", "coordinates": [ 85.718376, 21.6642 ] } },
{ "type": "Feature", "properties": { "Statename": "Odisha", "Districtname": "Kendujhar", "Subdistrictname": "Kendujhar Town", "Blockname": "Kendujhar Sadar", "Healthblockname": "Keonjhar", "Healthfacilitytype": "primary health centre", "Facilityname": "Raisuan", "NIN": 1111374144, "latitude": 21.67616, "longitude": 85.59123, "facility_type_standardized": "phc", "snapped_lon": 85.583023, "snapped_lat": 21.678352 }, "geometry": { "type": "Point", "coordinates": [ 85.583023, 21.678352 ] } },
{ "type": "Feature", "properties": { "Statename": "Odisha", "Districtname": "Kendujhar", "Subdistrictname": "Turumunga", "Blockname": "Patana", "Healthblockname": "Patana", "Healthfacilitytype": "primary health centre", "Facilityname": "Kendeiposi", "NIN": 4473763417, "latitude": 21.68318, "longitude": 85.79348, "facility_type_standardized": "phc", "snapped_lon": 85.797309, "snapped_lat": 21.682933 }, "geometry": { "type": "Point", "coordinates": [ 85.797309, 21.682933 ] } },
{ "type": "Feature", "properties": { "Statename": "Odisha", "Districtname": "Kendujhar", "Subdistrictname": "Kendujhar Sadar", "Blockname": "Kendujhar Sadar", "Healthblockname": "Keonjhar", "Healthfacilitytype": "primary health centre", "Facilityname": "Bardapal", "NIN": 1111374177, "latitude": 21.69651, "longitude": 85.52531, "facility_type_standardized": "phc", "snapped_lon": 85.531291, "snapped_lat": 21.693796 }, "geometry": { "type": "Point", "coordinates": [ 85.531291, 21.693796 ] } },
{ "type": "Feature", "properties": { "Statename": "Odisha", "Districtname": "Kendujhar", "Subdistrictname": "Nayakote", "Blockname": "Bansapal", "Healthblockname": "Bansapal", "Healthfacilitytype": "primary health centre", "Facilityname": "Kalanda", "NIN": 4427268810, "latitude": 21.70616, "longitude": 85.32259, "facility_type_standardized": "phc", "snapped_lon": 85.289026, "snapped_lat": 21.710706 }, "geometry": { "type": "Point", "coordinates": [ 85.289026, 21.710706 ] } },
{ "type": "Feature", "properties": { "Statename": "Odisha", "Districtname": "Kendujhar", "Subdistrictname": "Turumunga", "Blockname": "Patana", "Healthblockname": "Patana", "Healthfacilitytype": "primary health centre", "Facilityname": "Khireitangiri", "NIN": 6526747446, "latitude": 21.71375, "longitude": 85.70968, "facility_type_standardized": "phc", "snapped_lon": 85.705122, "snapped_lat": 21.712231 }, "geometry": { "type": "Point", "coordinates": [ 85.705122, 21.712231 ] } },
{ "type": "Feature", "properties": { "Statename": "Odisha", "Districtname": "Kendujhar", "Subdistrictname": "Nayakote", "Blockname": "Bansapal", "Healthblockname": "Bansapal", "Healthfacilitytype": "primary health centre", "Facilityname": "Phuljhar", "NIN": 1744473362, "latitude": 21.72039, "longitude": 85.38816, "facility_type_standardized": "phc", "snapped_lon": 85.372425, "snapped_lat": 21.630554 }, "geometry": { "type": "Point", "coordinates": [ 85.372425, 21.630554 ] } },
{ "type": "Feature", "properties": { "Statename": "Odisha", "Districtname": "Kendujhar", "Subdistrictname": "Patana", "Blockname": "Saharapada", "Healthblockname": "Saharpada", "Healthfacilitytype": "primary health centre", "Facilityname": "Saharpada", "NIN": 7848878778, "latitude": 21.72617, "longitude": 85.96227, "facility_type_standardized": "phc", "snapped_lon": 85.961236, "snapped_lat": 21.727239 }, "geometry": { "type": "Point", "coordinates": [ 85.961236, 21.727239 ] } },
{ "type": "Feature", "properties": { "Statename": "Odisha", "Districtname": "Kendujhar", "Subdistrictname": "Kendujhar Sadar", "Blockname": "Kendujhar Sadar", "Healthblockname": "Keonjhar", "Healthfacilitytype": "primary health centre", "Facilityname": "Jodipada", "NIN": 1111374235, "latitude": 21.73741, "longitude": 85.65032, "facility_type_standardized": "phc", "snapped_lon": 85.626768, "snapped_lat": 21.745778 }, "geometry": { "type": "Point", "coordinates": [ 85.626768, 21.745778 ] } },
{ "type": "Feature", "properties": { "Statename": "Odisha", "Districtname": "Kendujhar", "Subdistrictname": "Patana", "Blockname": "Saharapada", "Healthblockname": "Saharpada", "Healthfacilitytype": "primary health centre", "Facilityname": "Baikala", "NIN": 6248441344, "latitude": 21.75943, "longitude": 85.90054, "facility_type_standardized": "phc", "snapped_lon": 85.898366, "snapped_lat": 21.760221 }, "geometry": { "type": "Point", "coordinates": [ 85.898366, 21.760221 ] } },
{ "type": "Feature", "properties": { "Statename": "Odisha", "Districtname": "Kendujhar", "Subdistrictname": "Turumunga", "Blockname": "Patana", "Healthblockname": "Patana", "Healthfacilitytype": "primary health centre", "Facilityname": "Raj Nagar", "NIN": 8543451481, "latitude": 21.76202, "longitude": 85.81068, "facility_type_standardized": "phc", "snapped_lon": 85.818176, "snapped_lat": 21.764121 }, "geometry": { "type": "Point", "coordinates": [ 85.818176, 21.764121 ] } },
{ "type": "Feature", "properties": { "Statename": "Odisha", "Districtname": "Kendujhar", "Subdistrictname": "Kendujhar Sadar", "Blockname": "Kendujhar Sadar", "Healthblockname": "Keonjhar", "Healthfacilitytype": "primary health centre", "Facilityname": "Jagannathpur", "NIN": 1111373757, "latitude": 21.7626, "longitude": 85.53893, "facility_type_standardized": "phc", "snapped_lon": 85.55369, "snapped_lat": 21.782403 }, "geometry": { "type": "Point", "coordinates": [ 85.55369, 21.782403 ] } },
{ "type": "Feature", "properties": { "Statename": "Odisha", "Districtname": "Kendujhar", "Subdistrictname": "Turumunga", "Blockname": "Patana", "Healthblockname": "Patana", "Healthfacilitytype": "primary health centre", "Facilityname": "Turmunga", "NIN": 8314185789, "latitude": 21.79168, "longitude": 85.80699, "facility_type_standardized": "phc", "snapped_lon": 85.815808, "snapped_lat": 21.790566 }, "geometry": { "type": "Point", "coordinates": [ 85.815808, 21.790566 ] } },
{ "type": "Feature", "properties": { "Statename": "Odisha", "Districtname": "Kendujhar", "Subdistrictname": "Bamebari", "Blockname": "Jhumpura", "Healthblockname": "Jhumpura", "Healthfacilitytype": "primary health centre", "Facilityname": "Malda", "NIN": 2154688770, "latitude": 21.82336, "longitude": 85.46049, "facility_type_standardized": "phc", "snapped_lon": 85.465691, "snapped_lat": 21.827026 }, "geometry": { "type": "Point", "coordinates": [ 85.465691, 21.827026 ] } },
{ "type": "Feature", "properties": { "Statename": "Odisha", "Districtname": "Kendujhar", "Subdistrictname": "Bamebari", "Blockname": "Joda", "Healthblockname": "Joda", "Healthfacilitytype": "primary health centre", "Facilityname": "Kalimati", "NIN": 1111374532, "latitude": 21.8662, "longitude": 85.40941, "facility_type_standardized": "phc", "snapped_lon": 85.407028, "snapped_lat": 21.863859 }, "geometry": { "type": "Point", "coordinates": [ 85.407028, 21.863859 ] } },
{ "type": "Feature", "properties": { "Statename": "Odisha", "Districtname": "Kendujhar", "Subdistrictname": "Baria", "Blockname": "Champua", "Healthblockname": "Champua", "Healthfacilitytype": "primary health centre", "Facilityname": "Bhuinpur", "NIN": 3653862874, "latitude": 21.88102, "longitude": 85.71565, "facility_type_standardized": "phc", "snapped_lon": 85.713224, "snapped_lat": 21.882051 }, "geometry": { "type": "Point", "coordinates": [ 85.713224, 21.882051 ] } },
{ "type": "Feature", "properties": { "Statename": "Odisha", "Districtname": "Kendujhar", "Subdistrictname": "Baria", "Blockname": "Jhumpura", "Healthblockname": "Jhumpura", "Healthfacilitytype": "primary health centre", "Facilityname": "Asanpat", "NIN": 3317847246, "latitude": 21.88744, "longitude": 85.65906, "facility_type_standardized": "phc", "snapped_lon": 85.65853, "snapped_lat": 21.889821 }, "geometry": { "type": "Point", "coordinates": [ 85.65853, 21.889821 ] } },
{ "type": "Feature", "properties": { "Statename": "Odisha", "Districtname": "Kendujhar", "Subdistrictname": "Baria", "Blockname": "Champua", "Healthblockname": "Champua", "Healthfacilitytype": "primary health centre", "Facilityname": "Jyotipur", "NIN": 1722123534, "latitude": 21.89069, "longitude": 85.79083, "facility_type_standardized": "phc", "snapped_lon": 85.789838, "snapped_lat": 21.887599 }, "geometry": { "type": "Point", "coordinates": [ 85.789838, 21.887599 ] } },
{ "type": "Feature", "properties": { "Statename": "Odisha", "Districtname": "Kendujhar", "Subdistrictname": "Champua", "Blockname": "Champua", "Healthblockname": "Champua", "Healthfacilitytype": "primary health centre", "Facilityname": "Remuli", "NIN": 4682646452, "latitude": 21.96086, "longitude": 85.60659, "facility_type_standardized": "phc", "snapped_lon": 85.614558, "snapped_lat": 21.964104 }, "geometry": { "type": "Point", "coordinates": [ 85.614558, 21.964104 ] } },
{ "type": "Feature", "properties": { "Statename": "Odisha", "Districtname": "Kendujhar", "Subdistrictname": "Champua", "Blockname": "Champua", "Healthblockname": "Champua", "Healthfacilitytype": "primary health centre", "Facilityname": "Karanjia", "NIN": 7222678869, "latitude": 21.96206, "longitude": 85.67895, "facility_type_standardized": "phc", "snapped_lon": 85.678763, "snapped_lat": 21.963574 }, "geometry": { "type": "Point", "coordinates": [ 85.678763, 21.963574 ] } },
{ "type": "Feature", "properties": { "Statename": "Odisha", "Districtname": "Kendujhar", "Subdistrictname": "Jhumpura", "Blockname": "Jhumpura", "Healthblockname": "Jhumpura", "Healthfacilitytype": "primary health centre", "Facilityname": "Jamdapal", "NIN": 8871367267, "latitude": 21.96418, "longitude": 85.5583, "facility_type_standardized": "phc", "snapped_lon": 85.571424, "snapped_lat": 21.983949 }, "geometry": { "type": "Point", "coordinates": [ 85.571424, 21.983949 ] } },
{ "type": "Feature", "properties": { "Statename": "Odisha", "Districtname": "Kendujhar", "Subdistrictname": "Rugudi", "Blockname": "Joda", "Healthblockname": "Joda", "Healthfacilitytype": "primary health centre", "Facilityname": "Guali", "NIN": 1111373724, "latitude": 21.97698, "longitude": 85.29529, "facility_type_standardized": "phc", "snapped_lon": 85.293049, "snapped_lat": 21.981409 }, "geometry": { "type": "Point", "coordinates": [ 85.293049, 21.981409 ] } },
{ "type": "Feature", "properties": { "Statename": "Odisha", "Districtname": "Kendujhar", "Subdistrictname": "Champua", "Blockname": "Champua", "Healthblockname": "Champua", "Healthfacilitytype": "primary health centre", "Facilityname": "Kalikaprasad", "NIN": 7127211410, "latitude": 21.98556, "longitude": 85.61848, "facility_type_standardized": "phc", "snapped_lon": 85.615691, "snapped_lat": 21.986568 }, "geometry": { "type": "Point", "coordinates": [ 85.615691, 21.986568 ] } },
{ "type": "Feature", "properties": { "Statename": "Odisha", "Districtname": "Kendujhar", "Subdistrictname": "Champua", "Blockname": "Champua", "Healthblockname": "Champua", "Healthfacilitytype": "primary health centre", "Facilityname": "Chimila", "NIN": 4216384836, "latitude": 22.04731, "longitude": 85.57514, "facility_type_standardized": "phc", "snapped_lon": 85.577971, "snapped_lat": 22.0423 }, "geometry": { "type": "Point", "coordinates": [ 85.577971, 22.0423 ] } },
{ "type": "Feature", "properties": { "Statename": "Odisha", "Districtname": "Kendujhar", "Subdistrictname": "Anandapur", "Blockname": "Notmapped", "Healthblockname": "Anandapur", "Healthfacilitytype": "sub district hospital", "Facilityname": "Anandpur", "NIN": 6278146839, "latitude": 21.19577, "longitude": 86.16013, "facility_type_standardized": "sdh", "snapped_lon": 86.151368, "snapped_lat": 21.185574 }, "geometry": { "type": "Point", "coordinates": [ 86.151368, 21.185574 ] } },
{ "type": "Feature", "properties": { "Statename": "Odisha", "Districtname": "Kendujhar", "Subdistrictname": "Champua", "Blockname": "Notmapped", "Healthblockname": "Champua", "Healthfacilitytype": "sub district hospital", "Facilityname": "Champua", "NIN": 6448633179, "latitude": 22.06644, "longitude": 85.66402, "facility_type_standardized": "sdh", "snapped_lon": 85.664527, "snapped_lat": 22.068128 }, "geometry": { "type": "Point", "coordinates": [ 85.664527, 22.068128 ] } },
{ "type": "Feature", "properties": { "Statename": "Odisha", "Districtname": "Kendujhar", "Subdistrictname": "Nandipada", "Blockname": "Hatadihi", "Healthblockname": "Hatadihi", "Healthfacilitytype": "health sub centre", "Facilityname": "Gedama", "NIN": 4626745865, "latitude": 21.03846, "longitude": 86.30507, "facility_type_standardized": "hsc", "snapped_lon": 86.300971, "snapped_lat": 21.041003 }, "geometry": { "type": "Point", "coordinates": [ 86.300971, 21.041003 ] } },
{ "type": "Feature", "properties": { "Statename": "Odisha", "Districtname": "Kendujhar", "Subdistrictname": "Sainkul", "Blockname": "Ghasipura", "Healthblockname": "Ghasipura", "Healthfacilitytype": "health sub centre", "Facilityname": "Nandabar", "NIN": 4613856873, "latitude": 21.04003, "longitude": 86.04397, "facility_type_standardized": "hsc", "snapped_lon": 86.048225, "snapped_lat": 21.039097 }, "geometry": { "type": "Point", "coordinates": [ 86.048225, 21.039097 ] } },
{ "type": "Feature", "properties": { "Statename": "Odisha", "Districtname": "Kendujhar", "Subdistrictname": "Nandipada", "Blockname": "Hatadihi", "Healthblockname": "Hatadihi", "Healthfacilitytype": "health sub centre", "Facilityname": "Jambhara", "NIN": 2516712656, "latitude": 21.0488, "longitude": 86.24385, "facility_type_standardized": "hsc", "snapped_lon": 86.248835, "snapped_lat": 21.045873 }, "geometry": { "type": "Point", "coordinates": [ 86.248835, 21.045873 ] } },
{ "type": "Feature", "properties": { "Statename": "Odisha", "Districtname": "Kendujhar", "Subdistrictname": "Nandipada", "Blockname": "Hatadihi", "Healthblockname": "Hatadihi", "Healthfacilitytype": "health sub centre", "Facilityname": "Danar", "NIN": 7255112422, "latitude": 21.06302, "longitude": 86.31185, "facility_type_standardized": "hsc", "snapped_lon": 86.300883, "snapped_lat": 21.063592 }, "geometry": { "type": "Point", "coordinates": [ 86.300883, 21.063592 ] } },
{ "type": "Feature", "properties": { "Statename": "Odisha", "Districtname": "Kendujhar", "Subdistrictname": "Sainkul", "Blockname": "Ghasipura", "Healthblockname": "Ghasipura", "Healthfacilitytype": "health sub centre", "Facilityname": "Angurua", "NIN": 2514231147, "latitude": 21.06565, "longitude": 86.0833, "facility_type_standardized": "hsc", "snapped_lon": 86.086106, "snapped_lat": 21.064689 }, "geometry": { "type": "Point", "coordinates": [ 86.086106, 21.064689 ] } },
{ "type": "Feature", "properties": { "Statename": "Odisha", "Districtname": "Kendujhar", "Subdistrictname": "Nandipada", "Blockname": "Hatadihi", "Healthblockname": "Hatadihi", "Healthfacilitytype": "health sub centre", "Facilityname": "Samana", "NIN": 8528677142, "latitude": 21.07276, "longitude": 86.21667, "facility_type_standardized": "hsc", "snapped_lon": 86.210259, "snapped_lat": 21.073981 }, "geometry": { "type": "Point", "coordinates": [ 86.210259, 21.073981 ] } },
{ "type": "Feature", "properties": { "Statename": "Odisha", "Districtname": "Kendujhar", "Subdistrictname": "Sainkul", "Blockname": "Ghasipura", "Healthblockname": "Ghasipura", "Healthfacilitytype": "health sub centre", "Facilityname": "Badapadana", "NIN": 6322612521, "latitude": 21.07514, "longitude": 86.12868, "facility_type_standardized": "hsc", "snapped_lon": 86.110205, "snapped_lat": 21.076899 }, "geometry": { "type": "Point", "coordinates": [ 86.110205, 21.076899 ] } },
{ "type": "Feature", "properties": { "Statename": "Odisha", "Districtname": "Kendujhar", "Subdistrictname": "Sainkul", "Blockname": "Ghasipura", "Healthblockname": "Ghasipura", "Healthfacilitytype": "health sub centre", "Facilityname": "Saladei", "NIN": 4436814240, "latitude": 21.07674, "longitude": 86.19798, "facility_type_standardized": "hsc", "snapped_lon": 86.210259, "snapped_lat": 21.073981 }, "geometry": { "type": "Point", "coordinates": [ 86.210259, 21.073981 ] } },
{ "type": "Feature", "properties": { "Statename": "Odisha", "Districtname": "Kendujhar", "Subdistrictname": "Sainkul", "Blockname": "Ghasipura", "Healthblockname": "Ghasipura", "Healthfacilitytype": "health sub centre", "Facilityname": "Alati", "NIN": 6616674849, "latitude": 21.07796, "longitude": 86.07525, "facility_type_standardized": "hsc", "snapped_lon": 86.086224, "snapped_lat": 21.064809 }, "geometry": { "type": "Point", "coordinates": [ 86.086224, 21.064809 ] } },
{ "type": "Feature", "properties": { "Statename": "Odisha", "Districtname": "Kendujhar", "Subdistrictname": "Sainkul", "Blockname": "Ghasipura", "Healthblockname": "Ghasipura", "Healthfacilitytype": "health sub centre", "Facilityname": "Taruan", "NIN": 7334817637, "latitude": 21.07915, "longitude": 86.15467, "facility_type_standardized": "hsc", "snapped_lon": 86.155677, "snapped_lat": 21.076795 }, "geometry": { "type": "Point", "coordinates": [ 86.155677, 21.076795 ] } },
{ "type": "Feature", "properties": { "Statename": "Odisha", "Districtname": "Kendujhar", "Subdistrictname": "Nandipada", "Blockname": "Hatadihi", "Healthblockname": "Hatadihi", "Healthfacilitytype": "health sub centre", "Facilityname": "Salania", "NIN": 6854755839, "latitude": 21.08009, "longitude": 86.28641, "facility_type_standardized": "hsc", "snapped_lon": 86.283923, "snapped_lat": 21.071191 }, "geometry": { "type": "Point", "coordinates": [ 86.283923, 21.071191 ] } },
{ "type": "Feature", "properties": { "Statename": "Odisha", "Districtname": "Kendujhar", "Subdistrictname": "Sainkul", "Blockname": "Ghasipura", "Healthblockname": "Ghasipura", "Healthfacilitytype": "health sub centre", "Facilityname": "Godabandhagoda", "NIN": 1348764455, "latitude": 21.08253, "longitude": 86.0537, "facility_type_standardized": "hsc", "snapped_lon": 86.060877, "snapped_lat": 21.058599 }, "geometry": { "type": "Point", "coordinates": [ 86.060877, 21.058599 ] } },
{ "type": "Feature", "properties": { "Statename": "Odisha", "Districtname": "Kendujhar", "Subdistrictname": "Nandipada", "Blockname": "Hatadihi", "Healthblockname": "Hatadihi", "Healthfacilitytype": "health sub centre", "Facilityname": "Ambo", "NIN": 8645776140, "latitude": 21.08404, "longitude": 86.26232, "facility_type_standardized": "hsc", "snapped_lon": 86.262024, "snapped_lat": 21.081767 }, "geometry": { "type": "Point", "coordinates": [ 86.262024, 21.081767 ] } },
{ "type": "Feature", "properties": { "Statename": "Odisha", "Districtname": "Kendujhar", "Subdistrictname": "Nandipada", "Blockname": "Hatadihi", "Healthblockname": "Hatadihi", "Healthfacilitytype": "health sub centre", "Facilityname": "Girigaon", "NIN": 2487462455, "latitude": 21.09613, "longitude": 86.20468, "facility_type_standardized": "hsc", "snapped_lon": 86.201086, "snapped_lat": 21.095714 }, "geometry": { "type": "Point", "coordinates": [ 86.201086, 21.095714 ] } },
{ "type": "Feature", "properties": { "Statename": "Odisha", "Districtname": "Kendujhar", "Subdistrictname": "Nandipada", "Blockname": "Hatadihi", "Healthblockname": "Hatadihi", "Healthfacilitytype": "health sub centre", "Facilityname": "Kaligaon", "NIN": 4334527688, "latitude": 21.10396, "longitude": 86.28842, "facility_type_standardized": "hsc", "snapped_lon": 86.298087, "snapped_lat": 21.116185 }, "geometry": { "type": "Point", "coordinates": [ 86.298087, 21.116185 ] } },
{ "type": "Feature", "properties": { "Statename": "Odisha", "Districtname": "Kendujhar", "Subdistrictname": "Sainkul", "Blockname": "Ghasipura", "Healthblockname": "Ghasipura", "Healthfacilitytype": "health sub centre", "Facilityname": "Atta", "NIN": 7756164849, "latitude": 21.10553, "longitude": 86.19023, "facility_type_standardized": "hsc", "snapped_lon": 86.181753, "snapped_lat": 21.10949 }, "geometry": { "type": "Point", "coordinates": [ 86.181753, 21.10949 ] } },
{ "type": "Feature", "properties": { "Statename": "Odisha", "Districtname": "Kendujhar", "Subdistrictname": "Daitari", "Blockname": "Harichadanpur", "Healthblockname": "Harichandapur", "Healthfacilitytype": "health sub centre", "Facilityname": "Daitari B", "NIN": 5135585213, "latitude": 21.11404, "longitude": 85.83293, "facility_type_standardized": "hsc", "snapped_lon": 85.844134, "snapped_lat": 21.117959 }, "geometry": { "type": "Point", "coordinates": [ 85.844134, 21.117959 ] } },
{ "type": "Feature", "properties": { "Statename": "Odisha", "Districtname": "Kendujhar", "Subdistrictname": "Nayakote", "Blockname": "Bansapal", "Healthblockname": "Bansapal", "Healthfacilitytype": "health sub centre", "Facilityname": "Raigoda", "NIN": 2615116858, "latitude": 21.1161, "longitude": 86.23063, "facility_type_standardized": "hsc", "snapped_lon": 86.230112, "snapped_lat": 21.120725 }, "geometry": { "type": "Point", "coordinates": [ 86.230112, 21.120725 ] } },
{ "type": "Feature", "properties": { "Statename": "Odisha", "Districtname": "Kendujhar", "Subdistrictname": "Daitari", "Blockname": "Harichadanpur", "Healthblockname": "Harichandapur", "Healthfacilitytype": "health sub centre", "Facilityname": "Baliparbata", "NIN": 8267438136, "latitude": 21.12069, "longitude": 85.84807, "facility_type_standardized": "hsc", "snapped_lon": 85.852334, "snapped_lat": 21.12206 }, "geometry": { "type": "Point", "coordinates": [ 85.852334, 21.12206 ] } },
{ "type": "Feature", "properties": { "Statename": "Odisha", "Districtname": "Kendujhar", "Subdistrictname": "Daitari", "Blockname": "Harichadanpur", "Healthblockname": "Harichandapur", "Healthfacilitytype": "health sub centre", "Facilityname": "Brhamanipal", "NIN": 2778554762, "latitude": 21.121, "longitude": 85.9248, "facility_type_standardized": "hsc", "snapped_lon": 85.924037, "snapped_lat": 21.122849 }, "geometry": { "type": "Point", "coordinates": [ 85.924037, 21.122849 ] } },
{ "type": "Feature", "properties": { "Statename": "Odisha", "Districtname": "Kendujhar", "Subdistrictname": "Daitari", "Blockname": "Harichadanpur", "Healthblockname": "Harichandapur", "Healthfacilitytype": "health sub centre", "Facilityname": "Daitari A", "NIN": 7151741159, "latitude": 21.12646, "longitude": 85.8129, "facility_type_standardized": "hsc", "snapped_lon": 85.8069, "snapped_lat": 21.122093 }, "geometry": { "type": "Point", "coordinates": [ 85.8069, 21.122093 ] } },
{ "type": "Feature", "properties": { "Statename": "Odisha", "Districtname": "Kendujhar", "Subdistrictname": "Nandipada", "Blockname": "Hatadihi", "Healthblockname": "Hatadihi", "Healthfacilitytype": "health sub centre", "Facilityname": "Orali", "NIN": 7568386234, "latitude": 21.12717, "longitude": 86.27988, "facility_type_standardized": "hsc", "snapped_lon": 86.27864, "snapped_lat": 21.127874 }, "geometry": { "type": "Point", "coordinates": [ 86.27864, 21.127874 ] } },
{ "type": "Feature", "properties": { "Statename": "Odisha", "Districtname": "Kendujhar", "Subdistrictname": "Sainkul", "Blockname": "Ghasipura", "Healthblockname": "Ghasipura", "Healthfacilitytype": "health sub centre", "Facilityname": "Batto", "NIN": 1835867761, "latitude": 21.13026, "longitude": 86.18616, "facility_type_standardized": "hsc", "snapped_lon": 86.187174, "snapped_lat": 21.129392 }, "geometry": { "type": "Point", "coordinates": [ 86.187174, 21.129392 ] } },
{ "type": "Feature", "properties": { "Statename": "Odisha", "Districtname": "Kendujhar", "Subdistrictname": "Sainkul", "Blockname": "Ghasipura", "Healthblockname": "Ghasipura", "Healthfacilitytype": "health sub centre", "Facilityname": "Machhlo", "NIN": 3362863387, "latitude": 21.13246, "longitude": 86.13222, "facility_type_standardized": "hsc", "snapped_lon": 86.134511, "snapped_lat": 21.119742 }, "geometry": { "type": "Point", "coordinates": [ 86.134511, 21.119742 ] } },
{ "type": "Feature", "properties": { "Statename": "Odisha", "Districtname": "Kendujhar", "Subdistrictname": "Sainkul", "Blockname": "Ghasipura", "Healthblockname": "Ghasipura", "Healthfacilitytype": "health sub centre", "Facilityname": "Madanpur", "NIN": 8221125266, "latitude": 21.1395, "longitude": 86.09327, "facility_type_standardized": "hsc", "snapped_lon": 86.096378, "snapped_lat": 21.123174 }, "geometry": { "type": "Point", "coordinates": [ 86.096378, 21.123174 ] } },
{ "type": "Feature", "properties": { "Statename": "Odisha", "Districtname": "Kendujhar", "Subdistrictname": "Nandipada", "Blockname": "Hatadihi", "Healthblockname": "Hatadihi", "Healthfacilitytype": "health sub centre", "Facilityname": "Rampas", "NIN": 5542887541, "latitude": 21.14455, "longitude": 86.24048, "facility_type_standardized": "hsc", "snapped_lon": 86.23759, "snapped_lat": 21.141371 }, "geometry": { "type": "Point", "coordinates": [ 86.23759, 21.141371 ] } },
{ "type": "Feature", "properties": { "Statename": "Odisha", "Districtname": "Kendujhar", "Subdistrictname": "Anandapur", "Blockname": "Ghasipura", "Healthblockname": "Ghasipura", "Healthfacilitytype": "health sub centre", "Facilityname": "Khalpal", "NIN": 5364754381, "latitude": 21.14848, "longitude": 85.9661, "facility_type_standardized": "hsc", "snapped_lon": 85.968235, "snapped_lat": 21.148358 }, "geometry": { "type": "Point", "coordinates": [ 85.968235, 21.148358 ] } },
{ "type": "Feature", "properties": { "Statename": "Odisha", "Districtname": "Kendujhar", "Subdistrictname": "Sainkul", "Blockname": "Ghasipura", "Healthblockname": "Ghasipura", "Healthfacilitytype": "health sub centre", "Facilityname": "Daridipal", "NIN": 7872278168, "latitude": 21.15049, "longitude": 86.00963, "facility_type_standardized": "hsc", "snapped_lon": 86.002039, "snapped_lat": 21.160809 }, "geometry": { "type": "Point", "coordinates": [ 86.002039, 21.160809 ] } },
{ "type": "Feature", "properties": { "Statename": "Odisha", "Districtname": "Kendujhar", "Subdistrictname": "Nandipada", "Blockname": "Hatadihi", "Healthblockname": "Hatadihi", "Healthfacilitytype": "health sub centre", "Facilityname": "Jasobantpur", "NIN": 4778247215, "latitude": 21.15676, "longitude": 86.20475, "facility_type_standardized": "hsc", "snapped_lon": 86.199882, "snapped_lat": 21.158352 }, "geometry": { "type": "Point", "coordinates": [ 86.199882, 21.158352 ] } },
{ "type": "Feature", "properties": { "Statename": "Odisha", "Districtname": "Kendujhar", "Subdistrictname": "Anandapur", "Blockname": "Anandapur", "Healthblockname": "Anandapur", "Healthfacilitytype": "health sub centre", "Facilityname": "Tolankpada", "NIN": 7862138349, "latitude": 21.15979, "longitude": 86.13659, "facility_type_standardized": "hsc", "snapped_lon": 86.135999, "snapped_lat": 21.157538 }, "geometry": { "type": "Point", "coordinates": [ 86.135999, 21.157538 ] } },
{ "type": "Feature", "properties": { "Statename": "Odisha", "Districtname": "Kendujhar", "Subdistrictname": "Daitari", "Blockname": "Harichadanpur", "Healthblockname": "Harichandapur", "Healthfacilitytype": "health sub centre", "Facilityname": "Rebenapalaspal", "NIN": 4418244184, "latitude": 21.15987, "longitude": 85.78926, "facility_type_standardized": "hsc", "snapped_lon": 85.782841, "snapped_lat": 21.158882 }, "geometry": { "type": "Point", "coordinates": [ 85.782841, 21.158882 ] } },
{ "type": "Feature", "properties": { "Statename": "Odisha", "Districtname": "Kendujhar", "Subdistrictname": "Anandapur", "Blockname": "Ghasipura", "Healthblockname": "Ghasipura", "Healthfacilitytype": "health sub centre", "Facilityname": "Kansa", "NIN": 6487285147, "latitude": 21.16276, "longitude": 85.95183, "facility_type_standardized": "hsc", "snapped_lon": 85.960816, "snapped_lat": 21.158952 }, "geometry": { "type": "Point", "coordinates": [ 85.960816, 21.158952 ] } },
{ "type": "Feature", "properties": { "Statename": "Odisha", "Districtname": "Kendujhar", "Subdistrictname": "Ghasipura", "Blockname": "Ghasipura", "Healthblockname": "Ghasipura", "Healthfacilitytype": "health sub centre", "Facilityname": "Keshudurapal MC", "NIN": 2846347231, "latitude": 21.16436, "longitude": 86.01201, "facility_type_standardized": "hsc", "snapped_lon": 86.003182, "snapped_lat": 21.162633 }, "geometry": { "type": "Point", "coordinates": [ 86.003182, 21.162633 ] } },
{ "type": "Feature", "properties": { "Statename": "Odisha", "Districtname": "Kendujhar", "Subdistrictname": "Telkoi", "Blockname": "Telkoi", "Healthblockname": "Telkoi", "Healthfacilitytype": "health sub centre", "Facilityname": "Raisuan", "NIN": 7754871726, "latitude": 21.16574, "longitude": 85.49926, "facility_type_standardized": "hsc", "snapped_lon": 85.480821, "snapped_lat": 21.111886 }, "geometry": { "type": "Point", "coordinates": [ 85.480821, 21.111886 ] } },
{ "type": "Feature", "properties": { "Statename": "Odisha", "Districtname": "Kendujhar", "Subdistrictname": "Ghasipura", "Blockname": "Ghasipura", "Healthblockname": "Ghasipura", "Healthfacilitytype": "health sub centre", "Facilityname": "Deogaon", "NIN": 6485666850, "latitude": 21.16616, "longitude": 86.05526, "facility_type_standardized": "hsc", "snapped_lon": 86.052419, "snapped_lat": 21.163209 }, "geometry": { "type": "Point", "coordinates": [ 86.052419, 21.163209 ] } },
{ "type": "Feature", "properties": { "Statename": "Odisha", "Districtname": "Kendujhar", "Subdistrictname": "Ghasipura", "Blockname": "Anandapur", "Healthblockname": "Anandapur", "Healthfacilitytype": "health sub centre", "Facilityname": "Panchupalli", "NIN": 3383666348, "latitude": 21.16619, "longitude": 86.17412, "facility_type_standardized": "hsc", "snapped_lon": 86.174945, "snapped_lat": 21.166489 }, "geometry": { "type": "Point", "coordinates": [ 86.174945, 21.166489 ] } },
{ "type": "Feature", "properties": { "Statename": "Odisha", "Districtname": "Kendujhar", "Subdistrictname": "Sainkul", "Blockname": "Anandapur", "Healthblockname": "Anandapur", "Healthfacilitytype": "health sub centre", "Facilityname": "Belabahali", "NIN": 8225525214, "latitude": 21.16664, "longitude": 86.13, "facility_type_standardized": "hsc", "snapped_lon": 86.135999, "snapped_lat": 21.157538 }, "geometry": { "type": "Point", "coordinates": [ 86.135999, 21.157538 ] } },
{ "type": "Feature", "properties": { "Statename": "Odisha", "Districtname": "Kendujhar", "Subdistrictname": "Nandipada", "Blockname": "Hatadihi", "Healthblockname": "Hatadihi", "Healthfacilitytype": "health sub centre", "Facilityname": "Hatadihi", "NIN": 8378462520, "latitude": 21.16853, "longitude": 86.24636, "facility_type_standardized": "hsc", "snapped_lon": 86.243074, "snapped_lat": 21.17155 }, "geometry": { "type": "Point", "coordinates": [ 86.243074, 21.17155 ] } },
{ "type": "Feature", "properties": { "Statename": "Odisha", "Districtname": "Kendujhar", "Subdistrictname": "Nandipada", "Blockname": "Hatadihi", "Healthblockname": "Hatadihi", "Healthfacilitytype": "health sub centre", "Facilityname": "Tentulinanda", "NIN": 4836686131, "latitude": 21.17176, "longitude": 86.27814, "facility_type_standardized": "hsc", "snapped_lon": 86.264683, "snapped_lat": 21.15396 }, "geometry": { "type": "Point", "coordinates": [ 86.264683, 21.15396 ] } },
{ "type": "Feature", "properties": { "Statename": "Odisha", "Districtname": "Kendujhar", "Subdistrictname": "Telkoi", "Blockname": "Telkoi", "Healthblockname": "Telkoi", "Healthfacilitytype": "health sub centre", "Facilityname": "Balabhadrapur", "NIN": 6125665619, "latitude": 21.1792, "longitude": 85.55745, "facility_type_standardized": "hsc", "snapped_lon": 85.599019, "snapped_lat": 21.113649 }, "geometry": { "type": "Point", "coordinates": [ 85.599019, 21.113649 ] } },
{ "type": "Feature", "properties": { "Statename": "Odisha", "Districtname": "Kendujhar", "Subdistrictname": "Daitari", "Blockname": "Harichadanpur", "Healthblockname": "Harichandapur", "Healthfacilitytype": "health sub centre", "Facilityname": "Tangiriapal", "NIN": 7726871341, "latitude": 21.17956, "longitude": 85.92472, "facility_type_standardized": "hsc", "snapped_lon": 85.926565, "snapped_lat": 21.179521 }, "geometry": { "type": "Point", "coordinates": [ 85.926565, 21.179521 ] } },
{ "type": "Feature", "properties": { "Statename": "Odisha", "Districtname": "Kendujhar", "Subdistrictname": "Ghasipura", "Blockname": "Ghasipura", "Healthblockname": "Ghasipura", "Healthfacilitytype": "health sub centre", "Facilityname": "Tarimul", "NIN": 2121317362, "latitude": 21.17958, "longitude": 86.03746, "facility_type_standardized": "hsc", "snapped_lon": 86.032506, "snapped_lat": 21.170707 }, "geometry": { "type": "Point", "coordinates": [ 86.032506, 21.170707 ] } },
{ "type": "Feature", "properties": { "Statename": "Odisha", "Districtname": "Kendujhar", "Subdistrictname": "Ghasipura", "Blockname": "Anandapur", "Healthblockname": "Anandapur", "Healthfacilitytype": "health sub centre", "Facilityname": "Bailo", "NIN": 6871548423, "latitude": 21.18262, "longitude": 86.13064, "facility_type_standardized": "hsc", "snapped_lon": 86.137099, "snapped_lat": 21.180579 }, "geometry": { "type": "Point", "coordinates": [ 86.137099, 21.180579 ] } },
{ "type": "Feature", "properties": { "Statename": "Odisha", "Districtname": "Kendujhar", "Subdistrictname": "Telkoi", "Blockname": "Telkoi", "Healthblockname": "Telkoi", "Healthfacilitytype": "health sub centre", "Facilityname": "Jharbeda", "NIN": 5478723546, "latitude": 21.18738, "longitude": 85.42325, "facility_type_standardized": "hsc", "snapped_lon": 85.454321, "snapped_lat": 21.117992 }, "geometry": { "type": "Point", "coordinates": [ 85.454321, 21.117992 ] } },
{ "type": "Feature", "properties": { "Statename": "Odisha", "Districtname": "Kendujhar", "Subdistrictname": "Ghasipura", "Blockname": "Ghasipura", "Healthblockname": "Ghasipura", "Healthfacilitytype": "health sub centre", "Facilityname": "Balarampur", "NIN": 3444616860, "latitude": 21.18893, "longitude": 86.06568, "facility_type_standardized": "hsc", "snapped_lon": 86.052419, "snapped_lat": 21.163209 }, "geometry": { "type": "Point", "coordinates": [ 86.052419, 21.163209 ] } },
{ "type": "Feature", "properties": { "Statename": "Odisha", "Districtname": "Kendujhar", "Subdistrictname": "Nandipada", "Blockname": "Hatadihi", "Healthblockname": "Hatadihi", "Healthfacilitytype": "health sub centre", "Facilityname": "Cheenapadi", "NIN": 5475151550, "latitude": 21.18996, "longitude": 86.23073, "facility_type_standardized": "hsc", "snapped_lon": 86.232762, "snapped_lat": 21.192105 }, "geometry": { "type": "Point", "coordinates": [ 86.232762, 21.192105 ] } },
{ "type": "Feature", "properties": { "Statename": "Odisha", "Districtname": "Kendujhar", "Subdistrictname": "Nandipada", "Blockname": "Hatadihi", "Healthblockname": "Hatadihi", "Healthfacilitytype": "health sub centre", "Facilityname": "Dadhibamanpur", "NIN": 7725874627, "latitude": 21.19294, "longitude": 86.20416, "facility_type_standardized": "hsc", "snapped_lon": 86.209765, "snapped_lat": 21.191625 }, "geometry": { "type": "Point", "coordinates": [ 86.209765, 21.191625 ] } },
{ "type": "Feature", "properties": { "Statename": "Odisha", "Districtname": "Kendujhar", "Subdistrictname": "Telkoi", "Blockname": "Telkoi", "Healthblockname": "Telkoi", "Healthfacilitytype": "health sub centre", "Facilityname": "Laxminarayanpur", "NIN": 6858813451, "latitude": 21.19375, "longitude": 85.62157, "facility_type_standardized": "hsc", "snapped_lon": 85.621951, "snapped_lat": 21.123393 }, "geometry": { "type": "Point", "coordinates": [ 85.621951, 21.123393 ] } },
{ "type": "Feature", "properties": { "Statename": "Odisha", "Districtname": "Kendujhar", "Subdistrictname": "Daitari", "Blockname": "Harichadanpur", "Healthblockname": "Harichandapur", "Healthfacilitytype": "health sub centre", "Facilityname": "Bareigoda", "NIN": 8388628110, "latitude": 21.19393, "longitude": 85.78035, "facility_type_standardized": "hsc", "snapped_lon": 85.777034, "snapped_lat": 21.193135 }, "geometry": { "type": "Point", "coordinates": [ 85.777034, 21.193135 ] } },
{ "type": "Feature", "properties": { "Statename": "Odisha", "Districtname": "Kendujhar", "Subdistrictname": "Telkoi", "Blockname": "Telkoi", "Healthblockname": "Telkoi", "Healthfacilitytype": "health sub centre", "Facilityname": "Benamunda", "NIN": 4745445272, "latitude": 21.19979, "longitude": 85.56918, "facility_type_standardized": "hsc", "snapped_lon": 85.599617, "snapped_lat": 21.113942 }, "geometry": { "type": "Point", "coordinates": [ 85.599617, 21.113942 ] } },
{ "type": "Feature", "properties": { "Statename": "Odisha", "Districtname": "Kendujhar", "Subdistrictname": "Ghasipura", "Blockname": "Ghasipura", "Healthblockname": "Ghasipura", "Healthfacilitytype": "health sub centre", "Facilityname": "Baripal", "NIN": 8841177812, "latitude": 21.2009, "longitude": 85.98141, "facility_type_standardized": "hsc", "snapped_lon": 86.004206, "snapped_lat": 21.178691 }, "geometry": { "type": "Point", "coordinates": [ 86.004206, 21.178691 ] } },
{ "type": "Feature", "properties": { "Statename": "Odisha", "Districtname": "Kendujhar", "Subdistrictname": "Telkoi", "Blockname": "Telkoi", "Healthblockname": "Telkoi", "Healthfacilitytype": "health sub centre", "Facilityname": "Sinduria", "NIN": 3811271125, "latitude": 21.20171, "longitude": 85.5065, "facility_type_standardized": "hsc", "snapped_lon": 85.479384, "snapped_lat": 21.112347 }, "geometry": { "type": "Point", "coordinates": [ 85.479384, 21.112347 ] } },
{ "type": "Feature", "properties": { "Statename": "Odisha", "Districtname": "Kendujhar", "Subdistrictname": "Ghasipura", "Blockname": "Ghasipura", "Healthblockname": "Ghasipura", "Healthfacilitytype": "health sub centre", "Facilityname": "Bhandaridiha", "NIN": 7674137760, "latitude": 21.20724, "longitude": 86.01674, "facility_type_standardized": "hsc", "snapped_lon": 86.009318, "snapped_lat": 21.222561 }, "geometry": { "type": "Point", "coordinates": [ 86.009318, 21.222561 ] } },
{ "type": "Feature", "properties": { "Statename": "Odisha", "Districtname": "Kendujhar", "Subdistrictname": "Telkoi", "Blockname": "Telkoi", "Healthblockname": "Telkoi", "Healthfacilitytype": "health sub centre", "Facilityname": "Kaliahata", "NIN": 5828742279, "latitude": 21.20984, "longitude": 85.6068, "facility_type_standardized": "hsc", "snapped_lon": 85.621803, "snapped_lat": 21.123368 }, "geometry": { "type": "Point", "coordinates": [ 85.621803, 21.123368 ] } },
{ "type": "Feature", "properties": { "Statename": "Odisha", "Districtname": "Kendujhar", "Subdistrictname": "Ghasipura", "Blockname": "Ghasipura", "Healthblockname": "Ghasipura", "Healthfacilitytype": "health sub centre", "Facilityname": "Khaliamenta", "NIN": 8318587352, "latitude": 21.21389, "longitude": 86.05637, "facility_type_standardized": "hsc", "snapped_lon": 86.070784, "snapped_lat": 21.22561 }, "geometry": { "type": "Point", "coordinates": [ 86.070784, 21.22561 ] } },
{ "type": "Feature", "properties": { "Statename": "Odisha", "Districtname": "Kendujhar", "Subdistrictname": "Soso", "Blockname": "Hatadihi", "Healthblockname": "Hatadihi", "Healthfacilitytype": "health sub centre", "Facilityname": "Sundarpal", "NIN": 1212217739, "latitude": 21.21697, "longitude": 86.26781, "facility_type_standardized": "hsc", "snapped_lon": 86.266948, "snapped_lat": 21.208957 }, "geometry": { "type": "Point", "coordinates": [ 86.266948, 21.208957 ] } },
{ "type": "Feature", "properties": { "Statename": "Odisha", "Districtname": "Kendujhar", "Subdistrictname": "Soso", "Blockname": "Hatadihi", "Healthblockname": "Hatadihi", "Healthfacilitytype": "health sub centre", "Facilityname": "Dhenka", "NIN": 8855626472, "latitude": 21.21721, "longitude": 86.29527, "facility_type_standardized": "hsc", "snapped_lon": 86.296974, "snapped_lat": 21.215295 }, "geometry": { "type": "Point", "coordinates": [ 86.296974, 21.215295 ] } },
{ "type": "Feature", "properties": { "Statename": "Odisha", "Districtname": "Kendujhar", "Subdistrictname": "Nandipada", "Blockname": "Anandapur", "Healthblockname": "Anandapur", "Healthfacilitytype": "health sub centre", "Facilityname": "Tartara", "NIN": 7858584514, "latitude": 21.21825, "longitude": 86.19883, "facility_type_standardized": "hsc", "snapped_lon": 86.196155, "snapped_lat": 21.215617 }, "geometry": { "type": "Point", "coordinates": [ 86.196155, 21.215617 ] } },
{ "type": "Feature", "properties": { "Statename": "Odisha", "Districtname": "Kendujhar", "Subdistrictname": "Daitari", "Blockname": "Harichadanpur", "Healthblockname": "Harichandapur", "Healthfacilitytype": "health sub centre", "Facilityname": "Badapalaspal", "NIN": 1574878235, "latitude": 21.2184, "longitude": 85.78638, "facility_type_standardized": "hsc", "snapped_lon": 85.790925, "snapped_lat": 21.224517 }, "geometry": { "type": "Point", "coordinates": [ 85.790925, 21.224517 ] } },
{ "type": "Feature", "properties": { "Statename": "Odisha", "Districtname": "Kendujhar", "Subdistrictname": "Anandapur", "Blockname": "Anandapur", "Healthblockname": "Anandapur", "Healthfacilitytype": "health sub centre", "Facilityname": "Fakirpur", "NIN": 6468772170, "latitude": 21.21882, "longitude": 86.1225, "facility_type_standardized": "hsc", "snapped_lon": 86.125277, "snapped_lat": 21.229761 }, "geometry": { "type": "Point", "coordinates": [ 86.125277, 21.229761 ] } },
{ "type": "Feature", "properties": { "Statename": "Odisha", "Districtname": "Kendujhar", "Subdistrictname": "Soso", "Blockname": "Hatadihi", "Healthblockname": "Hatadihi", "Healthfacilitytype": "health sub centre", "Facilityname": "Soso", "NIN": 4518864576, "latitude": 21.2206, "longitude": 86.33446, "facility_type_standardized": "hsc", "snapped_lon": 86.336172, "snapped_lat": 21.219566 }, "geometry": { "type": "Point", "coordinates": [ 86.336172, 21.219566 ] } },
{ "type": "Feature", "properties": { "Statename": "Odisha", "Districtname": "Kendujhar", "Subdistrictname": "Anandapur", "Blockname": "Anandapur", "Healthblockname": "Anandapur", "Healthfacilitytype": "health sub centre", "Facilityname": "Salabani", "NIN": 5842617481, "latitude": 21.22172, "longitude": 86.16859, "facility_type_standardized": "hsc", "snapped_lon": 86.172559, "snapped_lat": 21.217954 }, "geometry": { "type": "Point", "coordinates": [ 86.172559, 21.217954 ] } },
{ "type": "Feature", "properties": { "Statename": "Odisha", "Districtname": "Kendujhar", "Subdistrictname": "Telkoi", "Blockname": "Telkoi", "Healthblockname": "Telkoi", "Healthfacilitytype": "health sub centre", "Facilityname": "Sirigida", "NIN": 8474184127, "latitude": 21.22884, "longitude": 85.38684, "facility_type_standardized": "hsc", "snapped_lon": 85.424615, "snapped_lat": 21.3162 }, "geometry": { "type": "Point", "coordinates": [ 85.424615, 21.3162 ] } },
{ "type": "Feature", "properties": { "Statename": "Odisha", "Districtname": "Kendujhar", "Subdistrictname": "Daitari", "Blockname": "Harichadanpur", "Healthblockname": "Harichandapur", "Healthfacilitytype": "health sub centre", "Facilityname": "Gounighasa", "NIN": 7741773456, "latitude": 21.22953, "longitude": 85.86442, "facility_type_standardized": "hsc", "snapped_lon": 85.848203, "snapped_lat": 21.258169 }, "geometry": { "type": "Point", "coordinates": [ 85.848203, 21.258169 ] } },
{ "type": "Feature", "properties": { "Statename": "Odisha", "Districtname": "Kendujhar", "Subdistrictname": "Anandapur", "Blockname": "Anandapur", "Healthblockname": "Anandapur", "Healthfacilitytype": "health sub centre", "Facilityname": "Belda", "NIN": 2285477465, "latitude": 21.23479, "longitude": 86.16525, "facility_type_standardized": "hsc", "snapped_lon": 86.167735, "snapped_lat": 21.228451 }, "geometry": { "type": "Point", "coordinates": [ 86.167735, 21.228451 ] } },
{ "type": "Feature", "properties": { "Statename": "Odisha", "Districtname": "Kendujhar", "Subdistrictname": "Sainkul", "Blockname": "Ghasipura", "Healthblockname": "Ghasipura", "Healthfacilitytype": "health sub centre", "Facilityname": "Sainkul", "NIN": 7577258648, "latitude": 21.23888, "longitude": 85.9831, "facility_type_standardized": "hsc", "snapped_lon": 86.001502, "snapped_lat": 21.230803 }, "geometry": { "type": "Point", "coordinates": [ 86.001502, 21.230803 ] } },
{ "type": "Feature", "properties": { "Statename": "Odisha", "Districtname": "Kendujhar", "Subdistrictname": "Anandapur", "Blockname": "Anandapur", "Healthblockname": "Anandapur", "Healthfacilitytype": "health sub centre", "Facilityname": "Baladuan", "NIN": 1762854873, "latitude": 21.24211, "longitude": 86.18002, "facility_type_standardized": "hsc", "snapped_lon": 86.18001, "snapped_lat": 21.238421 }, "geometry": { "type": "Point", "coordinates": [ 86.18001, 21.238421 ] } },
{ "type": "Feature", "properties": { "Statename": "Odisha", "Districtname": "Kendujhar", "Subdistrictname": "Ghasipura", "Blockname": "Ghasipura", "Healthblockname": "Ghasipura", "Healthfacilitytype": "health sub centre", "Facilityname": "Gohira", "NIN": 3522526551, "latitude": 21.2438, "longitude": 86.08742, "facility_type_standardized": "hsc", "snapped_lon": 86.095653, "snapped_lat": 21.239955 }, "geometry": { "type": "Point", "coordinates": [ 86.095653, 21.239955 ] } },
{ "type": "Feature", "properties": { "Statename": "Odisha", "Districtname": "Kendujhar", "Subdistrictname": "Daitari", "Blockname": "Harichadanpur", "Healthblockname": "Harichandapur", "Healthfacilitytype": "health sub centre", "Facilityname": "Chilikidhara", "NIN": 2861877575, "latitude": 21.25265, "longitude": 85.82459, "facility_type_standardized": "hsc", "snapped_lon": 85.82593, "snapped_lat": 21.24823 }, "geometry": { "type": "Point", "coordinates": [ 85.82593, 21.24823 ] } },
{ "type": "Feature", "properties": { "Statename": "Odisha", "Districtname": "Kendujhar", "Subdistrictname": "Soso", "Blockname": "Hatadihi", "Healthblockname": "Hatadihi", "Healthfacilitytype": "health sub centre", "Facilityname": "Bangore", "NIN": 1614434882, "latitude": 21.25466, "longitude": 86.32594, "facility_type_standardized": "hsc", "snapped_lon": 86.325712, "snapped_lat": 21.261421 }, "geometry": { "type": "Point", "coordinates": [ 86.325712, 21.261421 ] } },
{ "type": "Feature", "properties": { "Statename": "Odisha", "Districtname": "Kendujhar", "Subdistrictname": "Daitari", "Blockname": "Harichadanpur", "Healthblockname": "Harichandapur", "Healthfacilitytype": "health sub centre", "Facilityname": "Nolla", "NIN": 8646324338, "latitude": 21.25475, "longitude": 85.68129, "facility_type_standardized": "hsc", "snapped_lon": 85.768174, "snapped_lat": 21.214585 }, "geometry": { "type": "Point", "coordinates": [ 85.768174, 21.214585 ] } },
{ "type": "Feature", "properties": { "Statename": "Odisha", "Districtname": "Kendujhar", "Subdistrictname": "Ghasipura", "Blockname": "Harichadanpur", "Healthblockname": "Harichandapur", "Healthfacilitytype": "health sub centre", "Facilityname": "Sagadapata", "NIN": 1774584757, "latitude": 21.25687, "longitude": 85.92632, "facility_type_standardized": "hsc", "snapped_lon": 85.922588, "snapped_lat": 21.24405 }, "geometry": { "type": "Point", "coordinates": [ 85.922588, 21.24405 ] } },
{ "type": "Feature", "properties": { "Statename": "Odisha", "Districtname": "Kendujhar", "Subdistrictname": "Harichandanpur", "Blockname": "Harichadanpur", "Healthblockname": "Harichandapur", "Healthfacilitytype": "health sub centre", "Facilityname": "Sunapentha", "NIN": 1472583879, "latitude": 21.26197, "longitude": 85.76045, "facility_type_standardized": "hsc", "snapped_lon": 85.77278, "snapped_lat": 21.218856 }, "geometry": { "type": "Point", "coordinates": [ 85.77278, 21.218856 ] } },
{ "type": "Feature", "properties": { "Statename": "Odisha", "Districtname": "Kendujhar", "Subdistrictname": "Soso", "Blockname": "Hatadihi", "Healthblockname": "Hatadihi", "Healthfacilitytype": "health sub centre", "Facilityname": "Baniapanka", "NIN": 7752843271, "latitude": 21.26207, "longitude": 86.35367, "facility_type_standardized": "hsc", "snapped_lon": 86.353715, "snapped_lat": 21.258575 }, "geometry": { "type": "Point", "coordinates": [ 86.353715, 21.258575 ] } },
{ "type": "Feature", "properties": { "Statename": "Odisha", "Districtname": "Kendujhar", "Subdistrictname": "Anandapur", "Blockname": "Anandapur", "Healthblockname": "Anandapur", "Healthfacilitytype": "health sub centre", "Facilityname": "Baunsgarh", "NIN": 7873217587, "latitude": 21.26214, "longitude": 86.16591, "facility_type_standardized": "hsc", "snapped_lon": 86.167647, "snapped_lat": 21.256383 }, "geometry": { "type": "Point", "coordinates": [ 86.167647, 21.256383 ] } },
{ "type": "Feature", "properties": { "Statename": "Odisha", "Districtname": "Kendujhar", "Subdistrictname": "Telkoi", "Blockname": "Telkoi", "Healthblockname": "Telkoi", "Healthfacilitytype": "health sub centre", "Facilityname": "Akul", "NIN": 5368742580, "latitude": 21.26288, "longitude": 85.41703, "facility_type_standardized": "hsc", "snapped_lon": 85.429725, "snapped_lat": 21.314816 }, "geometry": { "type": "Point", "coordinates": [ 85.429725, 21.314816 ] } },
{ "type": "Feature", "properties": { "Statename": "Odisha", "Districtname": "Kendujhar", "Subdistrictname": "Telkoi", "Blockname": "Telkoi", "Healthblockname": "Telkoi", "Healthfacilitytype": "health sub centre", "Facilityname": "Podanga", "NIN": 1784641746, "latitude": 21.26548, "longitude": 85.46251, "facility_type_standardized": "hsc", "snapped_lon": 85.438544, "snapped_lat": 21.316817 }, "geometry": { "type": "Point", "coordinates": [ 85.438544, 21.316817 ] } },
{ "type": "Feature", "properties": { "Statename": "Odisha", "Districtname": "Kendujhar", "Subdistrictname": "Anandapur", "Blockname": "Anandapur", "Healthblockname": "Anandapur", "Healthfacilitytype": "health sub centre", "Facilityname": "Kantipal", "NIN": 2148674670, "latitude": 21.26867, "longitude": 86.20802, "facility_type_standardized": "hsc", "snapped_lon": 86.203299, "snapped_lat": 21.263898 }, "geometry": { "type": "Point", "coordinates": [ 86.203299, 21.263898 ] } },
{ "type": "Feature", "properties": { "Statename": "Odisha", "Districtname": "Kendujhar", "Subdistrictname": "Daitari", "Blockname": "Harichadanpur", "Healthblockname": "Harichandapur", "Healthfacilitytype": "health sub centre", "Facilityname": "Bhagamunda", "NIN": 8524483412, "latitude": 21.27199, "longitude": 85.85997, "facility_type_standardized": "hsc", "snapped_lon": 85.862226, "snapped_lat": 21.267575 }, "geometry": { "type": "Point", "coordinates": [ 85.862226, 21.267575 ] } },
{ "type": "Feature", "properties": { "Statename": "Odisha", "Districtname": "Kendujhar", "Subdistrictname": "Telkoi", "Blockname": "Telkoi", "Healthblockname": "Telkoi", "Healthfacilitytype": "health sub centre", "Facilityname": "Bhimkand", "NIN": 2374318778, "latitude": 21.2731, "longitude": 85.39331, "facility_type_standardized": "hsc", "snapped_lon": 85.424615, "snapped_lat": 21.3162 }, "geometry": { "type": "Point", "coordinates": [ 85.424615, 21.3162 ] } },
{ "type": "Feature", "properties": { "Statename": "Odisha", "Districtname": "Kendujhar", "Subdistrictname": "Soso", "Blockname": "Hatadihi", "Healthblockname": "Hatadihi", "Healthfacilitytype": "health sub centre", "Facilityname": "Hadagarh", "NIN": 7864568220, "latitude": 21.27888, "longitude": 86.30259, "facility_type_standardized": "hsc", "snapped_lon": 86.305284, "snapped_lat": 21.276353 }, "geometry": { "type": "Point", "coordinates": [ 86.305284, 21.276353 ] } },
{ "type": "Feature", "properties": { "Statename": "Odisha", "Districtname": "Kendujhar", "Subdistrictname": "Anandapur", "Blockname": "Anandapur", "Healthblockname": "Anandapur", "Healthfacilitytype": "health sub centre", "Facilityname": "Kodapada", "NIN": 4361438585, "latitude": 21.28269, "longitude": 86.0954, "facility_type_standardized": "hsc", "snapped_lon": 86.099147, "snapped_lat": 21.28155 }, "geometry": { "type": "Point", "coordinates": [ 86.099147, 21.28155 ] } },
{ "type": "Feature", "properties": { "Statename": "Odisha", "Districtname": "Kendujhar", "Subdistrictname": "Telkoi", "Blockname": "Telkoi", "Healthblockname": "Telkoi", "Healthfacilitytype": "health sub centre", "Facilityname": "Karadangi", "NIN": 5171661654, "latitude": 21.28439, "longitude": 85.33138, "facility_type_standardized": "hsc", "snapped_lon": 85.406559, "snapped_lat": 21.334001 }, "geometry": { "type": "Point", "coordinates": [ 85.406559, 21.334001 ] } },
{ "type": "Feature", "properties": { "Statename": "Odisha", "Districtname": "Kendujhar", "Subdistrictname": "Ghasipura", "Blockname": "Harichadanpur", "Healthblockname": "Harichandapur", "Healthfacilitytype": "health sub centre", "Facilityname": "Billa", "NIN": 8138145480, "latitude": 21.28568, "longitude": 85.94067, "facility_type_standardized": "hsc", "snapped_lon": 85.922588, "snapped_lat": 21.24405 }, "geometry": { "type": "Point", "coordinates": [ 85.922588, 21.24405 ] } },
{ "type": "Feature", "properties": { "Statename": "Odisha", "Districtname": "Kendujhar", "Subdistrictname": "Harichandanpur", "Blockname": "Harichadanpur", "Healthblockname": "Harichandapur", "Healthfacilitytype": "health sub centre", "Facilityname": "Badasialimal", "NIN": 4752346868, "latitude": 21.29368, "longitude": 85.77791, "facility_type_standardized": "hsc", "snapped_lon": 85.788105, "snapped_lat": 21.328378 }, "geometry": { "type": "Point", "coordinates": [ 85.788105, 21.328378 ] } },
{ "type": "Feature", "properties": { "Statename": "Odisha", "Districtname": "Kendujhar", "Subdistrictname": "Ghasipura", "Blockname": "Anandapur", "Healthblockname": "Anandapur", "Healthfacilitytype": "health sub centre", "Facilityname": "Dhakotha", "NIN": 2847266463, "latitude": 21.3011, "longitude": 86.06888, "facility_type_standardized": "hsc", "snapped_lon": 86.070061, "snapped_lat": 21.301981 }, "geometry": { "type": "Point", "coordinates": [ 86.070061, 21.301981 ] } },
{ "type": "Feature", "properties": { "Statename": "Odisha", "Districtname": "Kendujhar", "Subdistrictname": "Anandapur", "Blockname": "Anandapur", "Healthblockname": "Anandapur", "Healthfacilitytype": "health sub centre", "Facilityname": "Bhogapur", "NIN": 4214512552, "latitude": 21.30192, "longitude": 86.09799, "facility_type_standardized": "hsc", "snapped_lon": 86.095716, "snapped_lat": 21.301187 }, "geometry": { "type": "Point", "coordinates": [ 86.095716, 21.301187 ] } },
{ "type": "Feature", "properties": { "Statename": "Odisha", "Districtname": "Kendujhar", "Subdistrictname": "Harichandanpur", "Blockname": "Harichadanpur", "Healthblockname": "Harichandapur", "Healthfacilitytype": "health sub centre", "Facilityname": "Taladihi", "NIN": 8716436285, "latitude": 21.30358, "longitude": 85.82573, "facility_type_standardized": "hsc", "snapped_lon": 85.828885, "snapped_lat": 21.310902 }, "geometry": { "type": "Point", "coordinates": [ 85.828885, 21.310902 ] } },
{ "type": "Feature", "properties": { "Statename": "Odisha", "Districtname": "Kendujhar", "Subdistrictname": "Harichandanpur", "Blockname": "Harichadanpur", "Healthblockname": "Harichandapur", "Healthfacilitytype": "health sub centre", "Facilityname": "Pithagola", "NIN": 5853243789, "latitude": 21.31069, "longitude": 85.62055, "facility_type_standardized": "hsc", "snapped_lon": 85.618279, "snapped_lat": 21.400056 }, "geometry": { "type": "Point", "coordinates": [ 85.618279, 21.400056 ] } },
{ "type": "Feature", "properties": { "Statename": "Odisha", "Districtname": "Kendujhar", "Subdistrictname": "Soso", "Blockname": "Hatadihi", "Healthblockname": "Hatadihi", "Healthfacilitytype": "health sub centre", "Facilityname": "Raighati", "NIN": 2476176843, "latitude": 21.31466, "longitude": 86.35141, "facility_type_standardized": "hsc", "snapped_lon": 86.385336, "snapped_lat": 21.336808 }, "geometry": { "type": "Point", "coordinates": [ 86.385336, 21.336808 ] } },
{ "type": "Feature", "properties": { "Statename": "Odisha", "Districtname": "Kendujhar", "Subdistrictname": "Harichandanpur", "Blockname": "Harichadanpur", "Healthblockname": "Harichandapur", "Healthfacilitytype": "health sub centre", "Facilityname": "Tambahar", "NIN": 2272614112, "latitude": 21.32134, "longitude": 85.66187, "facility_type_standardized": "hsc", "snapped_lon": 85.668222, "snapped_lat": 21.395232 }, "geometry": { "type": "Point", "coordinates": [ 85.668222, 21.395232 ] } },
{ "type": "Feature", "properties": { "Statename": "Odisha", "Districtname": "Kendujhar", "Subdistrictname": "Harichandanpur", "Blockname": "Harichadanpur", "Healthblockname": "Harichandapur", "Healthfacilitytype": "health sub centre", "Facilityname": "Kaliaduma", "NIN": 4564447417, "latitude": 21.32191, "longitude": 85.78606, "facility_type_standardized": "hsc", "snapped_lon": 85.788105, "snapped_lat": 21.328378 }, "geometry": { "type": "Point", "coordinates": [ 85.788105, 21.328378 ] } },
{ "type": "Feature", "properties": { "Statename": "Odisha", "Districtname": "Kendujhar", "Subdistrictname": "Ghasipura", "Blockname": "Anandapur", "Healthblockname": "Anandapur", "Healthfacilitytype": "health sub centre", "Facilityname": "Kanto", "NIN": 8334234336, "latitude": 21.32265, "longitude": 86.04047, "facility_type_standardized": "hsc", "snapped_lon": 86.040807, "snapped_lat": 21.323584 }, "geometry": { "type": "Point", "coordinates": [ 86.040807, 21.323584 ] } },
{ "type": "Feature", "properties": { "Statename": "Odisha", "Districtname": "Kendujhar", "Subdistrictname": "Harichandanpur", "Blockname": "Harichadanpur", "Healthblockname": "Harichandapur", "Healthfacilitytype": "health sub centre", "Facilityname": "Bhawanarapur", "NIN": 7528211159, "latitude": 21.3245, "longitude": 85.72755, "facility_type_standardized": "hsc", "snapped_lon": 85.768429, "snapped_lat": 21.354386 }, "geometry": { "type": "Point", "coordinates": [ 85.768429, 21.354386 ] } },
{ "type": "Feature", "properties": { "Statename": "Odisha", "Districtname": "Kendujhar", "Subdistrictname": "Harichandanpur", "Blockname": "Harichadanpur", "Healthblockname": "Harichandapur", "Healthfacilitytype": "health sub centre", "Facilityname": "Dhurudiamba", "NIN": 2611312469, "latitude": 21.3261, "longitude": 85.86601, "facility_type_standardized": "hsc", "snapped_lon": 85.845449, "snapped_lat": 21.298479 }, "geometry": { "type": "Point", "coordinates": [ 85.845449, 21.298479 ] } },
{ "type": "Feature", "properties": { "Statename": "Odisha", "Districtname": "Kendujhar", "Subdistrictname": "Telkoi", "Blockname": "Telkoi", "Healthblockname": "Telkoi", "Healthfacilitytype": "health sub centre", "Facilityname": "Khuntapada", "NIN": 6268386544, "latitude": 21.3302, "longitude": 85.40612, "facility_type_standardized": "hsc", "snapped_lon": 85.406559, "snapped_lat": 21.334001 }, "geometry": { "type": "Point", "coordinates": [ 85.406559, 21.334001 ] } },
{ "type": "Feature", "properties": { "Statename": "Odisha", "Districtname": "Kendujhar", "Subdistrictname": "Harichandanpur", "Blockname": "Harichadanpur", "Healthblockname": "Harichandapur", "Healthfacilitytype": "health sub centre", "Facilityname": "Jiranga", "NIN": 3741585487, "latitude": 21.33139, "longitude": 85.68265, "facility_type_standardized": "hsc", "snapped_lon": 85.668222, "snapped_lat": 21.395232 }, "geometry": { "type": "Point", "coordinates": [ 85.668222, 21.395232 ] } },
{ "type": "Feature", "properties": { "Statename": "Odisha", "Districtname": "Kendujhar", "Subdistrictname": "Telkoi", "Blockname": "Telkoi", "Healthblockname": "Telkoi", "Healthfacilitytype": "health sub centre", "Facilityname": "Deuladiha", "NIN": 7871585340, "latitude": 21.33714, "longitude": 85.3543, "facility_type_standardized": "hsc", "snapped_lon": 85.373971, "snapped_lat": 21.369746 }, "geometry": { "type": "Point", "coordinates": [ 85.373971, 21.369746 ] } },
{ "type": "Feature", "properties": { "Statename": "Odisha", "Districtname": "Kendujhar", "Subdistrictname": "Harichandanpur", "Blockname": "Harichadanpur", "Healthblockname": "Harichandapur", "Healthfacilitytype": "health sub centre", "Facilityname": "Dhagotha", "NIN": 2681782476, "latitude": 21.34126, "longitude": 85.73761, "facility_type_standardized": "hsc", "snapped_lon": 85.754969, "snapped_lat": 21.369237 }, "geometry": { "type": "Point", "coordinates": [ 85.754969, 21.369237 ] } },
{ "type": "Feature", "properties": { "Statename": "Odisha", "Districtname": "Kendujhar", "Subdistrictname": "Telkoi", "Blockname": "Telkoi", "Healthblockname": "Telkoi", "Healthfacilitytype": "health sub centre", "Facilityname": "Talapada", "NIN": 8334137760, "latitude": 21.34426, "longitude": 85.54359, "facility_type_standardized": "hsc", "snapped_lon": 85.618279, "snapped_lat": 21.400056 }, "geometry": { "type": "Point", "coordinates": [ 85.618279, 21.400056 ] } },
{ "type": "Feature", "properties": { "Statename": "Odisha", "Districtname": "Kendujhar", "Subdistrictname": "Harichandanpur", "Blockname": "Telkoi", "Healthblockname": "Telkoi", "Healthfacilitytype": "health sub centre", "Facilityname": "Telkoi", "NIN": 5483258736, "latitude": 21.35797, "longitude": 85.39178, "facility_type_standardized": "hsc", "snapped_lon": 85.397688, "snapped_lat": 21.355709 }, "geometry": { "type": "Point", "coordinates": [ 85.397688, 21.355709 ] } },
{ "type": "Feature", "properties": { "Statename": "Odisha", "Districtname": "Kendujhar", "Subdistrictname": "Pandapara", "Blockname": "Harichadanpur", "Healthblockname": "Harichandapur", "Healthfacilitytype": "health sub centre", "Facilityname": "Tentalaposi", "NIN": 1631233556, "latitude": 21.35922, "longitude": 85.73639, "facility_type_standardized": "hsc", "snapped_lon": 85.748388, "snapped_lat": 21.374337 }, "geometry": { "type": "Point", "coordinates": [ 85.748388, 21.374337 ] } },
{ "type": "Feature", "properties": { "Statename": "Odisha", "Districtname": "Kendujhar", "Subdistrictname": "Pandapara", "Blockname": "Ghatgaon", "Healthblockname": "Ghatagaon", "Healthfacilitytype": "health sub centre", "Facilityname": "Badapichula", "NIN": 7224374673, "latitude": 21.35933, "longitude": 85.84362, "facility_type_standardized": "hsc", "snapped_lon": 85.843392, "snapped_lat": 21.379144 }, "geometry": { "type": "Point", "coordinates": [ 85.843392, 21.379144 ] } },
{ "type": "Feature", "properties": { "Statename": "Odisha", "Districtname": "Kendujhar", "Subdistrictname": "Harichandanpur", "Blockname": "Harichadanpur", "Healthblockname": "Harichandapur", "Healthfacilitytype": "health sub centre", "Facilityname": "Jamujodi", "NIN": 2673323883, "latitude": 21.36003, "longitude": 85.72522, "facility_type_standardized": "hsc", "snapped_lon": 85.747299, "snapped_lat": 21.375511 }, "geometry": { "type": "Point", "coordinates": [ 85.747299, 21.375511 ] } },
{ "type": "Feature", "properties": { "Statename": "Odisha", "Districtname": "Kendujhar", "Subdistrictname": "Telkoi", "Blockname": "Telkoi", "Healthblockname": "Telkoi", "Healthfacilitytype": "health sub centre", "Facilityname": "SN Purgoda", "NIN": 1638648574, "latitude": 21.36597, "longitude": 85.48832, "facility_type_standardized": "hsc", "snapped_lon": 85.445067, "snapped_lat": 21.334431 }, "geometry": { "type": "Point", "coordinates": [ 85.445067, 21.334431 ] } },
{ "type": "Feature", "properties": { "Statename": "Odisha", "Districtname": "Kendujhar", "Subdistrictname": "Telkoi", "Blockname": "Telkoi", "Healthblockname": "Telkoi", "Healthfacilitytype": "health sub centre", "Facilityname": "Dubulapal", "NIN": 3436161115, "latitude": 21.36659, "longitude": 85.36241, "facility_type_standardized": "hsc", "snapped_lon": 85.371448, "snapped_lat": 21.372504 }, "geometry": { "type": "Point", "coordinates": [ 85.371448, 21.372504 ] } },
{ "type": "Feature", "properties": { "Statename": "Odisha", "Districtname": "Kendujhar", "Subdistrictname": "Ghatgaon", "Blockname": "Ghatgaon", "Healthblockname": "Ghatagaon", "Healthfacilitytype": "health sub centre", "Facilityname": "Kundapitha", "NIN": 3557378670, "latitude": 21.37341, "longitude": 85.98555, "facility_type_standardized": "hsc", "snapped_lon": 85.98323, "snapped_lat": 21.365893 }, "geometry": { "type": "Point", "coordinates": [ 85.98323, 21.365893 ] } },
{ "type": "Feature", "properties": { "Statename": "Odisha", "Districtname": "Kendujhar", "Subdistrictname": "Harichandanpur", "Blockname": "Harichadanpur", "Healthblockname": "Harichandapur", "Healthfacilitytype": "health sub centre", "Facilityname": "Pitapiti", "NIN": 3877118376, "latitude": 21.37533, "longitude": 85.74594, "facility_type_standardized": "hsc", "snapped_lon": 85.747165, "snapped_lat": 21.375875 }, "geometry": { "type": "Point", "coordinates": [ 85.747165, 21.375875 ] } },
{ "type": "Feature", "properties": { "Statename": "Odisha", "Districtname": "Kendujhar", "Subdistrictname": "Harichandanpur", "Blockname": "Telkoi", "Healthblockname": "Telkoi", "Healthfacilitytype": "health sub centre", "Facilityname": "Halpudi", "NIN": 4728762578, "latitude": 21.3764, "longitude": 85.39546, "facility_type_standardized": "hsc", "snapped_lon": 85.405519, "snapped_lat": 21.370995 }, "geometry": { "type": "Point", "coordinates": [ 85.405519, 21.370995 ] } },
{ "type": "Feature", "properties": { "Statename": "Odisha", "Districtname": "Kendujhar", "Subdistrictname": "Harichandanpur", "Blockname": "Harichadanpur", "Healthblockname": "Harichandapur", "Healthfacilitytype": "health sub centre", "Facilityname": "Harichandanpur", "NIN": 8667351871, "latitude": 21.37886, "longitude": 85.77924, "facility_type_standardized": "hsc", "snapped_lon": 85.787805, "snapped_lat": 21.36432 }, "geometry": { "type": "Point", "coordinates": [ 85.787805, 21.36432 ] } },
{ "type": "Feature", "properties": { "Statename": "Odisha", "Districtname": "Kendujhar", "Subdistrictname": "Pandapara", "Blockname": "Harichadanpur", "Healthblockname": "Harichandapur", "Healthfacilitytype": "health sub centre", "Facilityname": "Budhakhamana", "NIN": 7868572566, "latitude": 21.39178, "longitude": 85.63259, "facility_type_standardized": "hsc", "snapped_lon": 85.618279, "snapped_lat": 21.400056 }, "geometry": { "type": "Point", "coordinates": [ 85.618279, 21.400056 ] } },
{ "type": "Feature", "properties": { "Statename": "Odisha", "Districtname": "Kendujhar", "Subdistrictname": "Ghatgaon", "Blockname": "Ghatgaon", "Healthblockname": "Ghatagaon", "Healthfacilitytype": "health sub centre", "Facilityname": "Ghatagaon", "NIN": 7584237270, "latitude": 21.39287, "longitude": 85.8905, "facility_type_standardized": "hsc", "snapped_lon": 85.893667, "snapped_lat": 21.388798 }, "geometry": { "type": "Point", "coordinates": [ 85.893667, 21.388798 ] } },
{ "type": "Feature", "properties": { "Statename": "Odisha", "Districtname": "Kendujhar", "Subdistrictname": "Ghatgaon", "Blockname": "Ghatgaon", "Healthblockname": "Ghatagaon", "Healthfacilitytype": "health sub centre", "Facilityname": "Balipokhari", "NIN": 7144488124, "latitude": 21.39608, "longitude": 85.81115, "facility_type_standardized": "hsc", "snapped_lon": 85.806282, "snapped_lat": 21.396664 }, "geometry": { "type": "Point", "coordinates": [ 85.806282, 21.396664 ] } },
{ "type": "Feature", "properties": { "Statename": "Odisha", "Districtname": "Kendujhar", "Subdistrictname": "Ghatgaon", "Blockname": "Ghatgaon", "Healthblockname": "Ghatagaon", "Healthfacilitytype": "health sub centre", "Facilityname": "Upperdiha", "NIN": 4757585460, "latitude": 21.39934, "longitude": 85.90413, "facility_type_standardized": "hsc", "snapped_lon": 85.895823, "snapped_lat": 21.407039 }, "geometry": { "type": "Point", "coordinates": [ 85.895823, 21.407039 ] } },
{ "type": "Feature", "properties": { "Statename": "Odisha", "Districtname": "Kendujhar", "Subdistrictname": "Telkoi", "Blockname": "Telkoi", "Healthblockname": "Telkoi", "Healthfacilitytype": "health sub centre", "Facilityname": "Oriya", "NIN": 2486375286, "latitude": 21.39999, "longitude": 85.42841, "facility_type_standardized": "hsc", "snapped_lon": 85.433219, "snapped_lat": 21.396746 }, "geometry": { "type": "Point", "coordinates": [ 85.433219, 21.396746 ] } },
{ "type": "Feature", "properties": { "Statename": "Odisha", "Districtname": "Kendujhar", "Subdistrictname": "Ghatgaon", "Blockname": "Ghatgaon", "Healthblockname": "Ghatagaon", "Healthfacilitytype": "health sub centre", "Facilityname": "Mukundapur Patna", "NIN": 7435678359, "latitude": 21.40383, "longitude": 85.87772, "facility_type_standardized": "hsc", "snapped_lon": 85.879013, "snapped_lat": 21.410248 }, "geometry": { "type": "Point", "coordinates": [ 85.879013, 21.410248 ] } },
{ "type": "Feature", "properties": { "Statename": "Odisha", "Districtname": "Kendujhar", "Subdistrictname": "Pandapara", "Blockname": "Harichadanpur", "Healthblockname": "Harichandapur", "Healthfacilitytype": "health sub centre", "Facilityname": "Hunda", "NIN": 4477422630, "latitude": 21.41107, "longitude": 85.59531, "facility_type_standardized": "hsc", "snapped_lon": 85.617957, "snapped_lat": 21.406479 }, "geometry": { "type": "Point", "coordinates": [ 85.617957, 21.406479 ] } },
{ "type": "Feature", "properties": { "Statename": "Odisha", "Districtname": "Kendujhar", "Subdistrictname": "Anandapur", "Blockname": "Anandapur", "Healthblockname": "Anandapur", "Healthfacilitytype": "health sub centre", "Facilityname": "Gayalmunda", "NIN": 3574476242, "latitude": 21.41463, "longitude": 86.11896, "facility_type_standardized": "hsc", "snapped_lon": 86.151255, "snapped_lat": 21.389304 }, "geometry": { "type": "Point", "coordinates": [ 86.151255, 21.389304 ] } },
{ "type": "Feature", "properties": { "Statename": "Odisha", "Districtname": "Kendujhar", "Subdistrictname": "Telkoi", "Blockname": "Telkoi", "Healthblockname": "Telkoi", "Healthfacilitytype": "health sub centre", "Facilityname": "Golabandha", "NIN": 1817477852, "latitude": 21.41544, "longitude": 85.31816, "facility_type_standardized": "hsc", "snapped_lon": 85.328734, "snapped_lat": 21.409433 }, "geometry": { "type": "Point", "coordinates": [ 85.328734, 21.409433 ] } },
{ "type": "Feature", "properties": { "Statename": "Odisha", "Districtname": "Kendujhar", "Subdistrictname": "Ghatgaon", "Blockname": "Ghatgaon", "Healthblockname": "Ghatagaon", "Healthfacilitytype": "health sub centre", "Facilityname": "Tara", "NIN": 2352535559, "latitude": 21.41801, "longitude": 85.84396, "facility_type_standardized": "hsc", "snapped_lon": 85.846434, "snapped_lat": 21.420328 }, "geometry": { "type": "Point", "coordinates": [ 85.846434, 21.420328 ] } },
{ "type": "Feature", "properties": { "Statename": "Odisha", "Districtname": "Kendujhar", "Subdistrictname": "Ghatgaon", "Blockname": "Ghatgaon", "Healthblockname": "Ghatagaon", "Healthfacilitytype": "health sub centre", "Facilityname": "Patilo", "NIN": 6378247628, "latitude": 21.4198, "longitude": 85.71754, "facility_type_standardized": "hsc", "snapped_lon": 85.713637, "snapped_lat": 21.42375 }, "geometry": { "type": "Point", "coordinates": [ 85.713637, 21.42375 ] } },
{ "type": "Feature", "properties": { "Statename": "Odisha", "Districtname": "Kendujhar", "Subdistrictname": "Pandapara", "Blockname": "Harichadanpur", "Healthblockname": "Harichandapur", "Healthfacilitytype": "health sub centre", "Facilityname": "Janghira", "NIN": 4811547845, "latitude": 21.41983, "longitude": 85.65165, "facility_type_standardized": "hsc", "snapped_lon": 85.666123, "snapped_lat": 21.40901 }, "geometry": { "type": "Point", "coordinates": [ 85.666123, 21.40901 ] } },
{ "type": "Feature", "properties": { "Statename": "Odisha", "Districtname": "Kendujhar", "Subdistrictname": "Pandapara", "Blockname": "Ghatgaon", "Healthblockname": "Ghatagaon", "Healthfacilitytype": "health sub centre", "Facilityname": "Binida", "NIN": 5232848761, "latitude": 21.42383, "longitude": 85.69298, "facility_type_standardized": "hsc", "snapped_lon": 85.697241, "snapped_lat": 21.415118 }, "geometry": { "type": "Point", "coordinates": [ 85.697241, 21.415118 ] } },
{ "type": "Feature", "properties": { "Statename": "Odisha", "Districtname": "Kendujhar", "Subdistrictname": "Telkoi", "Blockname": "Telkoi", "Healthblockname": "Telkoi", "Healthfacilitytype": "health sub centre", "Facilityname": "Saleikena", "NIN": 1625322563, "latitude": 21.42469, "longitude": 85.38034, "facility_type_standardized": "hsc", "snapped_lon": 85.367769, "snapped_lat": 21.445753 }, "geometry": { "type": "Point", "coordinates": [ 85.367769, 21.445753 ] } },
{ "type": "Feature", "properties": { "Statename": "Odisha", "Districtname": "Kendujhar", "Subdistrictname": "Telkoi", "Blockname": "Telkoi", "Healthblockname": "Telkoi", "Healthfacilitytype": "health sub centre", "Facilityname": "Binjabahal", "NIN": 4532767771, "latitude": 21.4395, "longitude": 85.29074, "facility_type_standardized": "hsc", "snapped_lon": 85.291795, "snapped_lat": 21.440583 }, "geometry": { "type": "Point", "coordinates": [ 85.291795, 21.440583 ] } },
{ "type": "Feature", "properties": { "Statename": "Odisha", "Districtname": "Kendujhar", "Subdistrictname": "Daitari", "Blockname": "Harichadanpur", "Healthblockname": "Harichandapur", "Healthfacilitytype": "health sub centre", "Facilityname": "Bailobeda", "NIN": 3125411755, "latitude": 21.4474, "longitude": 85.59496, "facility_type_standardized": "hsc", "snapped_lon": 85.622592, "snapped_lat": 21.438799 }, "geometry": { "type": "Point", "coordinates": [ 85.622592, 21.438799 ] } },
{ "type": "Feature", "properties": { "Statename": "Odisha", "Districtname": "Kendujhar", "Subdistrictname": "Ghatgaon", "Blockname": "Ghatgaon", "Healthblockname": "Ghatagaon", "Healthfacilitytype": "health sub centre", "Facilityname": "Gadadharpur", "NIN": 8188272812, "latitude": 21.44991, "longitude": 85.88116, "facility_type_standardized": "hsc", "snapped_lon": 85.880579, "snapped_lat": 21.44959 }, "geometry": { "type": "Point", "coordinates": [ 85.880579, 21.44959 ] } },