{
"type": "FeatureCollection",
"name": "puri_facilities_snapped",
"crs": { "type": "name", "properties": { "name": "urn:ogc:def:crs:OGC:1.3:CRS84" } },
"features": [
{ "type": "Feature", "properties": { "Statename": "Odisha", "Districtname": "Puri", "Subdistrictname": "Krushna Prasad", "Blockname": "Krushnaprasad", "Healthblockname": "Krushnaprasad", "Healthfacilitytype": "community health centre", "Facilityname": "Krushna Prasad", "NIN": 1111484158, "latitude": 19.63488, "longitude": 85.26502, "facility_type_standardized": "chc", "snapped_lon": 84.955625, "snapped_lat": 19.295465 }, "geometry": { "type": "Point", "coordinates": [ 84.955625, 19.295465 ] } },
{ "type": "Feature", "properties": { "Statename": "Odisha", "Districtname": "Puri", "Subdistrictname": "Krushna Prasad", "Blockname": "Krushnaprasad", "Healthblockname": "Krushnaprasad", "Healthfacilitytype": "community health centre", "Facilityname": "Chilka Nuapada", "NIN": 1111484513, "latitude": 19.66357, "longitude": 85.38094, "facility_type_standardized": "chc", "snapped_lon": 85.848055, "snapped_lat": 19.801494 }, "geometry": { "type": "Point", "coordinates": [ 85.848055, 19.801494 ] } },
{ "type": "Feature", "properties": { "Statename": "Odisha", "Districtname": "Puri", "Subdistrictname": "Brahmagiri", "Blockname": "Brahmagiri", "Healthblockname": "Brahmagiri", "Healthfacilitytype": "community health centre", "Facilityname": "Rebana Nuagaon", "NIN": 1111485411, "latitude": 19.80092, "longitude": 85.69789, "facility_type_standardized": "chc", "snapped_lon": 85.848023, "snapped_lat": 19.802109 }, "geometry": { "type": "Point", "coordinates": [ 85.848023, 19.802109 ] } },
{ "type": "Feature", "properties": { "Statename": "Odisha", "Districtname": "Puri", "Subdistrictname": "Chandanpur", "Blockname": "Sadar", "Healthblockname": "Sadar", "Healthfacilitytype": "community health centre", "Facilityname": "Chandanpur", "NIN": 1111543730, "latitude": 19.88729, "longitude": 85.81898, "facility_type_standardized": "chc", "snapped_lon": 85.848023, "snapped_lat": 19.802109 }, "geometry": { "type": "Point", "coordinates": [ 85.848023, 19.802109 ] } },
{ "type": "Feature", "properties": { "Statename": "Odisha", "Districtname": "Puri", "Subdistrictname": "Kakatpur", "Blockname": "Kakat Pur", "Healthblockname": "Kakatapur", "Healthfacilitytype": "community health centre", "Facilityname": "Bangurigaon", "NIN": 1111465769, "latitude": 19.93571, "longitude": 86.19395, "facility_type_standardized": "chc", "snapped_lon": 86.196852, "snapped_lat": 19.939388 }, "geometry": { "type": "Point", "coordinates": [ 86.196852, 19.939388 ] } },
{ "type": "Feature", "properties": { "Statename": "Odisha", "Districtname": "Puri", "Subdistrictname": "Satyabadi", "Blockname": "Satyabadi", "Healthblockname": "Satyabadi", "Healthfacilitytype": "community health centre", "Facilityname": "Sakhigopal", "NIN": 1111543672, "latitude": 19.94548, "longitude": 85.82049, "facility_type_standardized": "chc", "snapped_lon": 85.848023, "snapped_lat": 19.802109 }, "geometry": { "type": "Point", "coordinates": [ 85.848023, 19.802109 ] } },
{ "type": "Feature", "properties": { "Statename": "Odisha", "Districtname": "Puri", "Subdistrictname": "Satyabadi", "Blockname": "Satyabadi", "Healthblockname": "Satyabadi", "Healthfacilitytype": "community health centre", "Facilityname": "Algum", "NIN": 1111543466, "latitude": 19.95062, "longitude": 85.7472, "facility_type_standardized": "chc", "snapped_lon": 85.848023, "snapped_lat": 19.802109 }, "geometry": { "type": "Point", "coordinates": [ 85.848023, 19.802109 ] } },
{ "type": "Feature", "properties": { "Statename": "Odisha", "Districtname": "Puri", "Subdistrictname": "Astaranga", "Blockname": "Astaranga", "Healthblockname": "Astaranga", "Healthfacilitytype": "community health centre", "Facilityname": "Astaranga", "NIN": 1111454367, "latitude": 19.9761, "longitude": 86.27152, "facility_type_standardized": "chc", "snapped_lon": 86.264409, "snapped_lat": 20.014881 }, "geometry": { "type": "Point", "coordinates": [ 86.264409, 20.014881 ] } },
{ "type": "Feature", "properties": { "Statename": "Odisha", "Districtname": "Puri", "Subdistrictname": "Gop", "Blockname": "Gop", "Healthblockname": "Gopa", "Healthfacilitytype": "community health centre", "Facilityname": "Gop", "NIN": 1111455448, "latitude": 19.98479, "longitude": 86.02047, "facility_type_standardized": "chc", "snapped_lon": 86.166021, "snapped_lat": 20.069067 }, "geometry": { "type": "Point", "coordinates": [ 86.166021, 20.069067 ] } },
{ "type": "Feature", "properties": { "Statename": "Odisha", "Districtname": "Puri", "Subdistrictname": "Gadisagada", "Blockname": "Kanas", "Healthblockname": "Kanas", "Healthfacilitytype": "community health centre", "Facilityname": "Kanas", "NIN": 1111558431, "latitude": 20.00382, "longitude": 85.65072, "facility_type_standardized": "chc", "snapped_lon": 85.494435, "snapped_lat": 20.222066 }, "geometry": { "type": "Point", "coordinates": [ 85.494435, 20.222066 ] } },
{ "type": "Feature", "properties": { "Statename": "Odisha", "Districtname": "Puri", "Subdistrictname": "Nimapada", "Blockname": "Notmapped", "Healthblockname": "Nimapara", "Healthfacilitytype": "community health centre", "Facilityname": "Nimapada", "NIN": 1111528855, "latitude": 20.04956, "longitude": 86.00712, "facility_type_standardized": "chc", "snapped_lon": 86.166021, "snapped_lat": 20.069067 }, "geometry": { "type": "Point", "coordinates": [ 86.166021, 20.069067 ] } },
{ "type": "Feature", "properties": { "Statename": "Odisha", "Districtname": "Puri", "Subdistrictname": "Delanga", "Blockname": "Delanga", "Healthblockname": "Delanga", "Healthfacilitytype": "community health centre", "Facilityname": "Delanga", "NIN": 1111476170, "latitude": 20.06026, "longitude": 85.74628, "facility_type_standardized": "chc", "snapped_lon": 85.848023, "snapped_lat": 19.802109 }, "geometry": { "type": "Point", "coordinates": [ 85.848023, 19.802109 ] } },
{ "type": "Feature", "properties": { "Statename": "Odisha", "Districtname": "Puri", "Subdistrictname": "Nimapada", "Blockname": "Nimapada", "Healthblockname": "Nimapara", "Healthfacilitytype": "community health centre", "Facilityname": "Charichhak", "NIN": 1111528764, "latitude": 20.06399, "longitude": 85.99289, "facility_type_standardized": "chc", "snapped_lon": 86.166021, "snapped_lat": 20.069067 }, "geometry": { "type": "Point", "coordinates": [ 86.166021, 20.069067 ] } },
{ "type": "Feature", "properties": { "Statename": "Odisha", "Districtname": "Puri", "Subdistrictname": "Pipili", "Blockname": "Notmapped", "Healthblockname": "Pipili", "Healthfacilitytype": "community health centre", "Facilityname": "Pipli", "NIN": 1111462642, "latitude": 20.10713, "longitude": 85.83662, "facility_type_standardized": "chc", "snapped_lon": 85.848023, "snapped_lat": 19.802109 }, "geometry": { "type": "Point", "coordinates": [ 85.848023, 19.802109 ] } },
{ "type": "Feature", "properties": { "Statename": "Odisha", "Districtname": "Puri", "Subdistrictname": "Pipili", "Blockname": "Pipili", "Healthblockname": "Pipili", "Healthfacilitytype": "community health centre", "Facilityname": "Panidol", "NIN": 1111462766, "latitude": 20.11891, "longitude": 85.78378, "facility_type_standardized": "chc", "snapped_lon": 85.494435, "snapped_lat": 20.222066 }, "geometry": { "type": "Point", "coordinates": [ 85.494435, 20.222066 ] } },
{ "type": "Feature", "properties": { "Statename": "Odisha", "Districtname": "Puri", "Subdistrictname": "Pipili", "Blockname": "Pipili", "Healthblockname": "Pipili", "Healthfacilitytype": "community health centre", "Facilityname": "Managalpur", "NIN": 1111462675, "latitude": 20.17398, "longitude": 85.88529, "facility_type_standardized": "chc", "snapped_lon": 86.166021, "snapped_lat": 20.069067 }, "geometry": { "type": "Point", "coordinates": [ 86.166021, 20.069067 ] } },
{ "type": "Feature", "properties": { "Statename": "Odisha", "Districtname": "Puri", "Subdistrictname": "Puri (M)", "Blockname": "Notmapped", "Healthblockname": "Notmapped", "Healthfacilitytype": "district hospital", "Facilityname": "Puri", "NIN": 1111546287, "latitude": 19.80338, "longitude": 85.82059, "facility_type_standardized": "dh", "snapped_lon": 85.848023, "snapped_lat": 19.802109 }, "geometry": { "type": "Point", "coordinates": [ 85.848023, 19.802109 ] } },
{ "type": "Feature", "properties": { "Statename": "Odisha", "Districtname": "Puri", "Subdistrictname": "Krushna Prasad", "Blockname": "Krushnaprasad", "Healthblockname": "Krushnaprasad", "Healthfacilitytype": "primary health centre", "Facilityname": "Titipa", "NIN": 1111485650, "latitude": 19.61176, "longitude": 85.33956, "facility_type_standardized": "phc", "snapped_lon": 84.955625, "snapped_lat": 19.295465 }, "geometry": { "type": "Point", "coordinates": [ 84.955625, 19.295465 ] } },
{ "type": "Feature", "properties": { "Statename": "Odisha", "Districtname": "Puri", "Subdistrictname": "Krushna Prasad", "Blockname": "Krushnaprasad", "Healthblockname": "Krushnaprasad", "Healthfacilitytype": "primary health centre", "Facilityname": "Satapada", "NIN": 1111485262, "latitude": 19.66845, "longitude": 85.45472, "facility_type_standardized": "phc", "snapped_lon": 85.848055, "snapped_lat": 19.801494 }, "geometry": { "type": "Point", "coordinates": [ 85.848055, 19.801494 ] } },
{ "type": "Feature", "properties": { "Statename": "Odisha", "Districtname": "Puri", "Subdistrictname": "Krushna Prasad", "Blockname": "Krushnaprasad", "Healthblockname": "Krushnaprasad", "Healthfacilitytype": "primary health centre", "Facilityname": "Panas Pada", "NIN": 1111485171, "latitude": 19.73205, "longitude": 85.51928, "facility_type_standardized": "phc", "snapped_lon": 85.848055, "snapped_lat": 19.801494 }, "geometry": { "type": "Point", "coordinates": [ 85.848055, 19.801494 ] } },
{ "type": "Feature", "properties": { "Statename": "Odisha", "Districtname": "Puri", "Subdistrictname": "Brahmagiri", "Blockname": "Krushnaprasad", "Healthblockname": "Krushnaprasad", "Healthfacilitytype": "primary health centre", "Facilityname": "KHANDAKAI", "NIN": 1111527832, "latitude": 19.74161, "longitude": 85.63048, "facility_type_standardized": "phc", "snapped_lon": 85.848055, "snapped_lat": 19.801494 }, "geometry": { "type": "Point", "coordinates": [ 85.848055, 19.801494 ] } },
{ "type": "Feature", "properties": { "Statename": "Odisha", "Districtname": "Puri", "Subdistrictname": "Brahmagiri", "Blockname": "Brahmagiri", "Healthblockname": "Notmapped", "Healthfacilitytype": "primary health centre", "Facilityname": "Brahmagir", "NIN": 1111485569, "latitude": 19.79386, "longitude": 85.64402, "facility_type_standardized": "phc", "snapped_lon": 85.848023, "snapped_lat": 19.802109 }, "geometry": { "type": "Point", "coordinates": [ 85.848023, 19.802109 ] } },
{ "type": "Feature", "properties": { "Statename": "Odisha", "Districtname": "Puri", "Subdistrictname": "Puri (M)", "Blockname": "Notmapped", "Healthblockname": "Notmapped", "Healthfacilitytype": "uphc", "Facilityname": "UPHC KDMM", "NIN": 1111566830, "latitude": 19.80814, "longitude": 85.83412, "facility_type_standardized": "phc", "snapped_lon": 85.848023, "snapped_lat": 19.802109 }, "geometry": { "type": "Point", "coordinates": [ 85.848023, 19.802109 ] } },
{ "type": "Feature", "properties": { "Statename": "Odisha", "Districtname": "Puri", "Subdistrictname": "Puri (M)", "Blockname": "Notmapped", "Healthblockname": "Notmapped", "Healthfacilitytype": "uphc", "Facilityname": "UPHC Chandan Hazuri", "NIN": 1111566863, "latitude": 19.81, "longitude": 85.81723, "facility_type_standardized": "phc", "snapped_lon": 85.848023, "snapped_lat": 19.802109 }, "geometry": { "type": "Point", "coordinates": [ 85.848023, 19.802109 ] } },
{ "type": "Feature", "properties": { "Statename": "Odisha", "Districtname": "Puri", "Subdistrictname": "Brahmagiri", "Blockname": "Brahmagiri", "Healthblockname": "Brahmagiri", "Healthfacilitytype": "primary health centre", "Facilityname": "Khajuria", "NIN": 1111485536, "latitude": 19.82526, "longitude": 85.62834, "facility_type_standardized": "phc", "snapped_lon": 85.848023, "snapped_lat": 19.802109 }, "geometry": { "type": "Point", "coordinates": [ 85.848023, 19.802109 ] } },
{ "type": "Feature", "properties": { "Statename": "Odisha", "Districtname": "Puri", "Subdistrictname": "Chandanpur", "Blockname": "Sadar", "Healthblockname": "Sadar", "Healthfacilitytype": "primary health centre", "Facilityname": "Dobandha", "NIN": 1111544274, "latitude": 19.84165, "longitude": 85.87399, "facility_type_standardized": "phc", "snapped_lon": 85.848023, "snapped_lat": 19.802109 }, "geometry": { "type": "Point", "coordinates": [ 85.848023, 19.802109 ] } },
{ "type": "Feature", "properties": { "Statename": "Odisha", "Districtname": "Puri", "Subdistrictname": "Brahmagiri", "Blockname": "Brahmagiri", "Healthblockname": "Brahmagiri", "Healthfacilitytype": "primary health centre", "Facilityname": "Raibidhar", "NIN": 1111485718, "latitude": 19.8503, "longitude": 85.64496, "facility_type_standardized": "phc", "snapped_lon": 85.848023, "snapped_lat": 19.802109 }, "geometry": { "type": "Point", "coordinates": [ 85.848023, 19.802109 ] } },
{ "type": "Feature", "properties": { "Statename": "Odisha", "Districtname": "Puri", "Subdistrictname": "Gop", "Blockname": "Gop", "Healthblockname": "Gopa", "Healthfacilitytype": "primary health centre", "Facilityname": "Chhaitana", "NIN": 1111456370, "latitude": 19.87142, "longitude": 85.93185, "facility_type_standardized": "phc", "snapped_lon": 85.848023, "snapped_lat": 19.802109 }, "geometry": { "type": "Point", "coordinates": [ 85.848023, 19.802109 ] } },
{ "type": "Feature", "properties": { "Statename": "Odisha", "Districtname": "Puri", "Subdistrictname": "Chandanpur", "Blockname": "Sadar", "Healthblockname": "Sadar", "Healthfacilitytype": "primary health centre", "Facilityname": "Chalisbatia", "NIN": 1111544183, "latitude": 19.88723, "longitude": 85.85414, "facility_type_standardized": "phc", "snapped_lon": 85.848023, "snapped_lat": 19.802109 }, "geometry": { "type": "Point", "coordinates": [ 85.848023, 19.802109 ] } },
{ "type": "Feature", "properties": { "Statename": "Odisha", "Districtname": "Puri", "Subdistrictname": "Chandanpur", "Blockname": "Sadar", "Healthblockname": "Sadar", "Healthfacilitytype": "primary health centre", "Facilityname": "Siruli", "NIN": 1111544423, "latitude": 19.88802, "longitude": 85.70677, "facility_type_standardized": "phc", "snapped_lon": 85.848023, "snapped_lat": 19.802109 }, "geometry": { "type": "Point", "coordinates": [ 85.848023, 19.802109 ] } },
{ "type": "Feature", "properties": { "Statename": "Odisha", "Districtname": "Puri", "Subdistrictname": "Gop", "Blockname": "Notmapped", "Healthblockname": "Gopa", "Healthfacilitytype": "primary health centre", "Facilityname": "Konark", "NIN": 1111571848, "latitude": 19.89017, "longitude": 86.09248, "facility_type_standardized": "phc", "snapped_lon": 86.194935, "snapped_lat": 19.940911 }, "geometry": { "type": "Point", "coordinates": [ 86.194935, 19.940911 ] } },
{ "type": "Feature", "properties": { "Statename": "Odisha", "Districtname": "Puri", "Subdistrictname": "Gadisagada", "Blockname": "Kanas", "Healthblockname": "Kanas", "Healthfacilitytype": "primary health centre", "Facilityname": "Mandarbasta", "NIN": 1111562482, "latitude": 19.89668, "longitude": 85.64994, "facility_type_standardized": "phc", "snapped_lon": 85.848023, "snapped_lat": 19.802109 }, "geometry": { "type": "Point", "coordinates": [ 85.848023, 19.802109 ] } },
{ "type": "Feature", "properties": { "Statename": "Odisha", "Districtname": "Puri", "Subdistrictname": "Kakatpur", "Blockname": "Kakat Pur", "Healthblockname": "Kakatapur", "Healthfacilitytype": "primary health centre", "Facilityname": "Fakirsahi", "NIN": 1111466270, "latitude": 19.90237, "longitude": 86.20731, "facility_type_standardized": "phc", "snapped_lon": 86.222329, "snapped_lat": 19.908991 }, "geometry": { "type": "Point", "coordinates": [ 86.222329, 19.908991 ] } },
{ "type": "Feature", "properties": { "Statename": "Odisha", "Districtname": "Puri", "Subdistrictname": "Gadisagada", "Blockname": "Kanas", "Healthblockname": "Kanas", "Healthfacilitytype": "primary health centre", "Facilityname": "Harichandiprasad", "NIN": 1111562870, "latitude": 19.91195, "longitude": 85.62305, "facility_type_standardized": "phc", "snapped_lon": 85.848023, "snapped_lat": 19.802109 }, "geometry": { "type": "Point", "coordinates": [ 85.848023, 19.802109 ] } },
{ "type": "Feature", "properties": { "Statename": "Odisha", "Districtname": "Puri", "Subdistrictname": "Gop", "Blockname": "Gop", "Healthblockname": "Gopa", "Healthfacilitytype": "primary health centre", "Facilityname": "Badatara", "NIN": 1111455869, "latitude": 19.92284, "longitude": 86.03722, "facility_type_standardized": "phc", "snapped_lon": 86.194935, "snapped_lat": 19.940911 }, "geometry": { "type": "Point", "coordinates": [ 86.194935, 19.940911 ] } },
{ "type": "Feature", "properties": { "Statename": "Odisha", "Districtname": "Puri", "Subdistrictname": "Gop", "Blockname": "Gop", "Healthblockname": "Gopa", "Healthfacilitytype": "primary health centre", "Facilityname": "Madaraga", "NIN": 1111471437, "latitude": 19.92384, "longitude": 85.98886, "facility_type_standardized": "phc", "snapped_lon": 85.848023, "snapped_lat": 19.802109 }, "geometry": { "type": "Point", "coordinates": [ 85.848023, 19.802109 ] } },
{ "type": "Feature", "properties": { "Statename": "Odisha", "Districtname": "Puri", "Subdistrictname": "Gadisagada", "Blockname": "Kanas", "Healthblockname": "Kanas", "Healthfacilitytype": "primary health centre", "Facilityname": "Gadisagada", "NIN": 1111558761, "latitude": 19.92805, "longitude": 85.60342, "facility_type_standardized": "phc", "snapped_lon": 85.848023, "snapped_lat": 19.802109 }, "geometry": { "type": "Point", "coordinates": [ 85.848023, 19.802109 ] } },
{ "type": "Feature", "properties": { "Statename": "Odisha", "Districtname": "Puri", "Subdistrictname": "Gop", "Blockname": "Gop", "Healthblockname": "Gopa", "Healthfacilitytype": "primary health centre", "Facilityname": "Nagapur", "NIN": 1111456768, "latitude": 19.93245, "longitude": 86.0104, "facility_type_standardized": "phc", "snapped_lon": 86.194935, "snapped_lat": 19.940911 }, "geometry": { "type": "Point", "coordinates": [ 86.194935, 19.940911 ] } },
{ "type": "Feature", "properties": { "Statename": "Odisha", "Districtname": "Puri", "Subdistrictname": "Satyabadi", "Blockname": "Satyabadi", "Healthblockname": "Satyabadi", "Healthfacilitytype": "primary health centre", "Facilityname": "Sukal", "NIN": 1111545388, "latitude": 19.93344, "longitude": 85.70927, "facility_type_standardized": "phc", "snapped_lon": 85.848023, "snapped_lat": 19.802109 }, "geometry": { "type": "Point", "coordinates": [ 85.848023, 19.802109 ] } },
{ "type": "Feature", "properties": { "Statename": "Odisha", "Districtname": "Puri", "Subdistrictname": "Gop", "Blockname": "Gop", "Healthblockname": "Gopa", "Healthfacilitytype": "primary health centre", "Facilityname": "Ambelihana", "NIN": 1111455778, "latitude": 19.93548, "longitude": 86.1127, "facility_type_standardized": "phc", "snapped_lon": 86.194935, "snapped_lat": 19.940911 }, "geometry": { "type": "Point", "coordinates": [ 86.194935, 19.940911 ] } },
{ "type": "Feature", "properties": { "Statename": "Odisha", "Districtname": "Puri", "Subdistrictname": "Astaranga", "Blockname": "Astaranga", "Healthblockname": "Astaranga", "Healthfacilitytype": "primary health centre", "Facilityname": "BANTALA", "NIN": 1111454755, "latitude": 19.94084, "longitude": 86.23687, "facility_type_standardized": "phc", "snapped_lon": 86.226463, "snapped_lat": 19.925298 }, "geometry": { "type": "Point", "coordinates": [ 86.226463, 19.925298 ] } },
{ "type": "Feature", "properties": { "Statename": "Odisha", "Districtname": "Puri", "Subdistrictname": "Satyabadi", "Blockname": "Satyabadi", "Healthblockname": "Satyabadi", "Healthfacilitytype": "primary health centre", "Facilityname": "Panichhata", "NIN": 1111545446, "latitude": 19.94575, "longitude": 85.88753, "facility_type_standardized": "phc", "snapped_lon": 85.848023, "snapped_lat": 19.802109 }, "geometry": { "type": "Point", "coordinates": [ 85.848023, 19.802109 ] } },
{ "type": "Feature", "properties": { "Statename": "Odisha", "Districtname": "Puri", "Subdistrictname": "Gadisagada", "Blockname": "Kanas", "Healthblockname": "Kanas", "Healthfacilitytype": "primary health centre", "Facilityname": "Nandigada", "NIN": 1111563449, "latitude": 19.95487, "longitude": 85.65334, "facility_type_standardized": "phc", "snapped_lon": 85.848023, "snapped_lat": 19.802109 }, "geometry": { "type": "Point", "coordinates": [ 85.848023, 19.802109 ] } },
{ "type": "Feature", "properties": { "Statename": "Odisha", "Districtname": "Puri", "Subdistrictname": "Gadisagada", "Blockname": "Kanas", "Healthblockname": "Kanas", "Healthfacilitytype": "primary health centre", "Facilityname": "Sahupada", "NIN": 1111558670, "latitude": 19.95656, "longitude": 85.5837, "facility_type_standardized": "phc", "snapped_lon": 85.494435, "snapped_lat": 20.222066 }, "geometry": { "type": "Point", "coordinates": [ 85.494435, 20.222066 ] } },
{ "type": "Feature", "properties": { "Statename": "Odisha", "Districtname": "Puri", "Subdistrictname": "Satyabadi", "Blockname": "Satyabadi", "Healthblockname": "Satyabadi", "Healthfacilitytype": "primary health centre", "Facilityname": "Gabakunda", "NIN": 1111544811, "latitude": 19.96055, "longitude": 85.76376, "facility_type_standardized": "phc", "snapped_lon": 85.848023, "snapped_lat": 19.802109 }, "geometry": { "type": "Point", "coordinates": [ 85.848023, 19.802109 ] } },
{ "type": "Feature", "properties": { "Statename": "Odisha", "Districtname": "Puri", "Subdistrictname": "Kakatpur", "Blockname": "Kakat Pur", "Healthblockname": "Kakatapur", "Healthfacilitytype": "primary health centre", "Facilityname": "Balidokan", "NIN": 1111466189, "latitude": 19.9628, "longitude": 86.16439, "facility_type_standardized": "phc", "snapped_lon": 86.194935, "snapped_lat": 19.940911 }, "geometry": { "type": "Point", "coordinates": [ 86.194935, 19.940911 ] } },
{ "type": "Feature", "properties": { "Statename": "Odisha", "Districtname": "Puri", "Subdistrictname": "Gop", "Blockname": "Gop", "Healthblockname": "Gopa", "Healthfacilitytype": "primary health centre", "Facilityname": "Birtunga", "NIN": 1111456289, "latitude": 19.96625, "longitude": 86.06158, "facility_type_standardized": "phc", "snapped_lon": 86.194935, "snapped_lat": 19.940911 }, "geometry": { "type": "Point", "coordinates": [ 86.194935, 19.940911 ] } },
{ "type": "Feature", "properties": { "Statename": "Odisha", "Districtname": "Puri", "Subdistrictname": "Astaranga", "Blockname": "Astaranga", "Healthblockname": "Astaranga", "Healthfacilitytype": "primary health centre", "Facilityname": "Ratanapur", "NIN": 1111476238, "latitude": 19.9761, "longitude": 86.27152, "facility_type_standardized": "phc", "snapped_lon": 86.264409, "snapped_lat": 20.014881 }, "geometry": { "type": "Point", "coordinates": [ 86.264409, 20.014881 ] } },
{ "type": "Feature", "properties": { "Statename": "Odisha", "Districtname": "Puri", "Subdistrictname": "Delanga", "Blockname": "Delanga", "Healthblockname": "Delanga", "Healthfacilitytype": "primary health centre", "Facilityname": "Indipur", "NIN": 1111477525, "latitude": 19.98116, "longitude": 85.72493, "facility_type_standardized": "phc", "snapped_lon": 85.848023, "snapped_lat": 19.802109 }, "geometry": { "type": "Point", "coordinates": [ 85.848023, 19.802109 ] } },
{ "type": "Feature", "properties": { "Statename": "Odisha", "Districtname": "Puri", "Subdistrictname": "Kakatpur", "Blockname": "Kakat Pur", "Healthblockname": "Kakatapur", "Healthfacilitytype": "primary health centre", "Facilityname": "Patapur", "NIN": 1111465850, "latitude": 19.98791, "longitude": 86.16616, "facility_type_standardized": "phc", "snapped_lon": 86.194935, "snapped_lat": 19.940911 }, "geometry": { "type": "Point", "coordinates": [ 86.194935, 19.940911 ] } },
{ "type": "Feature", "properties": { "Statename": "Odisha", "Districtname": "Puri", "Subdistrictname": "Nimapada", "Blockname": "Nimapada", "Healthblockname": "Nimapara", "Healthfacilitytype": "primary health centre", "Facilityname": "Nuasantha", "NIN": 1111532782, "latitude": 19.99784, "longitude": 85.91283, "facility_type_standardized": "phc", "snapped_lon": 85.848023, "snapped_lat": 19.802109 }, "geometry": { "type": "Point", "coordinates": [ 85.848023, 19.802109 ] } },
{ "type": "Feature", "properties": { "Statename": "Odisha", "Districtname": "Puri", "Subdistrictname": "Nimapada", "Blockname": "Nimapada", "Healthblockname": "Nimapara", "Healthfacilitytype": "primary health centre", "Facilityname": "Badaninigaon", "NIN": 1111532873, "latitude": 20.00115, "longitude": 85.93359, "facility_type_standardized": "phc", "snapped_lon": 85.848023, "snapped_lat": 19.802109 }, "geometry": { "type": "Point", "coordinates": [ 85.848023, 19.802109 ] } },
{ "type": "Feature", "properties": { "Statename": "Odisha", "Districtname": "Puri", "Subdistrictname": "Gop", "Blockname": "Gop", "Healthblockname": "Gopa", "Healthfacilitytype": "primary health centre", "Facilityname": "Nayahat", "NIN": 1111466247, "latitude": 20.00308, "longitude": 86.12867, "facility_type_standardized": "phc", "snapped_lon": 86.175767, "snapped_lat": 20.060603 }, "geometry": { "type": "Point", "coordinates": [ 86.175767, 20.060603 ] } },
{ "type": "Feature", "properties": { "Statename": "Odisha", "Districtname": "Puri", "Subdistrictname": "Astaranga", "Blockname": "Astaranga", "Healthblockname": "Astaranga", "Healthfacilitytype": "primary health centre", "Facilityname": "Khandasahi", "NIN": 1111475750, "latitude": 20.01498, "longitude": 86.25061, "facility_type_standardized": "phc", "snapped_lon": 86.248076, "snapped_lat": 20.018691 }, "geometry": { "type": "Point", "coordinates": [ 86.248076, 20.018691 ] } },
{ "type": "Feature", "properties": { "Statename": "Odisha", "Districtname": "Puri", "Subdistrictname": "Delanga", "Blockname": "Delanga", "Healthblockname": "Delanga", "Healthfacilitytype": "primary health centre", "Facilityname": "Gualipada", "NIN": 1111533772, "latitude": 20.01829, "longitude": 85.75409, "facility_type_standardized": "phc", "snapped_lon": 85.848023, "snapped_lat": 19.802109 }, "geometry": { "type": "Point", "coordinates": [ 85.848023, 19.802109 ] } },
{ "type": "Feature", "properties": { "Statename": "Odisha", "Districtname": "Puri", "Subdistrictname": "Delanga", "Blockname": "Delanga", "Healthblockname": "Delanga", "Healthfacilitytype": "primary health centre", "Facilityname": "Harirajpur", "NIN": 1111476626, "latitude": 20.03553, "longitude": 85.70435, "facility_type_standardized": "phc", "snapped_lon": 85.848023, "snapped_lat": 19.802109 }, "geometry": { "type": "Point", "coordinates": [ 85.848023, 19.802109 ] } },
{ "type": "Feature", "properties": { "Statename": "Odisha", "Districtname": "Puri", "Subdistrictname": "Delanga", "Blockname": "Delanga", "Healthblockname": "Delanga", "Healthfacilitytype": "primary health centre", "Facilityname": "Kalyanpur", "NIN": 1111476717, "latitude": 20.03553, "longitude": 85.70435, "facility_type_standardized": "phc", "snapped_lon": 85.848023, "snapped_lat": 19.802109 }, "geometry": { "type": "Point", "coordinates": [ 85.848023, 19.802109 ] } },
{ "type": "Feature", "properties": { "Statename": "Odisha", "Districtname": "Puri", "Subdistrictname": "Pipili", "Blockname": "Pipili", "Healthblockname": "Pipili", "Healthfacilitytype": "primary health centre", "Facilityname": "Kamakantia", "NIN": 1111462824, "latitude": 20.04483, "longitude": 85.8595, "facility_type_standardized": "phc", "snapped_lon": 85.848023, "snapped_lat": 19.802109 }, "geometry": { "type": "Point", "coordinates": [ 85.848023, 19.802109 ] } },
{ "type": "Feature", "properties": { "Statename": "Odisha", "Districtname": "Puri", "Subdistrictname": "Delanga", "Blockname": "Delanga", "Healthblockname": "Delanga", "Healthfacilitytype": "primary health centre", "Facilityname": "Ghoradia", "NIN": 1111478127, "latitude": 20.06775, "longitude": 85.7797, "facility_type_standardized": "phc", "snapped_lon": 85.848023, "snapped_lat": 19.802109 }, "geometry": { "type": "Point", "coordinates": [ 85.848023, 19.802109 ] } },
{ "type": "Feature", "properties": { "Statename": "Odisha", "Districtname": "Puri", "Subdistrictname": "Nimapada", "Blockname": "Nimapada", "Healthblockname": "Nimapara", "Healthfacilitytype": "primary health centre", "Facilityname": "Rench Sasan", "NIN": 1111533442, "latitude": 20.09903, "longitude": 85.90436, "facility_type_standardized": "phc", "snapped_lon": 86.166021, "snapped_lat": 20.069067 }, "geometry": { "type": "Point", "coordinates": [ 86.166021, 20.069067 ] } },
{ "type": "Feature", "properties": { "Statename": "Odisha", "Districtname": "Puri", "Subdistrictname": "Pipili", "Blockname": "Pipili", "Healthblockname": "Pipili", "Healthfacilitytype": "primary health centre", "Facilityname": "KHORAPADA", "NIN": 1111463335, "latitude": 20.12017, "longitude": 85.8154, "facility_type_standardized": "phc", "snapped_lon": 85.848023, "snapped_lat": 19.802109 }, "geometry": { "type": "Point", "coordinates": [ 85.848023, 19.802109 ] } },
{ "type": "Feature", "properties": { "Statename": "Odisha", "Districtname": "Puri", "Subdistrictname": "Pipili", "Blockname": "Pipili", "Healthblockname": "Pipili", "Healthfacilitytype": "primary health centre", "Facilityname": "Satasankha", "NIN": 1111463368, "latitude": 20.15519, "longitude": 85.88998, "facility_type_standardized": "phc", "snapped_lon": 86.166021, "snapped_lat": 20.069067 }, "geometry": { "type": "Point", "coordinates": [ 86.166021, 20.069067 ] } },
{ "type": "Feature", "properties": { "Statename": "Odisha", "Districtname": "Puri", "Subdistrictname": "Pipili", "Blockname": "Pipili", "Healthblockname": "Pipili", "Healthfacilitytype": "primary health centre", "Facilityname": "Laxminarayanapur", "NIN": 1111463244, "latitude": 20.17006, "longitude": 85.87684, "facility_type_standardized": "phc", "snapped_lon": 86.166021, "snapped_lat": 20.069067 }, "geometry": { "type": "Point", "coordinates": [ 86.166021, 20.069067 ] } },
{ "type": "Feature", "properties": { "Statename": "Odisha", "Districtname": "Puri", "Subdistrictname": "Krushna Prasad", "Blockname": "Krushnaprasad", "Healthblockname": "Krushnaprasad", "Healthfacilitytype": "health sub centre", "Facilityname": "Nandala", "NIN": 1111514483, "latitude": 19.48452, "longitude": 85.17695, "facility_type_standardized": "hsc", "snapped_lon": 84.955625, "snapped_lat": 19.295465 }, "geometry": { "type": "Point", "coordinates": [ 84.955625, 19.295465 ] } },
{ "type": "Feature", "properties": { "Statename": "Odisha", "Districtname": "Puri", "Subdistrictname": "Krushna Prasad", "Blockname": "Krushnaprasad", "Healthblockname": "Krushnaprasad", "Healthfacilitytype": "health sub centre", "Facilityname": "Bajrakata", "NIN": 1111486526, "latitude": 19.5397, "longitude": 85.22918, "facility_type_standardized": "hsc", "snapped_lon": 84.955625, "snapped_lat": 19.295465 }, "geometry": { "type": "Point", "coordinates": [ 84.955625, 19.295465 ] } },
{ "type": "Feature", "properties": { "Statename": "Odisha", "Districtname": "Puri", "Subdistrictname": "Krushna Prasad", "Blockname": "Krushnaprasad", "Healthblockname": "Krushnaprasad", "Healthfacilitytype": "health sub centre", "Facilityname": "Maluda", "NIN": 1111488118, "latitude": 19.58267, "longitude": 85.23764, "facility_type_standardized": "hsc", "snapped_lon": 84.955625, "snapped_lat": 19.295465 }, "geometry": { "type": "Point", "coordinates": [ 84.955625, 19.295465 ] } },
{ "type": "Feature", "properties": { "Statename": "Odisha", "Districtname": "Puri", "Subdistrictname": "Krushna Prasad", "Blockname": "Krushnaprasad", "Healthblockname": "Krushnaprasad", "Healthfacilitytype": "health sub centre", "Facilityname": "Morada", "NIN": 1111511117, "latitude": 19.59766, "longitude": 85.30203, "facility_type_standardized": "hsc", "snapped_lon": 84.955625, "snapped_lat": 19.295465 }, "geometry": { "type": "Point", "coordinates": [ 84.955625, 19.295465 ] } },
{ "type": "Feature", "properties": { "Statename": "Odisha", "Districtname": "Puri", "Subdistrictname": "Krushna Prasad", "Blockname": "Krushnaprasad", "Healthblockname": "Krushnaprasad", "Healthfacilitytype": "health sub centre", "Facilityname": "Titipa", "NIN": 1111518443, "latitude": 19.6079, "longitude": 85.33805, "facility_type_standardized": "hsc", "snapped_lon": 84.955625, "snapped_lat": 19.295465 }, "geometry": { "type": "Point", "coordinates": [ 84.955625, 19.295465 ] } },
{ "type": "Feature", "properties": { "Statename": "Odisha", "Districtname": "Puri", "Subdistrictname": "Krushna Prasad", "Blockname": "Krushnaprasad", "Healthblockname": "Krushnaprasad", "Healthfacilitytype": "health sub centre", "Facilityname": "Alanda", "NIN": 1111486138, "latitude": 19.6133, "longitude": 85.31008, "facility_type_standardized": "hsc", "snapped_lon": 84.955625, "snapped_lat": 19.295465 }, "geometry": { "type": "Point", "coordinates": [ 84.955625, 19.295465 ] } },
{ "type": "Feature", "properties": { "Statename": "Odisha", "Districtname": "Puri", "Subdistrictname": "Krushna Prasad", "Blockname": "Krushnaprasad", "Healthblockname": "Krushnaprasad", "Healthfacilitytype": "health sub centre", "Facilityname": "Badajhada", "NIN": 1111486310, "latitude": 19.63425, "longitude": 85.37218, "facility_type_standardized": "hsc", "snapped_lon": 85.848055, "snapped_lat": 19.801494 }, "geometry": { "type": "Point", "coordinates": [ 85.848055, 19.801494 ] } },
{ "type": "Feature", "properties": { "Statename": "Odisha", "Districtname": "Puri", "Subdistrictname": "Krushna Prasad", "Blockname": "Krushnaprasad", "Healthblockname": "Krushnaprasad", "Healthfacilitytype": "health sub centre", "Facilityname": "Mahinsa Berhampur", "NIN": 1111487219, "latitude": 19.64274, "longitude": 85.42695, "facility_type_standardized": "hsc", "snapped_lon": 85.848055, "snapped_lat": 19.801494 }, "geometry": { "type": "Point", "coordinates": [ 85.848055, 19.801494 ] } },
{ "type": "Feature", "properties": { "Statename": "Odisha", "Districtname": "Puri", "Subdistrictname": "Krushna Prasad", "Blockname": "Krushnaprasad", "Healthblockname": "Krushnaprasad", "Healthfacilitytype": "health sub centre", "Facilityname": "Chilka Nuapada", "NIN": 1111486617, "latitude": 19.66529, "longitude": 85.38703, "facility_type_standardized": "hsc", "snapped_lon": 85.848055, "snapped_lat": 19.801494 }, "geometry": { "type": "Point", "coordinates": [ 85.848055, 19.801494 ] } },
{ "type": "Feature", "properties": { "Statename": "Odisha", "Districtname": "Puri", "Subdistrictname": "Krushna Prasad", "Blockname": "Krushnaprasad", "Healthblockname": "Krushnaprasad", "Healthfacilitytype": "health sub centre", "Facilityname": "Satapada", "NIN": 1111517874, "latitude": 19.66773, "longitude": 85.4554, "facility_type_standardized": "hsc", "snapped_lon": 85.848055, "snapped_lat": 19.801494 }, "geometry": { "type": "Point", "coordinates": [ 85.848055, 19.801494 ] } },
{ "type": "Feature", "properties": { "Statename": "Odisha", "Districtname": "Puri", "Subdistrictname": "Krushna Prasad", "Blockname": "Krushnaprasad", "Healthblockname": "Krushnaprasad", "Healthfacilitytype": "health sub centre", "Facilityname": "Pirijpur", "NIN": 1111516884, "latitude": 19.6933, "longitude": 85.49798, "facility_type_standardized": "hsc", "snapped_lon": 85.848055, "snapped_lat": 19.801494 }, "geometry": { "type": "Point", "coordinates": [ 85.848055, 19.801494 ] } },
{ "type": "Feature", "properties": { "Statename": "Odisha", "Districtname": "Puri", "Subdistrictname": "Krushna Prasad", "Blockname": "Krushnaprasad", "Healthblockname": "Krushnaprasad", "Healthfacilitytype": "health sub centre", "Facilityname": "Arakhakuda", "NIN": 1111486229, "latitude": 19.71814, "longitude": 85.56582, "facility_type_standardized": "hsc", "snapped_lon": 85.848055, "snapped_lat": 19.801494 }, "geometry": { "type": "Point", "coordinates": [ 85.848055, 19.801494 ] } },
{ "type": "Feature", "properties": { "Statename": "Odisha", "Districtname": "Puri", "Subdistrictname": "Krushna Prasad", "Blockname": "Krushnaprasad", "Healthblockname": "Krushnaprasad", "Healthfacilitytype": "health sub centre", "Facilityname": "Panasapada", "NIN": 1111514848, "latitude": 19.72671, "longitude": 85.51703, "facility_type_standardized": "hsc", "snapped_lon": 85.848055, "snapped_lat": 19.801494 }, "geometry": { "type": "Point", "coordinates": [ 85.848055, 19.801494 ] } },
{ "type": "Feature", "properties": { "Statename": "Odisha", "Districtname": "Puri", "Subdistrictname": "Brahmagiri", "Blockname": "Brahmagiri", "Healthblockname": "Brahmagiri", "Healthfacilitytype": "health sub centre", "Facilityname": "Matmatpur", "NIN": 1111526875, "latitude": 19.76618, "longitude": 85.65627, "facility_type_standardized": "hsc", "snapped_lon": 85.848055, "snapped_lat": 19.801494 }, "geometry": { "type": "Point", "coordinates": [ 85.848055, 19.801494 ] } },
{ "type": "Feature", "properties": { "Statename": "Odisha", "Districtname": "Puri", "Subdistrictname": "Brahmagiri", "Blockname": "Brahmagiri", "Healthblockname": "Brahmagiri", "Healthfacilitytype": "health sub centre", "Facilityname": "Khajuria (Sujanpur)", "NIN": 1111526487, "latitude": 19.77397, "longitude": 85.7457, "facility_type_standardized": "hsc", "snapped_lon": 85.848055, "snapped_lat": 19.801494 }, "geometry": { "type": "Point", "coordinates": [ 85.848055, 19.801494 ] } },
{ "type": "Feature", "properties": { "Statename": "Odisha", "Districtname": "Puri", "Subdistrictname": "Brahmagiri", "Blockname": "Brahmagiri", "Healthblockname": "Brahmagiri", "Healthfacilitytype": "health sub centre", "Facilityname": "Garharodhanga (Gada Kekar)", "NIN": 1111514780, "latitude": 19.778, "longitude": 85.6189, "facility_type_standardized": "hsc", "snapped_lon": 85.848055, "snapped_lat": 19.801494 }, "geometry": { "type": "Point", "coordinates": [ 85.848055, 19.801494 ] } },
{ "type": "Feature", "properties": { "Statename": "Odisha", "Districtname": "Puri", "Subdistrictname": "Brahmagiri", "Blockname": "Brahmagiri", "Healthblockname": "Brahmagiri", "Healthfacilitytype": "health sub centre", "Facilityname": "Palanka", "NIN": 1111527386, "latitude": 19.77909, "longitude": 85.68129, "facility_type_standardized": "hsc", "snapped_lon": 85.848055, "snapped_lat": 19.801494 }, "geometry": { "type": "Point", "coordinates": [ 85.848055, 19.801494 ] } },
{ "type": "Feature", "properties": { "Statename": "Odisha", "Districtname": "Puri", "Subdistrictname": "Brahmagiri", "Blockname": "Brahmagiri", "Healthblockname": "Brahmagiri", "Healthfacilitytype": "health sub centre", "Facilityname": "Sunamuhin", "NIN": 1111486252, "latitude": 19.78511, "longitude": 85.58091, "facility_type_standardized": "hsc", "snapped_lon": 85.848055, "snapped_lat": 19.801494 }, "geometry": { "type": "Point", "coordinates": [ 85.848055, 19.801494 ] } },
{ "type": "Feature", "properties": { "Statename": "Odisha", "Districtname": "Puri", "Subdistrictname": "Brahmagiri", "Blockname": "Brahmagiri", "Healthblockname": "Brahmagiri", "Healthfacilitytype": "health sub centre", "Facilityname": "Barudi", "NIN": 1111486559, "latitude": 19.78979, "longitude": 85.72676, "facility_type_standardized": "hsc", "snapped_lon": 85.848055, "snapped_lat": 19.801494 }, "geometry": { "type": "Point", "coordinates": [ 85.848055, 19.801494 ] } },
{ "type": "Feature", "properties": { "Statename": "Odisha", "Districtname": "Puri", "Subdistrictname": "Brahmagiri", "Blockname": "Brahmagiri", "Healthblockname": "Brahmagiri", "Healthfacilitytype": "health sub centre", "Facilityname": "Rebana Nuagaon", "NIN": 1111527683, "latitude": 19.79646, "longitude": 85.6935, "facility_type_standardized": "hsc", "snapped_lon": 85.848023, "snapped_lat": 19.802109 }, "geometry": { "type": "Point", "coordinates": [ 85.848023, 19.802109 ] } },
{ "type": "Feature", "properties": { "Statename": "Odisha", "Districtname": "Puri", "Subdistrictname": "Brahmagiri", "Blockname": "Brahmagiri", "Healthblockname": "Brahmagiri", "Healthfacilitytype": "health sub centre", "Facilityname": "Brahmagiri", "NIN": 1111487128, "latitude": 19.80069, "longitude": 85.63615, "facility_type_standardized": "hsc", "snapped_lon": 85.848023, "snapped_lat": 19.802109 }, "geometry": { "type": "Point", "coordinates": [ 85.848023, 19.802109 ] } },
{ "type": "Feature", "properties": { "Statename": "Odisha", "Districtname": "Puri", "Subdistrictname": "Chandanpur", "Blockname": "Sadar", "Healthblockname": "Sadar", "Healthfacilitytype": "health sub centre", "Facilityname": "Swinekera", "NIN": 1111562847, "latitude": 19.80782, "longitude": 85.85544, "facility_type_standardized": "hsc", "snapped_lon": 85.848023, "snapped_lat": 19.802109 }, "geometry": { "type": "Point", "coordinates": [ 85.848023, 19.802109 ] } },
{ "type": "Feature", "properties": { "Statename": "Odisha", "Districtname": "Puri", "Subdistrictname": "Chandanpur", "Blockname": "Sadar", "Healthblockname": "Sadar", "Healthfacilitytype": "health sub centre", "Facilityname": "Charishree", "NIN": 1111554380, "latitude": 19.80932, "longitude": 85.83218, "facility_type_standardized": "hsc", "snapped_lon": 85.848023, "snapped_lat": 19.802109 }, "geometry": { "type": "Point", "coordinates": [ 85.848023, 19.802109 ] } },
{ "type": "Feature", "properties": { "Statename": "Odisha", "Districtname": "Puri", "Subdistrictname": "Brahmagiri", "Blockname": "Brahmagiri", "Healthblockname": "Brahmagiri", "Healthfacilitytype": "health sub centre", "Facilityname": "Gorual", "NIN": 1111517783, "latitude": 19.81385, "longitude": 85.75465, "facility_type_standardized": "hsc", "snapped_lon": 85.848023, "snapped_lat": 19.802109 }, "geometry": { "type": "Point", "coordinates": [ 85.848023, 19.802109 ] } },
{ "type": "Feature", "properties": { "Statename": "Odisha", "Districtname": "Puri", "Subdistrictname": "Chandanpur", "Blockname": "Sadar", "Healthblockname": "Sadar", "Healthfacilitytype": "health sub centre", "Facilityname": "Sasan Damodarpur", "NIN": 1111558852, "latitude": 19.82125, "longitude": 85.7858, "facility_type_standardized": "hsc", "snapped_lon": 85.848023, "snapped_lat": 19.802109 }, "geometry": { "type": "Point", "coordinates": [ 85.848023, 19.802109 ] } },
{ "type": "Feature", "properties": { "Statename": "Odisha", "Districtname": "Puri", "Subdistrictname": "Chandanpur", "Blockname": "Sadar", "Healthblockname": "Sadar", "Healthfacilitytype": "health sub centre", "Facilityname": "Dobandha", "NIN": 1111554687, "latitude": 19.82208, "longitude": 85.88134, "facility_type_standardized": "hsc", "snapped_lon": 85.848023, "snapped_lat": 19.802109 }, "geometry": { "type": "Point", "coordinates": [ 85.848023, 19.802109 ] } },
{ "type": "Feature", "properties": { "Statename": "Odisha", "Districtname": "Puri", "Subdistrictname": "Brahmagiri", "Blockname": "Brahmagiri", "Healthblockname": "Brahmagiri", "Healthfacilitytype": "health sub centre", "Facilityname": "Dahanigadia", "NIN": 1111487151, "latitude": 19.82311, "longitude": 85.62256, "facility_type_standardized": "hsc", "snapped_lon": 85.848023, "snapped_lat": 19.802109 }, "geometry": { "type": "Point", "coordinates": [ 85.848023, 19.802109 ] } },
{ "type": "Feature", "properties": { "Statename": "Odisha", "Districtname": "Puri", "Subdistrictname": "Brahmagiri", "Blockname": "Brahmagiri", "Healthblockname": "Brahmagiri", "Healthfacilitytype": "health sub centre", "Facilityname": "Lambitala", "NIN": 1111526784, "latitude": 19.82664, "longitude": 85.72172, "facility_type_standardized": "hsc", "snapped_lon": 85.848023, "snapped_lat": 19.802109 }, "geometry": { "type": "Point", "coordinates": [ 85.848023, 19.802109 ] } },
{ "type": "Feature", "properties": { "Statename": "Odisha", "Districtname": "Puri", "Subdistrictname": "Brahmagiri", "Blockname": "Brahmagiri", "Healthblockname": "Brahmagiri", "Healthfacilitytype": "health sub centre", "Facilityname": "Ghanapana", "NIN": 1111514871, "latitude": 19.82672, "longitude": 85.67387, "facility_type_standardized": "hsc", "snapped_lon": 85.848023, "snapped_lat": 19.802109 }, "geometry": { "type": "Point", "coordinates": [ 85.848023, 19.802109 ] } },
{ "type": "Feature", "properties": { "Statename": "Odisha", "Districtname": "Puri", "Subdistrictname": "Brahmagiri", "Blockname": "Brahmagiri", "Healthblockname": "Brahmagiri", "Healthfacilitytype": "health sub centre", "Facilityname": "Kankuda", "NIN": 1111517841, "latitude": 19.83293, "longitude": 85.75012, "facility_type_standardized": "hsc", "snapped_lon": 85.848023, "snapped_lat": 19.802109 }, "geometry": { "type": "Point", "coordinates": [ 85.848023, 19.802109 ] } },
{ "type": "Feature", "properties": { "Statename": "Odisha", "Districtname": "Puri", "Subdistrictname": "Brahmagiri", "Blockname": "Brahmagiri", "Healthblockname": "Brahmagiri", "Healthfacilitytype": "health sub centre", "Facilityname": "Kapileswarpur", "NIN": 1111518385, "latitude": 19.84275, "longitude": 85.72962, "facility_type_standardized": "hsc", "snapped_lon": 85.848023, "snapped_lat": 19.802109 }, "geometry": { "type": "Point", "coordinates": [ 85.848023, 19.802109 ] } },
{ "type": "Feature", "properties": { "Statename": "Odisha", "Districtname": "Puri", "Subdistrictname": "Brahmagiri", "Blockname": "Brahmagiri", "Healthblockname": "Brahmagiri", "Healthfacilitytype": "health sub centre", "Facilityname": "Manapada", "NIN": 1111526842, "latitude": 19.84312, "longitude": 85.63415, "facility_type_standardized": "hsc", "snapped_lon": 85.848023, "snapped_lat": 19.802109 }, "geometry": { "type": "Point", "coordinates": [ 85.848023, 19.802109 ] } },
{ "type": "Feature", "properties": { "Statename": "Odisha", "Districtname": "Puri", "Subdistrictname": "Chandanpur", "Blockname": "Sadar", "Healthblockname": "Sadar", "Healthfacilitytype": "health sub centre", "Facilityname": "Biraharekrushnapur", "NIN": 1111548358, "latitude": 19.84384, "longitude": 85.83518, "facility_type_standardized": "hsc", "snapped_lon": 85.848023, "snapped_lat": 19.802109 }, "geometry": { "type": "Point", "coordinates": [ 85.848023, 19.802109 ] } },
{ "type": "Feature", "properties": { "Statename": "Odisha", "Districtname": "Puri", "Subdistrictname": "Brahmagiri", "Blockname": "Brahmagiri", "Healthblockname": "Brahmagiri", "Healthfacilitytype": "health sub centre", "Facilityname": "Golara", "NIN": 1111517486, "latitude": 19.84911, "longitude": 85.60147, "facility_type_standardized": "hsc", "snapped_lon": 85.848023, "snapped_lat": 19.802109 }, "geometry": { "type": "Point", "coordinates": [ 85.848023, 19.802109 ] } },
{ "type": "Feature", "properties": { "Statename": "Odisha", "Districtname": "Puri", "Subdistrictname": "Gop", "Blockname": "Gop", "Healthblockname": "Gopa", "Healthfacilitytype": "health sub centre", "Facilityname": "Chhaitana", "NIN": 1111533384, "latitude": 19.85092, "longitude": 85.93978, "facility_type_standardized": "hsc", "snapped_lon": 85.848023, "snapped_lat": 19.802109 }, "geometry": { "type": "Point", "coordinates": [ 85.848023, 19.802109 ] } },
{ "type": "Feature", "properties": { "Statename": "Odisha", "Districtname": "Puri", "Subdistrictname": "Brahmagiri", "Blockname": "Brahmagiri", "Healthblockname": "Brahmagiri", "Healthfacilitytype": "health sub centre", "Facilityname": "Gadakokhala", "NIN": 1111487516, "latitude": 19.85568, "longitude": 85.6991, "facility_type_standardized": "hsc", "snapped_lon": 85.848023, "snapped_lat": 19.802109 }, "geometry": { "type": "Point", "coordinates": [ 85.848023, 19.802109 ] } },
{ "type": "Feature", "properties": { "Statename": "Odisha", "Districtname": "Puri", "Subdistrictname": "Brahmagiri", "Blockname": "Brahmagiri", "Healthblockname": "Brahmagiri", "Healthfacilitytype": "health sub centre", "Facilityname": "Ranapada", "NIN": 1111527477, "latitude": 19.85697, "longitude": 85.63015, "facility_type_standardized": "hsc", "snapped_lon": 85.848023, "snapped_lat": 19.802109 }, "geometry": { "type": "Point", "coordinates": [ 85.848023, 19.802109 ] } },
{ "type": "Feature", "properties": { "Statename": "Odisha", "Districtname": "Puri", "Subdistrictname": "Chandanpur", "Blockname": "Sadar", "Healthblockname": "Sadar", "Healthfacilitytype": "health sub centre", "Facilityname": "Talajanga", "NIN": 1111563381, "latitude": 19.85718, "longitude": 85.81301, "facility_type_standardized": "hsc", "snapped_lon": 85.848023, "snapped_lat": 19.802109 }, "geometry": { "type": "Point", "coordinates": [ 85.848023, 19.802109 ] } },
{ "type": "Feature", "properties": { "Statename": "Odisha", "Districtname": "Puri", "Subdistrictname": "Gop", "Blockname": "Gop", "Healthblockname": "Gopa", "Healthfacilitytype": "health sub centre", "Facilityname": "Bhuan", "NIN": 1111528822, "latitude": 19.86089, "longitude": 85.95122, "facility_type_standardized": "hsc", "snapped_lon": 85.848023, "snapped_lat": 19.802109 }, "geometry": { "type": "Point", "coordinates": [ 85.848023, 19.802109 ] } },
{ "type": "Feature", "properties": { "Statename": "Odisha", "Districtname": "Puri", "Subdistrictname": "Chandanpur", "Blockname": "Sadar", "Healthblockname": "Sadar", "Healthfacilitytype": "health sub centre", "Facilityname": "Baliguali", "NIN": 1111547574, "latitude": 19.86636, "longitude": 85.84644, "facility_type_standardized": "hsc", "snapped_lon": 85.848023, "snapped_lat": 19.802109 }, "geometry": { "type": "Point", "coordinates": [ 85.848023, 19.802109 ] } },
{ "type": "Feature", "properties": { "Statename": "Odisha", "Districtname": "Puri", "Subdistrictname": "Gop", "Blockname": "Gop", "Healthblockname": "Gopa", "Healthfacilitytype": "health sub centre", "Facilityname": "Basudeipur", "NIN": 1111528640, "latitude": 19.86763, "longitude": 86.0297, "facility_type_standardized": "hsc", "snapped_lon": 86.194935, "snapped_lat": 19.940911 }, "geometry": { "type": "Point", "coordinates": [ 86.194935, 19.940911 ] } },
{ "type": "Feature", "properties": { "Statename": "Odisha", "Districtname": "Puri", "Subdistrictname": "Chandanpur", "Blockname": "Sadar", "Healthblockname": "Sadar", "Healthfacilitytype": "health sub centre", "Facilityname": "Hantuka", "NIN": 1111557383, "latitude": 19.87023, "longitude": 85.75319, "facility_type_standardized": "hsc", "snapped_lon": 85.848023, "snapped_lat": 19.802109 }, "geometry": { "type": "Point", "coordinates": [ 85.848023, 19.802109 ] } },
{ "type": "Feature", "properties": { "Statename": "Odisha", "Districtname": "Puri", "Subdistrictname": "Brahmagiri", "Blockname": "Brahmagiri", "Healthblockname": "Brahmagiri", "Healthfacilitytype": "health sub centre", "Facilityname": "Ramachandrapur", "NIN": 1111486161, "latitude": 19.87169, "longitude": 85.66906, "facility_type_standardized": "hsc", "snapped_lon": 85.848023, "snapped_lat": 19.802109 }, "geometry": { "type": "Point", "coordinates": [ 85.848023, 19.802109 ] } },
{ "type": "Feature", "properties": { "Statename": "Odisha", "Districtname": "Puri", "Subdistrictname": "Chandanpur", "Blockname": "Sadar", "Healthblockname": "Sadar", "Healthfacilitytype": "health sub centre", "Facilityname": "Malatipatapur", "NIN": 1111557748, "latitude": 19.87653, "longitude": 85.82363, "facility_type_standardized": "hsc", "snapped_lon": 85.848023, "snapped_lat": 19.802109 }, "geometry": { "type": "Point", "coordinates": [ 85.848023, 19.802109 ] } },
{ "type": "Feature", "properties": { "Statename": "Odisha", "Districtname": "Puri", "Subdistrictname": "Chandanpur", "Blockname": "Sadar", "Healthblockname": "Sadar", "Healthfacilitytype": "health sub centre", "Facilityname": "Chamarakera", "NIN": 1111548713, "latitude": 19.87687, "longitude": 85.88847, "facility_type_standardized": "hsc", "snapped_lon": 85.848023, "snapped_lat": 19.802109 }, "geometry": { "type": "Point", "coordinates": [ 85.848023, 19.802109 ] } },
{ "type": "Feature", "properties": { "Statename": "Odisha", "Districtname": "Puri", "Subdistrictname": "Chandanpur", "Blockname": "Sadar", "Healthblockname": "Sadar", "Healthfacilitytype": "health sub centre", "Facilityname": "Pratapa Purusottampur", "NIN": 1111558373, "latitude": 19.87799, "longitude": 85.77425, "facility_type_standardized": "hsc", "snapped_lon": 85.848023, "snapped_lat": 19.802109 }, "geometry": { "type": "Point", "coordinates": [ 85.848023, 19.802109 ] } },
{ "type": "Feature", "properties": { "Statename": "Odisha", "Districtname": "Puri", "Subdistrictname": "Gop", "Blockname": "Gop", "Healthblockname": "Gopa", "Healthfacilitytype": "health sub centre", "Facilityname": "Dalani", "NIN": 1111533681, "latitude": 19.88328, "longitude": 86.07428, "facility_type_standardized": "hsc", "snapped_lon": 86.194935, "snapped_lat": 19.940911 }, "geometry": { "type": "Point", "coordinates": [ 86.194935, 19.940911 ] } },
{ "type": "Feature", "properties": { "Statename": "Odisha", "Districtname": "Puri", "Subdistrictname": "Chandanpur", "Blockname": "Sadar", "Healthblockname": "Sadar", "Healthfacilitytype": "health sub centre", "Facilityname": "Siruli", "NIN": 1111562789, "latitude": 19.88341, "longitude": 85.70833, "facility_type_standardized": "hsc", "snapped_lon": 85.848023, "snapped_lat": 19.802109 }, "geometry": { "type": "Point", "coordinates": [ 85.848023, 19.802109 ] } },
{ "type": "Feature", "properties": { "Statename": "Odisha", "Districtname": "Puri", "Subdistrictname": "Gop", "Blockname": "Gop", "Healthblockname": "Gopa", "Healthfacilitytype": "health sub centre", "Facilityname": "Inchera", "NIN": 1111534671, "latitude": 19.88631, "longitude": 85.98137, "facility_type_standardized": "hsc", "snapped_lon": 85.848023, "snapped_lat": 19.802109 }, "geometry": { "type": "Point", "coordinates": [ 85.848023, 19.802109 ] } },
{ "type": "Feature", "properties": { "Statename": "Odisha", "Districtname": "Puri", "Subdistrictname": "Chandanpur", "Blockname": "Sadar", "Healthblockname": "Sadar", "Healthfacilitytype": "health sub centre", "Facilityname": "Chandanpur", "NIN": 1111547459, "latitude": 19.88666, "longitude": 85.81759, "facility_type_standardized": "hsc", "snapped_lon": 85.848023, "snapped_lat": 19.802109 }, "geometry": { "type": "Point", "coordinates": [ 85.848023, 19.802109 ] } },
{ "type": "Feature", "properties": { "Statename": "Odisha", "Districtname": "Puri", "Subdistrictname": "Chandanpur", "Blockname": "Sadar", "Healthblockname": "Sadar", "Healthfacilitytype": "health sub centre", "Facilityname": "Chalisbatia", "NIN": 1111548564, "latitude": 19.88746, "longitude": 85.8571, "facility_type_standardized": "hsc", "snapped_lon": 85.848023, "snapped_lat": 19.802109 }, "geometry": { "type": "Point", "coordinates": [ 85.848023, 19.802109 ] } },
{ "type": "Feature", "properties": { "Statename": "Odisha", "Districtname": "Puri", "Subdistrictname": "Brahmagiri", "Blockname": "Brahmagiri", "Healthblockname": "Brahmagiri", "Healthfacilitytype": "health sub centre", "Facilityname": "Palli", "NIN": 1111527444, "latitude": 19.88897, "longitude": 85.6836, "facility_type_standardized": "hsc", "snapped_lon": 85.848023, "snapped_lat": 19.802109 }, "geometry": { "type": "Point", "coordinates": [ 85.848023, 19.802109 ] } },
{ "type": "Feature", "properties": { "Statename": "Odisha", "Districtname": "Puri", "Subdistrictname": "Gop", "Blockname": "Gop", "Healthblockname": "Gopa", "Healthfacilitytype": "health sub centre", "Facilityname": "Sutan", "NIN": 1111537583, "latitude": 19.88993, "longitude": 86.04133, "facility_type_standardized": "hsc", "snapped_lon": 86.194935, "snapped_lat": 19.940911 }, "geometry": { "type": "Point", "coordinates": [ 86.194935, 19.940911 ] } },
{ "type": "Feature", "properties": { "Statename": "Odisha", "Districtname": "Puri", "Subdistrictname": "Chandanpur", "Blockname": "Sadar", "Healthblockname": "Sadar", "Healthfacilitytype": "health sub centre", "Facilityname": "Kanhei Bidyadharpur", "NIN": 1111557474, "latitude": 19.89373, "longitude": 85.72163, "facility_type_standardized": "hsc", "snapped_lon": 85.848023, "snapped_lat": 19.802109 }, "geometry": { "type": "Point", "coordinates": [ 85.848023, 19.802109 ] } },
{ "type": "Feature", "properties": { "Statename": "Odisha", "Districtname": "Puri", "Subdistrictname": "Chandanpur", "Blockname": "Sadar", "Healthblockname": "Sadar", "Healthfacilitytype": "health sub centre", "Facilityname": "Gaudakera", "NIN": 1111556849, "latitude": 19.89457, "longitude": 85.7283, "facility_type_standardized": "hsc", "snapped_lon": 85.848023, "snapped_lat": 19.802109 }, "geometry": { "type": "Point", "coordinates": [ 85.848023, 19.802109 ] } },
{ "type": "Feature", "properties": { "Statename": "Odisha", "Districtname": "Puri", "Subdistrictname": "Kakatpur", "Blockname": "Kakat Pur", "Healthblockname": "Kakatapur", "Healthfacilitytype": "health sub centre", "Facilityname": "Ahmunia Patna", "NIN": 1111466759, "latitude": 19.89675, "longitude": 86.12256, "facility_type_standardized": "hsc", "snapped_lon": 86.194935, "snapped_lat": 19.940911 }, "geometry": { "type": "Point", "coordinates": [ 86.194935, 19.940911 ] } },
{ "type": "Feature", "properties": { "Statename": "Odisha", "Districtname": "Puri", "Subdistrictname": "Gop", "Blockname": "Gopa", "Healthblockname": "Gopa", "Healthfacilitytype": "health sub centre", "Facilityname": "Konark", "NIN": 1111536387, "latitude": 19.89734, "longitude": 86.09037, "facility_type_standardized": "hsc", "snapped_lon": 86.194935, "snapped_lat": 19.940911 }, "geometry": { "type": "Point", "coordinates": [ 86.194935, 19.940911 ] } },
{ "type": "Feature", "properties": { "Statename": "Odisha", "Districtname": "Puri", "Subdistrictname": "Gadisagada", "Blockname": "Kanas", "Healthblockname": "Kanas", "Healthfacilitytype": "health sub centre", "Facilityname": "Karamala", "NIN": 1111564827, "latitude": 19.89753, "longitude": 85.6466, "facility_type_standardized": "hsc", "snapped_lon": 85.848023, "snapped_lat": 19.802109 }, "geometry": { "type": "Point", "coordinates": [ 85.848023, 19.802109 ] } },
{ "type": "Feature", "properties": { "Statename": "Odisha", "Districtname": "Puri", "Subdistrictname": "Chandanpur", "Blockname": "Sadar", "Healthblockname": "Sadar", "Healthfacilitytype": "health sub centre", "Facilityname": "Ganganarayanpur", "NIN": 1111555882, "latitude": 19.89826, "longitude": 85.83684, "facility_type_standardized": "hsc", "snapped_lon": 85.848023, "snapped_lat": 19.802109 }, "geometry": { "type": "Point", "coordinates": [ 85.848023, 19.802109 ] } },
{ "type": "Feature", "properties": { "Statename": "Odisha", "Districtname": "Puri", "Subdistrictname": "Chandanpur", "Blockname": "Sadar", "Healthblockname": "Sadar", "Healthfacilitytype": "health sub centre", "Facilityname": "Pratapramachandrapur", "NIN": 1111558589, "latitude": 19.89975, "longitude": 85.77084, "facility_type_standardized": "hsc", "snapped_lon": 85.848023, "snapped_lat": 19.802109 }, "geometry": { "type": "Point", "coordinates": [ 85.848023, 19.802109 ] } },
{ "type": "Feature", "properties": { "Statename": "Odisha", "Districtname": "Puri", "Subdistrictname": "Gop", "Blockname": "Gop", "Healthblockname": "Gopa", "Healthfacilitytype": "health sub centre", "Facilityname": "Kanpur", "NIN": 1111528434, "latitude": 19.90166, "longitude": 85.9647, "facility_type_standardized": "hsc", "snapped_lon": 85.848023, "snapped_lat": 19.802109 }, "geometry": { "type": "Point", "coordinates": [ 85.848023, 19.802109 ] } },
{ "type": "Feature", "properties": { "Statename": "Odisha", "Districtname": "Puri", "Subdistrictname": "Kakatpur", "Blockname": "Kakat Pur", "Healthblockname": "Kakatapur", "Healthfacilitytype": "health sub centre", "Facilityname": "Fakirsahi", "NIN": 1111467237, "latitude": 19.90194, "longitude": 86.20985, "facility_type_standardized": "hsc", "snapped_lon": 86.222329, "snapped_lat": 19.908991 }, "geometry": { "type": "Point", "coordinates": [ 86.222329, 19.908991 ] } },
{ "type": "Feature", "properties": { "Statename": "Odisha", "Districtname": "Puri", "Subdistrictname": "Chandanpur", "Blockname": "Sadar", "Healthblockname": "Sadar", "Healthfacilitytype": "health sub centre", "Facilityname": "Gadamrugasira", "NIN": 1111554836, "latitude": 19.91037, "longitude": 85.89925, "facility_type_standardized": "hsc", "snapped_lon": 85.848023, "snapped_lat": 19.802109 }, "geometry": { "type": "Point", "coordinates": [ 85.848023, 19.802109 ] } },
{ "type": "Feature", "properties": { "Statename": "Odisha", "Districtname": "Puri", "Subdistrictname": "Chandanpur", "Blockname": "Sadar", "Healthblockname": "Sadar", "Healthfacilitytype": "health sub centre", "Facilityname": "Rua", "NIN": 1111558738, "latitude": 19.91063, "longitude": 85.75343, "facility_type_standardized": "hsc", "snapped_lon": 85.848023, "snapped_lat": 19.802109 }, "geometry": { "type": "Point", "coordinates": [ 85.848023, 19.802109 ] } },
{ "type": "Feature", "properties": { "Statename": "Odisha", "Districtname": "Puri", "Subdistrictname": "Chandanpur", "Blockname": "Sadar", "Healthblockname": "Sadar", "Healthfacilitytype": "health sub centre", "Facilityname": "Balipada", "NIN": 1111547368, "latitude": 19.91068, "longitude": 85.85937, "facility_type_standardized": "hsc", "snapped_lon": 85.848023, "snapped_lat": 19.802109 }, "geometry": { "type": "Point", "coordinates": [ 85.848023, 19.802109 ] } },
{ "type": "Feature", "properties": { "Statename": "Odisha", "Districtname": "Puri", "Subdistrictname": "Chandanpur", "Blockname": "Sadar", "Healthblockname": "Sadar", "Healthfacilitytype": "health sub centre", "Facilityname": "Olla", "NIN": 1111558340, "latitude": 19.91254, "longitude": 85.71434, "facility_type_standardized": "hsc", "snapped_lon": 85.848023, "snapped_lat": 19.802109 }, "geometry": { "type": "Point", "coordinates": [ 85.848023, 19.802109 ] } },
{ "type": "Feature", "properties": { "Statename": "Odisha", "Districtname": "Puri", "Subdistrictname": "Kakatpur", "Blockname": "Kakat Pur", "Healthblockname": "Kakatapur", "Healthfacilitytype": "health sub centre", "Facilityname": "Gambharipada", "NIN": 1111467534, "latitude": 19.91267, "longitude": 86.15154, "facility_type_standardized": "hsc", "snapped_lon": 86.194935, "snapped_lat": 19.940911 }, "geometry": { "type": "Point", "coordinates": [ 86.194935, 19.940911 ] } },
{ "type": "Feature", "properties": { "Statename": "Odisha", "Districtname": "Puri", "Subdistrictname": "Satyabadi", "Blockname": "Satyabadi", "Healthblockname": "Satyabadi", "Healthfacilitytype": "health sub centre", "Facilityname": "Dugal", "NIN": 1111547335, "latitude": 19.91836, "longitude": 85.84812, "facility_type_standardized": "hsc", "snapped_lon": 85.848023, "snapped_lat": 19.802109 }, "geometry": { "type": "Point", "coordinates": [ 85.848023, 19.802109 ] } },
{ "type": "Feature", "properties": { "Statename": "Odisha", "Districtname": "Puri", "Subdistrictname": "Gop", "Blockname": "Gop", "Healthblockname": "Gopa", "Healthfacilitytype": "health sub centre", "Facilityname": "Badatara", "NIN": 1111528467, "latitude": 19.91855, "longitude": 86.03686, "facility_type_standardized": "hsc", "snapped_lon": 86.194935, "snapped_lat": 19.940911 }, "geometry": { "type": "Point", "coordinates": [ 86.194935, 19.940911 ] } },
{ "type": "Feature", "properties": { "Statename": "Odisha", "Districtname": "Puri", "Subdistrictname": "Chandanpur", "Blockname": "Sadar", "Healthblockname": "Sadar", "Healthfacilitytype": "health sub centre", "Facilityname": "Baliput", "NIN": 1111547814, "latitude": 19.92223, "longitude": 85.93405, "facility_type_standardized": "hsc", "snapped_lon": 85.848023, "snapped_lat": 19.802109 }, "geometry": { "type": "Point", "coordinates": [ 85.848023, 19.802109 ] } },
{ "type": "Feature", "properties": { "Statename": "Odisha", "Districtname": "Puri", "Subdistrictname": "Gadisagada", "Blockname": "Kanas", "Healthblockname": "Kanas", "Healthfacilitytype": "health sub centre", "Facilityname": "Gadisagada", "NIN": 1111566772, "latitude": 19.92273, "longitude": 85.60118, "facility_type_standardized": "hsc", "snapped_lon": 85.848023, "snapped_lat": 19.802109 }, "geometry": { "type": "Point", "coordinates": [ 85.848023, 19.802109 ] } },
{ "type": "Feature", "properties": { "Statename": "Odisha", "Districtname": "Puri", "Subdistrictname": "Satyabadi", "Blockname": "Satyabadi", "Healthblockname": "Satyabadi", "Healthfacilitytype": "health sub centre", "Facilityname": "Mula Alasa", "NIN": 1111547632, "latitude": 19.92465, "longitude": 85.80434, "facility_type_standardized": "hsc", "snapped_lon": 85.848023, "snapped_lat": 19.802109 }, "geometry": { "type": "Point", "coordinates": [ 85.848023, 19.802109 ] } },
{ "type": "Feature", "properties": { "Statename": "Odisha", "Districtname": "Puri", "Subdistrictname": "Gop", "Blockname": "Gop", "Healthblockname": "Gopa", "Healthfacilitytype": "health sub centre", "Facilityname": "Serada", "NIN": 1111536866, "latitude": 19.92553, "longitude": 86.06793, "facility_type_standardized": "hsc", "snapped_lon": 86.194935, "snapped_lat": 19.940911 }, "geometry": { "type": "Point", "coordinates": [ 86.194935, 19.940911 ] } },
{ "type": "Feature", "properties": { "Statename": "Odisha", "Districtname": "Puri", "Subdistrictname": "Gadisagada", "Blockname": "Kanas", "Healthblockname": "Kanas", "Healthfacilitytype": "health sub centre", "Facilityname": "Sahaspur", "NIN": 1111564280, "latitude": 19.92657, "longitude": 85.58566, "facility_type_standardized": "hsc", "snapped_lon": 85.848023, "snapped_lat": 19.802109 }, "geometry": { "type": "Point", "coordinates": [ 85.848023, 19.802109 ] } },
{ "type": "Feature", "properties": { "Statename": "Odisha", "Districtname": "Puri", "Subdistrictname": "Gadisagada", "Blockname": "Kanas", "Healthblockname": "Kanas", "Healthfacilitytype": "health sub centre", "Facilityname": "Jaguleipadar", "NIN": 1111566384, "latitude": 19.92697, "longitude": 85.59543, "facility_type_standardized": "hsc", "snapped_lon": 85.848023, "snapped_lat": 19.802109 }, "geometry": { "type": "Point", "coordinates": [ 85.848023, 19.802109 ] } },
{ "type": "Feature", "properties": { "Statename": "Odisha", "Districtname": "Puri", "Subdistrictname": "Kakatpur", "Blockname": "Kakat Pur", "Healthblockname": "Kakatapur", "Healthfacilitytype": "health sub centre", "Facilityname": "Chitraswari", "NIN": 1111467179, "latitude": 19.92722, "longitude": 86.11709, "facility_type_standardized": "hsc", "snapped_lon": 86.194935, "snapped_lat": 19.940911 }, "geometry": { "type": "Point", "coordinates": [ 86.194935, 19.940911 ] } },
{ "type": "Feature", "properties": { "Statename": "Odisha", "Districtname": "Puri", "Subdistrictname": "Chandanpur", "Blockname": "Sadar", "Healthblockname": "Sadar", "Healthfacilitytype": "health sub centre", "Facilityname": "Mukteswar", "NIN": 1111557839, "latitude": 19.92753, "longitude": 85.88134, "facility_type_standardized": "hsc", "snapped_lon": 85.848023, "snapped_lat": 19.802109 }, "geometry": { "type": "Point", "coordinates": [ 85.848023, 19.802109 ] } },
{ "type": "Feature", "properties": { "Statename": "Odisha", "Districtname": "Puri", "Subdistrictname": "Astaranga", "Blockname": "Astaranga", "Healthblockname": "Astaranga", "Healthfacilitytype": "health sub centre", "Facilityname": "Badaola", "NIN": 1111481428, "latitude": 19.92777, "longitude": 86.2345, "facility_type_standardized": "hsc", "snapped_lon": 86.227804, "snapped_lat": 19.923765 }, "geometry": { "type": "Point", "coordinates": [ 86.227804, 19.923765 ] } },
{ "type": "Feature", "properties": { "Statename": "Odisha", "Districtname": "Puri", "Subdistrictname": "Gop", "Blockname": "Gop", "Healthblockname": "Gopa", "Healthfacilitytype": "health sub centre", "Facilityname": "simili", "NIN": 1111537286, "latitude": 19.92837, "longitude": 86.09487, "facility_type_standardized": "hsc", "snapped_lon": 86.194935, "snapped_lat": 19.940911 }, "geometry": { "type": "Point", "coordinates": [ 86.194935, 19.940911 ] } },
{ "type": "Feature", "properties": { "Statename": "Odisha", "Districtname": "Puri", "Subdistrictname": "Gadisagada", "Blockname": "Kanas", "Healthblockname": "Kanas", "Healthfacilitytype": "health sub centre", "Facilityname": "Jharada", "NIN": 1111565840, "latitude": 19.92899, "longitude": 85.65967, "facility_type_standardized": "hsc", "snapped_lon": 85.848023, "snapped_lat": 19.802109 }, "geometry": { "type": "Point", "coordinates": [ 85.848023, 19.802109 ] } },
{ "type": "Feature", "properties": { "Statename": "Odisha", "Districtname": "Puri", "Subdistrictname": "Satyabadi", "Blockname": "Satyabadi", "Healthblockname": "Satyabadi", "Healthfacilitytype": "health sub centre", "Facilityname": "Sukal", "NIN": 1111553788, "latitude": 19.93192, "longitude": 85.70573, "facility_type_standardized": "hsc", "snapped_lon": 85.848023, "snapped_lat": 19.802109 }, "geometry": { "type": "Point", "coordinates": [ 85.848023, 19.802109 ] } },
{ "type": "Feature", "properties": { "Statename": "Odisha", "Districtname": "Puri", "Subdistrictname": "Kakatpur", "Blockname": "Kakat Pur", "Healthblockname": "Kakatapur", "Healthfacilitytype": "health sub centre", "Facilityname": "Kotanga", "NIN": 1111468169, "latitude": 19.93236, "longitude": 86.16469, "facility_type_standardized": "hsc", "snapped_lon": 86.194935, "snapped_lat": 19.940911 }, "geometry": { "type": "Point", "coordinates": [ 86.194935, 19.940911 ] } },
{ "type": "Feature", "properties": { "Statename": "Odisha", "Districtname": "Puri", "Subdistrictname": "Gadisagada", "Blockname": "Kanas", "Healthblockname": "Kanas", "Healthfacilitytype": "health sub centre", "Facilityname": "Adala", "NIN": 1111564678, "latitude": 19.93259, "longitude": 85.57163, "facility_type_standardized": "hsc", "snapped_lon": 85.494435, "snapped_lat": 20.222066 }, "geometry": { "type": "Point", "coordinates": [ 85.494435, 20.222066 ] } },
{ "type": "Feature", "properties": { "Statename": "Odisha", "Districtname": "Puri", "Subdistrictname": "Gop", "Blockname": "Gop", "Healthblockname": "Gopa", "Healthfacilitytype": "health sub centre", "Facilityname": "Nagapur", "NIN": 1111536775, "latitude": 19.93348, "longitude": 86.01274, "facility_type_standardized": "hsc", "snapped_lon": 86.194935, "snapped_lat": 19.940911 }, "geometry": { "type": "Point", "coordinates": [ 86.194935, 19.940911 ] } },
{ "type": "Feature", "properties": { "Statename": "Odisha", "Districtname": "Puri", "Subdistrictname": "Gadisagada", "Blockname": "Kanas", "Healthblockname": "Kanas", "Healthfacilitytype": "health sub centre", "Facilityname": "Mandarbasta", "NIN": 1111564645, "latitude": 19.93496, "longitude": 85.54611, "facility_type_standardized": "hsc", "snapped_lon": 85.494435, "snapped_lat": 20.222066 }, "geometry": { "type": "Point", "coordinates": [ 85.494435, 20.222066 ] } },
{ "type": "Feature", "properties": { "Statename": "Odisha", "Districtname": "Puri", "Subdistrictname": "Gop", "Blockname": "Gop", "Healthblockname": "Gopa", "Healthfacilitytype": "health sub centre", "Facilityname": "Nayahat", "NIN": 1111528343, "latitude": 19.93501, "longitude": 85.97627, "facility_type_standardized": "hsc", "snapped_lon": 85.848023, "snapped_lat": 19.802109 }, "geometry": { "type": "Point", "coordinates": [ 85.848023, 19.802109 ] } },
{ "type": "Feature", "properties": { "Statename": "Odisha", "Districtname": "Puri", "Subdistrictname": "Kakatpur", "Blockname": "Kakat Pur", "Healthblockname": "Kakatapur", "Healthfacilitytype": "health sub centre", "Facilityname": "Bangurigaon", "NIN": 1111467146, "latitude": 19.93622, "longitude": 86.19412, "facility_type_standardized": "hsc", "snapped_lon": 86.196852, "snapped_lat": 19.939388 }, "geometry": { "type": "Point", "coordinates": [ 86.196852, 19.939388 ] } },
{ "type": "Feature", "properties": { "Statename": "Odisha", "Districtname": "Puri", "Subdistrictname": "Kakatpur", "Blockname": "Kakat Pur", "Healthblockname": "Kakatapur", "Healthfacilitytype": "health sub centre", "Facilityname": "Nasikeswar", "NIN": 1111468250, "latitude": 19.93917, "longitude": 86.20454, "facility_type_standardized": "hsc", "snapped_lon": 86.201931, "snapped_lat": 19.9389 }, "geometry": { "type": "Point", "coordinates": [ 86.201931, 19.9389 ] } },
{ "type": "Feature", "properties": { "Statename": "Odisha", "Districtname": "Puri", "Subdistrictname": "Gadisagada", "Blockname": "Kanas", "Healthblockname": "Kanas", "Healthfacilitytype": "health sub centre", "Facilityname": "Haraspada", "NIN": 1111566681, "latitude": 19.94046, "longitude": 85.63678, "facility_type_standardized": "hsc", "snapped_lon": 85.848023, "snapped_lat": 19.802109 }, "geometry": { "type": "Point", "coordinates": [ 85.848023, 19.802109 ] } },
{ "type": "Feature", "properties": { "Statename": "Odisha", "Districtname": "Puri", "Subdistrictname": "Satyabadi", "Blockname": "Satyabadi", "Healthblockname": "Satyabadi", "Healthfacilitytype": "health sub centre", "Facilityname": "Sriramchandrapur", "NIN": 1111546642, "latitude": 19.94171, "longitude": 85.79083, "facility_type_standardized": "hsc", "snapped_lon": 85.848023, "snapped_lat": 19.802109 }, "geometry": { "type": "Point", "coordinates": [ 85.848023, 19.802109 ] } },
{ "type": "Feature", "properties": { "Statename": "Odisha", "Districtname": "Puri", "Subdistrictname": "Satyabadi", "Blockname": "Satyabadi", "Healthblockname": "Satyabadi", "Healthfacilitytype": "health sub centre", "Facilityname": "Sakhigopal", "NIN": 1111548325, "latitude": 19.94259, "longitude": 85.8216, "facility_type_standardized": "hsc", "snapped_lon": 85.848023, "snapped_lat": 19.802109 }, "geometry": { "type": "Point", "coordinates": [ 85.848023, 19.802109 ] } },
{ "type": "Feature", "properties": { "Statename": "Odisha", "Districtname": "Puri", "Subdistrictname": "Astaranga", "Blockname": "Astaranga", "Healthblockname": "Astaranga", "Healthfacilitytype": "health sub centre", "Facilityname": "Sundar", "NIN": 1111485353, "latitude": 19.94317, "longitude": 86.26935, "facility_type_standardized": "hsc", "snapped_lon": 86.234505, "snapped_lat": 19.91605 }, "geometry": { "type": "Point", "coordinates": [ 86.234505, 19.91605 ] } },
{ "type": "Feature", "properties": { "Statename": "Odisha", "Districtname": "Puri", "Subdistrictname": "Kakatpur", "Blockname": "Kakat Pur", "Healthblockname": "Kakatapur", "Healthfacilitytype": "health sub centre", "Facilityname": "Satarash", "NIN": 1111471346, "latitude": 19.94419, "longitude": 86.14536, "facility_type_standardized": "hsc", "snapped_lon": 86.194935, "snapped_lat": 19.940911 }, "geometry": { "type": "Point", "coordinates": [ 86.194935, 19.940911 ] } },
{ "type": "Feature", "properties": { "Statename": "Odisha", "Districtname": "Puri", "Subdistrictname": "Gop", "Blockname": "Gop", "Healthblockname": "Gopa", "Healthfacilitytype": "health sub centre", "Facilityname": "Bedapur", "NIN": 1111528731, "latitude": 19.94468, "longitude": 86.03467, "facility_type_standardized": "hsc", "snapped_lon": 86.194935, "snapped_lat": 19.940911 }, "geometry": { "type": "Point", "coordinates": [ 86.194935, 19.940911 ] } },
{ "type": "Feature", "properties": { "Statename": "Odisha", "Districtname": "Puri", "Subdistrictname": "Gop", "Blockname": "Gop", "Healthblockname": "Gopa", "Healthfacilitytype": "health sub centre", "Facilityname": "Mahalpada", "NIN": 1111536742, "latitude": 19.94543, "longitude": 86.08264, "facility_type_standardized": "hsc", "snapped_lon": 86.194935, "snapped_lat": 19.940911 }, "geometry": { "type": "Point", "coordinates": [ 86.194935, 19.940911 ] } },
{ "type": "Feature", "properties": { "Statename": "Odisha", "Districtname": "Puri", "Subdistrictname": "Gop", "Blockname": "Gop", "Healthblockname": "Gopa", "Healthfacilitytype": "health sub centre", "Facilityname": "Kundisha", "NIN": 1111536445, "latitude": 19.94564, "longitude": 86.07065, "facility_type_standardized": "hsc", "snapped_lon": 86.194935, "snapped_lat": 19.940911 }, "geometry": { "type": "Point", "coordinates": [ 86.194935, 19.940911 ] } },
{ "type": "Feature", "properties": { "Statename": "Odisha", "Districtname": "Puri", "Subdistrictname": "Satyabadi", "Blockname": "Satyabadi", "Healthblockname": "Satyabadi", "Healthfacilitytype": "health sub centre", "Facilityname": "Nua Sameswarpur", "NIN": 1111547665, "latitude": 19.94846, "longitude": 85.77908, "facility_type_standardized": "hsc", "snapped_lon": 85.848023, "snapped_lat": 19.802109 }, "geometry": { "type": "Point", "coordinates": [ 85.848023, 19.802109 ] } },
{ "type": "Feature", "properties": { "Statename": "Odisha", "Districtname": "Puri", "Subdistrictname": "Gadisagada", "Blockname": "Kanas", "Healthblockname": "Kanas", "Healthfacilitytype": "health sub centre", "Facilityname": "Bindhana", "NIN": 1111565782, "latitude": 19.94908, "longitude": 85.64677, "facility_type_standardized": "hsc", "snapped_lon": 85.848023, "snapped_lat": 19.802109 }, "geometry": { "type": "Point", "coordinates": [ 85.848023, 19.802109 ] } },
{ "type": "Feature", "properties": { "Statename": "Odisha", "Districtname": "Puri", "Subdistrictname": "Gop", "Blockname": "Gop", "Healthblockname": "Gopa", "Healthfacilitytype": "health sub centre", "Facilityname": "Balibasta", "NIN": 1111528582, "latitude": 19.95101, "longitude": 85.9477, "facility_type_standardized": "hsc", "snapped_lon": 85.848023, "snapped_lat": 19.802109 }, "geometry": { "type": "Point", "coordinates": [ 85.848023, 19.802109 ] } },
{ "type": "Feature", "properties": { "Statename": "Odisha", "Districtname": "Puri", "Subdistrictname": "Satyabadi", "Blockname": "Satyabadi", "Healthblockname": "Satyabadi", "Healthfacilitytype": "health sub centre", "Facilityname": "Berhampur (Gualigorada)", "NIN": 1111545743, "latitude": 19.9516, "longitude": 85.72838, "facility_type_standardized": "hsc", "snapped_lon": 85.848023, "snapped_lat": 19.802109 }, "geometry": { "type": "Point", "coordinates": [ 85.848023, 19.802109 ] } },
{ "type": "Feature", "properties": { "Statename": "Odisha", "Districtname": "Puri", "Subdistrictname": "Satyabadi", "Blockname": "Satyabadi", "Healthblockname": "Satyabadi", "Healthfacilitytype": "health sub centre", "Facilityname": "Algum", "NIN": 1111546733, "latitude": 19.95297, "longitude": 85.74749, "facility_type_standardized": "hsc", "snapped_lon": 85.848023, "snapped_lat": 19.802109 }, "geometry": { "type": "Point", "coordinates": [ 85.848023, 19.802109 ] } },
{ "type": "Feature", "properties": { "Statename": "Odisha", "Districtname": "Puri", "Subdistrictname": "Gadisagada", "Blockname": "Kanas", "Healthblockname": "Kanas", "Healthfacilitytype": "health sub centre", "Facilityname": "Sahupad", "NIN": 1111564348, "latitude": 19.95328, "longitude": 85.57967, "facility_type_standardized": "hsc", "snapped_lon": 85.494435, "snapped_lat": 20.222066 }, "geometry": { "type": "Point", "coordinates": [ 85.494435, 20.222066 ] } },
{ "type": "Feature", "properties": { "Statename": "Odisha", "Districtname": "Puri", "Subdistrictname": "Gadisagada", "Blockname": "Kanas", "Healthblockname": "Kanas", "Healthfacilitytype": "health sub centre", "Facilityname": "Gada Kharada", "NIN": 1111565873, "latitude": 19.95412, "longitude": 85.52339, "facility_type_standardized": "hsc", "snapped_lon": 85.494435, "snapped_lat": 20.222066 }, "geometry": { "type": "Point", "coordinates": [ 85.494435, 20.222066 ] } },
{ "type": "Feature", "properties": { "Statename": "Odisha", "Districtname": "Puri", "Subdistrictname": "Satyabadi", "Blockname": "Satyabadi", "Healthblockname": "Satyabadi", "Healthfacilitytype": "health sub centre", "Facilityname": "Sarangajodi", "NIN": 1111548622, "latitude": 19.95672, "longitude": 85.8707, "facility_type_standardized": "hsc", "snapped_lon": 85.848023, "snapped_lat": 19.802109 }, "geometry": { "type": "Point", "coordinates": [ 85.848023, 19.802109 ] } },
{ "type": "Feature", "properties": { "Statename": "Odisha", "Districtname": "Puri", "Subdistrictname": "Gadisagada", "Blockname": "Kanas", "Healthblockname": "Kanas", "Healthfacilitytype": "health sub centre", "Facilityname": "Pahilundi", "NIN": 1111564439, "latitude": 19.95869, "longitude": 85.60855, "facility_type_standardized": "hsc", "snapped_lon": 85.848023, "snapped_lat": 19.802109 }, "geometry": { "type": "Point", "coordinates": [ 85.848023, 19.802109 ] } },
{ "type": "Feature", "properties": { "Statename": "Odisha", "Districtname": "Puri", "Subdistrictname": "Astaranga", "Blockname": "Astaranga", "Healthblockname": "Astaranga", "Healthfacilitytype": "health sub centre", "Facilityname": "Patalada", "NIN": 1111485148, "latitude": 19.95894, "longitude": 86.27333, "facility_type_standardized": "hsc", "snapped_lon": 86.311945, "snapped_lat": 20.000179 }, "geometry": { "type": "Point", "coordinates": [ 86.311945, 20.000179 ] } },
{ "type": "Feature", "properties": { "Statename": "Odisha", "Districtname": "Puri", "Subdistrictname": "Astaranga", "Blockname": "Astaranga", "Healthblockname": "Astaranga", "Healthfacilitytype": "health sub centre", "Facilityname": "Namaro", "NIN": 1111484216, "latitude": 19.96009, "longitude": 86.24056, "facility_type_standardized": "hsc", "snapped_lon": 86.222972, "snapped_lat": 19.927151 }, "geometry": { "type": "Point", "coordinates": [ 86.222972, 19.927151 ] } },
{ "type": "Feature", "properties": { "Statename": "Odisha", "Districtname": "Puri", "Subdistrictname": "Satyabadi", "Blockname": "Satyabadi", "Healthblockname": "Satyabadi", "Healthfacilitytype": "health sub centre", "Facilityname": "Gabakunda", "NIN": 1111547426, "latitude": 19.96061, "longitude": 85.76787, "facility_type_standardized": "hsc", "snapped_lon": 85.848023, "snapped_lat": 19.802109 }, "geometry": { "type": "Point", "coordinates": [ 85.848023, 19.802109 ] } },
{ "type": "Feature", "properties": { "Statename": "Odisha", "Districtname": "Puri", "Subdistrictname": "Astaranga", "Blockname": "Astaranga", "Healthblockname": "Astaranga", "Healthfacilitytype": "health sub centre", "Facilityname": "Saripur", "NIN": 1111485239, "latitude": 19.96109, "longitude": 86.22389, "facility_type_standardized": "hsc", "snapped_lon": 86.208571, "snapped_lat": 19.935221 }, "geometry": { "type": "Point", "coordinates": [ 86.208571, 19.935221 ] } },
{ "type": "Feature", "properties": { "Statename": "Odisha", "Districtname": "Puri", "Subdistrictname": "Kakatpur", "Blockname": "Kakat Pur", "Healthblockname": "Kakatapur", "Healthfacilitytype": "health sub centre", "Facilityname": "Kurujanga", "NIN": 1111466635, "latitude": 19.96196, "longitude": 86.1905, "facility_type_standardized": "hsc", "snapped_lon": 86.194935, "snapped_lat": 19.940911 }, "geometry": { "type": "Point", "coordinates": [ 86.194935, 19.940911 ] } },
{ "type": "Feature", "properties": { "Statename": "Odisha", "Districtname": "Puri", "Subdistrictname": "Gadisagada", "Blockname": "Kanas", "Healthblockname": "Kanas", "Healthfacilitytype": "health sub centre", "Facilityname": "Gadasahi", "NIN": 1111563472, "latitude": 19.96246, "longitude": 85.63435, "facility_type_standardized": "hsc", "snapped_lon": 85.848023, "snapped_lat": 19.802109 }, "geometry": { "type": "Point", "coordinates": [ 85.848023, 19.802109 ] } },
{ "type": "Feature", "properties": { "Statename": "Odisha", "Districtname": "Puri", "Subdistrictname": "Kakatpur", "Blockname": "Kakat Pur", "Healthblockname": "Kakatapur", "Healthfacilitytype": "health sub centre", "Facilityname": "Balidokan", "NIN": 1111466817, "latitude": 19.9628, "longitude": 86.16128, "facility_type_standardized": "hsc", "snapped_lon": 86.194935, "snapped_lat": 19.940911 }, "geometry": { "type": "Point", "coordinates": [ 86.194935, 19.940911 ] } },
{ "type": "Feature", "properties": { "Statename": "Odisha", "Districtname": "Puri", "Subdistrictname": "Satyabadi", "Blockname": "Satyabadi", "Healthblockname": "Satyabadi", "Healthfacilitytype": "health sub centre", "Facilityname": "Mahura", "NIN": 1111546584, "latitude": 19.96287, "longitude": 85.92059, "facility_type_standardized": "hsc", "snapped_lon": 85.848023, "snapped_lat": 19.802109 }, "geometry": { "type": "Point", "coordinates": [ 85.848023, 19.802109 ] } },
{ "type": "Feature", "properties": { "Statename": "Odisha", "Districtname": "Puri", "Subdistrictname": "Astaranga", "Blockname": "Astaranga", "Healthblockname": "Astaranga", "Healthfacilitytype": "health sub centre", "Facilityname": "Nuagada", "NIN": 1111478150, "latitude": 19.96339, "longitude": 86.34233, "facility_type_standardized": "hsc", "snapped_lon": 86.355016, "snapped_lat": 19.981412 }, "geometry": { "type": "Point", "coordinates": [ 86.355016, 19.981412 ] } },
{ "type": "Feature", "properties": { "Statename": "Odisha", "Districtname": "Puri", "Subdistrictname": "Gop", "Blockname": "Gop", "Healthblockname": "Gopa", "Healthfacilitytype": "health sub centre", "Facilityname": "Siso", "NIN": 1111537344, "latitude": 19.96372, "longitude": 85.99489, "facility_type_standardized": "hsc", "snapped_lon": 86.166021, "snapped_lat": 20.069067 }, "geometry": { "type": "Point", "coordinates": [ 86.166021, 20.069067 ] } },
{ "type": "Feature", "properties": { "Statename": "Odisha", "Districtname": "Puri", "Subdistrictname": "Satyabadi", "Blockname": "Satyabadi", "Healthblockname": "Satyabadi", "Healthfacilitytype": "health sub centre", "Facilityname": "Biraramchandrapur", "NIN": 1111546857, "latitude": 19.96416, "longitude": 85.81352, "facility_type_standardized": "hsc", "snapped_lon": 85.848023, "snapped_lat": 19.802109 }, "geometry": { "type": "Point", "coordinates": [ 85.848023, 19.802109 ] } },
{ "type": "Feature", "properties": { "Statename": "Odisha", "Districtname": "Puri", "Subdistrictname": "Gop", "Blockname": "Gop", "Healthblockname": "Gopa", "Healthfacilitytype": "health sub centre", "Facilityname": "Olandi", "NIN": 1111536833, "latitude": 19.96703, "longitude": 85.95868, "facility_type_standardized": "hsc", "snapped_lon": 85.848023, "snapped_lat": 19.802109 }, "geometry": { "type": "Point", "coordinates": [ 85.848023, 19.802109 ] } },
{ "type": "Feature", "properties": { "Statename": "Odisha", "Districtname": "Puri", "Subdistrictname": "Gop", "Blockname": "Gop", "Healthblockname": "Gopa", "Healthfacilitytype": "health sub centre", "Facilityname": "Birtunga", "NIN": 1111531883, "latitude": 19.9705, "longitude": 86.0647, "facility_type_standardized": "hsc", "snapped_lon": 86.194935, "snapped_lat": 19.940911 }, "geometry": { "type": "Point", "coordinates": [ 86.194935, 19.940911 ] } },
{ "type": "Feature", "properties": { "Statename": "Odisha", "Districtname": "Puri", "Subdistrictname": "Satyabadi", "Blockname": "Satyabadi", "Healthblockname": "Satyabadi", "Healthfacilitytype": "health sub centre", "Facilityname": "Mathasahi", "NIN": 1111545776, "latitude": 19.97077, "longitude": 85.78358, "facility_type_standardized": "hsc", "snapped_lon": 85.848023, "snapped_lat": 19.802109 }, "geometry": { "type": "Point", "coordinates": [ 85.848023, 19.802109 ] } },
{ "type": "Feature", "properties": { "Statename": "Odisha", "Districtname": "Puri", "Subdistrictname": "Satyabadi", "Blockname": "Satyabadi", "Healthblockname": "Satyabadi", "Healthfacilitytype": "health sub centre", "Facilityname": "Nuagaon", "NIN": 1111545479, "latitude": 19.97214, "longitude": 85.83394, "facility_type_standardized": "hsc", "snapped_lon": 85.848023, "snapped_lat": 19.802109 }, "geometry": { "type": "Point", "coordinates": [ 85.848023, 19.802109 ] } },
{ "type": "Feature", "properties": { "Statename": "Odisha", "Districtname": "Puri", "Subdistrictname": "Satyabadi", "Blockname": "Satyabadi", "Healthblockname": "Satyabadi", "Healthfacilitytype": "health sub centre", "Facilityname": "Baral", "NIN": 1111546824, "latitude": 19.97282, "longitude": 85.85099, "facility_type_standardized": "hsc", "snapped_lon": 85.848023, "snapped_lat": 19.802109 }, "geometry": { "type": "Point", "coordinates": [ 85.848023, 19.802109 ] } },
{ "type": "Feature", "properties": { "Statename": "Odisha", "Districtname": "Puri", "Subdistrictname": "Gop", "Blockname": "Gop", "Healthblockname": "Gopa", "Healthfacilitytype": "health sub centre", "Facilityname": "Sorava", "NIN": 1111537435, "latitude": 19.97311, "longitude": 86.14037, "facility_type_standardized": "hsc", "snapped_lon": 86.194935, "snapped_lat": 19.940911 }, "geometry": { "type": "Point", "coordinates": [ 86.194935, 19.940911 ] } },
{ "type": "Feature", "properties": { "Statename": "Odisha", "Districtname": "Puri", "Subdistrictname": "Astaranga", "Blockname": "Astaranga", "Healthblockname": "Astaranga", "Healthfacilitytype": "health sub centre", "Facilityname": "Kendrapati", "NIN": 1111483259, "latitude": 19.97587, "longitude": 86.2288, "facility_type_standardized": "hsc", "snapped_lon": 86.208571, "snapped_lat": 19.935221 }, "geometry": { "type": "Point", "coordinates": [ 86.208571, 19.935221 ] } },
{ "type": "Feature", "properties": { "Statename": "Odisha", "Districtname": "Puri", "Subdistrictname": "Gop", "Blockname": "Gop", "Healthblockname": "Gopa", "Healthfacilitytype": "health sub centre", "Facilityname": "Erabanga", "NIN": 1111534374, "latitude": 19.97685, "longitude": 86.05065, "facility_type_standardized": "hsc", "snapped_lon": 86.166021, "snapped_lat": 20.069067 }, "geometry": { "type": "Point", "coordinates": [ 86.166021, 20.069067 ] } },
{ "type": "Feature", "properties": { "Statename": "Odisha", "Districtname": "Puri", "Subdistrictname": "Gop", "Blockname": "Gop", "Healthblockname": "Gopa", "Healthfacilitytype": "health sub centre", "Facilityname": "Dihuda", "NIN": 1111534283, "latitude": 19.9769, "longitude": 85.99869, "facility_type_standardized": "hsc", "snapped_lon": 86.166021, "snapped_lat": 20.069067 }, "geometry": { "type": "Point", "coordinates": [ 86.166021, 20.069067 ] } },
{ "type": "Feature", "properties": { "Statename": "Odisha", "Districtname": "Puri", "Subdistrictname": "Satyabadi", "Blockname": "Satyabadi", "Healthblockname": "Satyabadi", "Healthfacilitytype": "health sub centre", "Facilityname": "Bidyadharpur", "NIN": 1111546378, "latitude": 19.97748, "longitude": 85.87997, "facility_type_standardized": "hsc", "snapped_lon": 85.848023, "snapped_lat": 19.802109 }, "geometry": { "type": "Point", "coordinates": [ 85.848023, 19.802109 ] } },
{ "type": "Feature", "properties": { "Statename": "Odisha", "Districtname": "Puri", "Subdistrictname": "Astaranga", "Blockname": "Astaranga", "Healthblockname": "Astaranga", "Healthfacilitytype": "health sub centre", "Facilityname": "Jhadalinga", "NIN": 1111482327, "latitude": 19.97823, "longitude": 86.30442, "facility_type_standardized": "hsc", "snapped_lon": 86.312128, "snapped_lat": 20.000011 }, "geometry": { "type": "Point", "coordinates": [ 86.312128, 20.000011 ] } },
{ "type": "Feature", "properties": { "Statename": "Odisha", "Districtname": "Puri", "Subdistrictname": "Astaranga", "Blockname": "Astaranga", "Healthblockname": "Astaranga", "Healthfacilitytype": "health sub centre", "Facilityname": "Astaranga", "NIN": 1111473656, "latitude": 19.97857, "longitude": 86.27614, "facility_type_standardized": "hsc", "snapped_lon": 86.264409, "snapped_lat": 20.014881 }, "geometry": { "type": "Point", "coordinates": [ 86.264409, 20.014881 ] } },
{ "type": "Feature", "properties": { "Statename": "Odisha", "Districtname": "Puri", "Subdistrictname": "Satyabadi", "Blockname": "Satyabadi", "Healthblockname": "Satyabadi", "Healthfacilitytype": "health sub centre", "Facilityname": "Sadnarhata", "NIN": 1111548176, "latitude": 19.97893, "longitude": 85.78489, "facility_type_standardized": "hsc", "snapped_lon": 85.848023, "snapped_lat": 19.802109 }, "geometry": { "type": "Point", "coordinates": [ 85.848023, 19.802109 ] } },
{ "type": "Feature", "properties": { "Statename": "Odisha", "Districtname": "Puri", "Subdistrictname": "Delanga", "Blockname": "Delanga", "Healthblockname": "Delanga", "Healthfacilitytype": "health sub centre", "Facilityname": "Dhanakera", "NIN": 1111482350, "latitude": 19.97973, "longitude": 85.69721, "facility_type_standardized": "hsc", "snapped_lon": 85.848023, "snapped_lat": 19.802109 }, "geometry": { "type": "Point", "coordinates": [ 85.848023, 19.802109 ] } },
{ "type": "Feature", "properties": { "Statename": "Odisha", "Districtname": "Puri", "Subdistrictname": "Gop", "Blockname": "Gop", "Healthblockname": "Gopa", "Healthfacilitytype": "health sub centre", "Facilityname": "Khadisha", "NIN": 1111535488, "latitude": 19.98069, "longitude": 85.96018, "facility_type_standardized": "hsc", "snapped_lon": 85.848023, "snapped_lat": 19.802109 }, "geometry": { "type": "Point", "coordinates": [ 85.848023, 19.802109 ] } },
{ "type": "Feature", "properties": { "Statename": "Odisha", "Districtname": "Puri", "Subdistrictname": "Satyabadi", "Blockname": "Satyabadi", "Healthblockname": "Satyabadi", "Healthfacilitytype": "health sub centre", "Facilityname": "Balarampur", "NIN": 1111546436, "latitude": 19.98219, "longitude": 85.89809, "facility_type_standardized": "hsc", "snapped_lon": 85.848023, "snapped_lat": 19.802109 }, "geometry": { "type": "Point", "coordinates": [ 85.848023, 19.802109 ] } },
{ "type": "Feature", "properties": { "Statename": "Odisha", "Districtname": "Puri", "Subdistrictname": "Satyabadi", "Blockname": "Satyabadi", "Healthblockname": "Satyabadi", "Healthfacilitytype": "health sub centre", "Facilityname": "Das Bidyadharpur", "NIN": 1111547244, "latitude": 19.98251, "longitude": 85.75995, "facility_type_standardized": "hsc", "snapped_lon": 85.848023, "snapped_lat": 19.802109 }, "geometry": { "type": "Point", "coordinates": [ 85.848023, 19.802109 ] } },
{ "type": "Feature", "properties": { "Statename": "Odisha", "Districtname": "Puri", "Subdistrictname": "Kakatpur", "Blockname": "Kakat Pur", "Healthblockname": "Kakatapur", "Healthfacilitytype": "health sub centre", "Facilityname": "Bajapur", "NIN": 1111466726, "latitude": 19.98299, "longitude": 86.20435, "facility_type_standardized": "hsc", "snapped_lon": 86.195079, "snapped_lat": 19.940905 }, "geometry": { "type": "Point", "coordinates": [ 86.195079, 19.940905 ] } },
{ "type": "Feature", "properties": { "Statename": "Odisha", "Districtname": "Puri", "Subdistrictname": "Gadisagada", "Blockname": "Kanas", "Healthblockname": "Kanas", "Healthfacilitytype": "health sub centre", "Facilityname": "Balabhadrapur", "NIN": 1111563746, "latitude": 19.98409, "longitude": 85.63196, "facility_type_standardized": "hsc", "snapped_lon": 85.494435, "snapped_lat": 20.222066 }, "geometry": { "type": "Point", "coordinates": [ 85.494435, 20.222066 ] } },
{ "type": "Feature", "properties": { "Statename": "Odisha", "Districtname": "Puri", "Subdistrictname": "Kakatpur", "Blockname": "Kakat Pur", "Healthblockname": "Kakatapur", "Healthfacilitytype": "health sub centre", "Facilityname": "Patapur", "NIN": 1111466452, "latitude": 19.98443, "longitude": 86.16231, "facility_type_standardized": "hsc", "snapped_lon": 86.194935, "snapped_lat": 19.940911 }, "geometry": { "type": "Point", "coordinates": [ 86.194935, 19.940911 ] } },
{ "type": "Feature", "properties": { "Statename": "Odisha", "Districtname": "Puri", "Subdistrictname": "Gop", "Blockname": "Gop", "Healthblockname": "Gopa", "Healthfacilitytype": "health sub centre", "Facilityname": "Baulanga", "NIN": 1111528376, "latitude": 19.98579, "longitude": 86.11969, "facility_type_standardized": "hsc", "snapped_lon": 86.194935, "snapped_lat": 19.940911 }, "geometry": { "type": "Point", "coordinates": [ 86.194935, 19.940911 ] } },
{ "type": "Feature", "properties": { "Statename": "Odisha", "Districtname": "Puri", "Subdistrictname": "Delanga", "Blockname": "Delanga", "Healthblockname": "Delanga", "Healthfacilitytype": "health sub centre", "Facilityname": "Indipur", "NIN": 1111478218, "latitude": 19.98583, "longitude": 85.72757, "facility_type_standardized": "hsc", "snapped_lon": 85.848023, "snapped_lat": 19.802109 }, "geometry": { "type": "Point", "coordinates": [ 85.848023, 19.802109 ] } },
{ "type": "Feature", "properties": { "Statename": "Odisha", "Districtname": "Puri", "Subdistrictname": "Gadisagada", "Blockname": "Kanas", "Healthblockname": "Kanas", "Healthfacilitytype": "health sub centre", "Facilityname": "Baku", "NIN": 1111564850, "latitude": 19.98716, "longitude": 85.58937, "facility_type_standardized": "hsc", "snapped_lon": 85.494435, "snapped_lat": 20.222066 }, "geometry": { "type": "Point", "coordinates": [ 85.494435, 20.222066 ] } },
{ "type": "Feature", "properties": { "Statename": "Odisha", "Districtname": "Puri", "Subdistrictname": "Gadisagada", "Blockname": "Kanas", "Healthblockname": "Kanas", "Healthfacilitytype": "health sub centre", "Facilityname": "Telengapada", "NIN": 1111563837, "latitude": 19.98805, "longitude": 85.67035, "facility_type_standardized": "hsc", "snapped_lon": 85.848023, "snapped_lat": 19.802109 }, "geometry": { "type": "Point", "coordinates": [ 85.848023, 19.802109 ] } },
{ "type": "Feature", "properties": { "Statename": "Odisha", "Districtname": "Puri", "Subdistrictname": "Gop", "Blockname": "Gop", "Healthblockname": "Gopa", "Healthfacilitytype": "health sub centre", "Facilityname": "Gop", "NIN": 1111534465, "latitude": 19.98987, "longitude": 86.03124, "facility_type_standardized": "hsc", "snapped_lon": 86.166021, "snapped_lat": 20.069067 }, "geometry": { "type": "Point", "coordinates": [ 86.166021, 20.069067 ] } },
{ "type": "Feature", "properties": { "Statename": "Odisha", "Districtname": "Puri", "Subdistrictname": "Kakatpur", "Blockname": "Kakat Pur", "Healthblockname": "Kakatapur", "Healthfacilitytype": "health sub centre", "Facilityname": "Kahala", "NIN": 1111467658, "latitude": 19.99117, "longitude": 86.23146, "facility_type_standardized": "hsc", "snapped_lon": 86.247976, "snapped_lat": 20.018697 }, "geometry": { "type": "Point", "coordinates": [ 86.247976, 20.018697 ] } },
{ "type": "Feature", "properties": { "Statename": "Odisha", "Districtname": "Puri", "Subdistrictname": "Gop", "Blockname": "Gop", "Healthblockname": "Gopa", "Healthfacilitytype": "health sub centre", "Facilityname": "Jaunli Pokhari", "NIN": 1111534762, "latitude": 19.99218, "longitude": 86.08279, "facility_type_standardized": "hsc", "snapped_lon": 86.166021, "snapped_lat": 20.069067 }, "geometry": { "type": "Point", "coordinates": [ 86.166021, 20.069067 ] } },
{ "type": "Feature", "properties": { "Statename": "Odisha", "Districtname": "Puri", "Subdistrictname": "Delanga", "Blockname": "Delanga", "Healthblockname": "Delanga", "Healthfacilitytype": "health sub centre", "Facilityname": "Sujanpur (Delanga MC)", "NIN": 1111481337, "latitude": 19.99289, "longitude": 85.7557, "facility_type_standardized": "hsc", "snapped_lon": 85.848023, "snapped_lat": 19.802109 }, "geometry": { "type": "Point", "coordinates": [ 85.848023, 19.802109 ] } },
{ "type": "Feature", "properties": { "Statename": "Odisha", "Districtname": "Puri", "Subdistrictname": "Delanga", "Blockname": "Delanga", "Healthblockname": "Delanga", "Healthfacilitytype": "health sub centre", "Facilityname": "Sri Purusottampur", "NIN": 1111481246, "latitude": 19.99289, "longitude": 85.7557, "facility_type_standardized": "hsc", "snapped_lon": 85.848023, "snapped_lat": 19.802109 }, "geometry": { "type": "Point", "coordinates": [ 85.848023, 19.802109 ] } },
{ "type": "Feature", "properties": { "Statename": "Odisha", "Districtname": "Puri", "Subdistrictname": "Nimapada", "Blockname": "Nimapada", "Healthblockname": "Nimapara", "Healthfacilitytype": "health sub centre", "Facilityname": "Nuasantha", "NIN": 1111538458, "latitude": 19.99428, "longitude": 85.91586, "facility_type_standardized": "hsc", "snapped_lon": 85.848023, "snapped_lat": 19.802109 }, "geometry": { "type": "Point", "coordinates": [ 85.848023, 19.802109 ] } },
{ "type": "Feature", "properties": { "Statename": "Odisha", "Districtname": "Puri", "Subdistrictname": "Delanga", "Blockname": "Delanga", "Healthblockname": "Delanga", "Healthfacilitytype": "health sub centre", "Facilityname": "Gobindapur", "NIN": 1111477228, "latitude": 19.99875, "longitude": 85.79206, "facility_type_standardized": "hsc", "snapped_lon": 85.848023, "snapped_lat": 19.802109 }, "geometry": { "type": "Point", "coordinates": [ 85.848023, 19.802109 ] } },