{
"type": "FeatureCollection",
"name": "rayagada_facilities_snapped",
"crs": { "type": "name", "properties": { "name": "urn:ogc:def:crs:OGC:1.3:CRS84" } },
"features": [
{ "type": "Feature", "properties": { "Statename": "Odisha", "Districtname": "Rayagada", "Subdistrictname": "Gunupur", "Blockname": "Gunupur", "Healthblockname": "Gunupur", "Healthfacilitytype": "community health centre", "Facilityname": "Jagannathpur", "NIN": 1777734664, "latitude": 19.02655, "longitude": 83.77415, "facility_type_standardized": "chc", "snapped_lon": 83.770772, "snapped_lat": 19.031376 }, "geometry": { "type": "Point", "coordinates": [ 83.770772, 19.031376 ] } },
{ "type": "Feature", "properties": { "Statename": "Odisha", "Districtname": "Rayagada", "Subdistrictname": "Seskhal", "Blockname": "Rayagada", "Healthblockname": "Rayagada", "Healthfacilitytype": "community health centre", "Facilityname": "Jemadeipentho", "NIN": 8282645376, "latitude": 19.03316, "longitude": 83.4322, "facility_type_standardized": "chc", "snapped_lon": 83.428316, "snapped_lat": 19.029131 }, "geometry": { "type": "Point", "coordinates": [ 83.428316, 19.029131 ] } },
{ "type": "Feature", "properties": { "Statename": "Odisha", "Districtname": "Rayagada", "Subdistrictname": "Gunupur", "Blockname": "Ramanaguda", "Healthblockname": "Ramanaguda", "Healthfacilitytype": "community health centre", "Facilityname": "Ramanaguda", "NIN": 3745363683, "latitude": 19.22029, "longitude": 83.67438, "facility_type_standardized": "chc", "snapped_lon": 83.668589, "snapped_lat": 19.224331 }, "geometry": { "type": "Point", "coordinates": [ 83.668589, 19.224331 ] } },
{ "type": "Feature", "properties": { "Statename": "Odisha", "Districtname": "Rayagada", "Subdistrictname": "Padmapur", "Blockname": "Padmapur", "Healthblockname": "Padmapur", "Healthfacilitytype": "community health centre", "Facilityname": "Padmapur", "NIN": 6621533519, "latitude": 19.23443, "longitude": 83.82153, "facility_type_standardized": "chc", "snapped_lon": 83.80164, "snapped_lat": 19.244658 }, "geometry": { "type": "Point", "coordinates": [ 83.80164, 19.244658 ] } },
{ "type": "Feature", "properties": { "Statename": "Odisha", "Districtname": "Rayagada", "Subdistrictname": "Rayagada", "Blockname": "Kolnara", "Healthblockname": "Kolanara", "Healthfacilitytype": "community health centre", "Facilityname": "Kolnora", "NIN": 1338472473, "latitude": 19.2481, "longitude": 83.46051, "facility_type_standardized": "chc", "snapped_lon": 83.46658, "snapped_lat": 19.249206 }, "geometry": { "type": "Point", "coordinates": [ 83.46658, 19.249206 ] } },
{ "type": "Feature", "properties": { "Statename": "Odisha", "Districtname": "Rayagada", "Subdistrictname": "Gudari", "Blockname": "Notmapped", "Healthblockname": "Gudari", "Healthfacilitytype": "community health centre", "Facilityname": "Gudari", "NIN": 2621855218, "latitude": 19.34425, "longitude": 83.78601, "facility_type_standardized": "chc", "snapped_lon": 83.784125, "snapped_lat": 19.352611 }, "geometry": { "type": "Point", "coordinates": [ 83.784125, 19.352611 ] } },
{ "type": "Feature", "properties": { "Statename": "Odisha", "Districtname": "Rayagada", "Subdistrictname": "Kashipur", "Blockname": "Kasipur", "Healthblockname": "Kasipur", "Healthfacilitytype": "community health centre", "Facilityname": "Kashipur", "NIN": 7666557488, "latitude": 19.35396, "longitude": 83.12696, "facility_type_standardized": "chc", "snapped_lon": 83.12259, "snapped_lat": 19.354741 }, "geometry": { "type": "Point", "coordinates": [ 83.12259, 19.354741 ] } },
{ "type": "Feature", "properties": { "Statename": "Odisha", "Districtname": "Rayagada", "Subdistrictname": "Kalyanasingpur", "Blockname": "Kalyansingpur", "Healthblockname": "K.Singpur", "Healthfacilitytype": "community health centre", "Facilityname": "Kalyansingpur", "NIN": 1236888424, "latitude": 19.50673, "longitude": 83.31315, "facility_type_standardized": "chc", "snapped_lon": 83.310793, "snapped_lat": 19.508237 }, "geometry": { "type": "Point", "coordinates": [ 83.310793, 19.508237 ] } },
{ "type": "Feature", "properties": { "Statename": "Odisha", "Districtname": "Rayagada", "Subdistrictname": "Bishamakatak", "Blockname": "Bissamcuttack", "Healthblockname": "Bissamacuttack", "Healthfacilitytype": "community health centre", "Facilityname": "Bissamcuttack", "NIN": 1615136817, "latitude": 19.5163, "longitude": 83.50848, "facility_type_standardized": "chc", "snapped_lon": 83.509275, "snapped_lat": 19.513019 }, "geometry": { "type": "Point", "coordinates": [ 83.509275, 19.513019 ] } },
{ "type": "Feature", "properties": { "Statename": "Odisha", "Districtname": "Rayagada", "Subdistrictname": "Chandrapur", "Blockname": "Chandrapur", "Healthblockname": "Chandrapur", "Healthfacilitytype": "community health centre", "Facilityname": "Chandrapur", "NIN": 2436615112, "latitude": 19.59802, "longitude": 83.88011, "facility_type_standardized": "chc", "snapped_lon": 83.757685, "snapped_lat": 19.674802 }, "geometry": { "type": "Point", "coordinates": [ 83.757685, 19.674802 ] } },
{ "type": "Feature", "properties": { "Statename": "Odisha", "Districtname": "Rayagada", "Subdistrictname": "Muniguda", "Blockname": "Muniguda", "Healthblockname": "Muniguda", "Healthfacilitytype": "community health centre", "Facilityname": "Muniguda", "NIN": 7268773566, "latitude": 19.63054, "longitude": 83.48476, "facility_type_standardized": "chc", "snapped_lon": 83.485065, "snapped_lat": 19.631273 }, "geometry": { "type": "Point", "coordinates": [ 83.485065, 19.631273 ] } },
{ "type": "Feature", "properties": { "Statename": "Odisha", "Districtname": "Rayagada", "Subdistrictname": "Rayagada", "Blockname": "Rayagada", "Healthblockname": "Notmapped", "Healthfacilitytype": "district hospital", "Facilityname": "Rayagada", "NIN": 6737264769, "latitude": 19.16367, "longitude": 83.40643, "facility_type_standardized": "dh", "snapped_lon": 83.409862, "snapped_lat": 19.1692 }, "geometry": { "type": "Point", "coordinates": [ 83.409862, 19.1692 ] } },
{ "type": "Feature", "properties": { "Statename": "Odisha", "Districtname": "Rayagada", "Subdistrictname": "Seskhal", "Blockname": "Rayagada", "Healthblockname": "Rayagada", "Healthfacilitytype": "primary health centre", "Facilityname": "Kereda", "NIN": 6417742860, "latitude": 18.97283, "longitude": 83.45067, "facility_type_standardized": "phc", "snapped_lon": 83.447193, "snapped_lat": 18.970826 }, "geometry": { "type": "Point", "coordinates": [ 83.447193, 18.970826 ] } },
{ "type": "Feature", "properties": { "Statename": "Odisha", "Districtname": "Rayagada", "Subdistrictname": "Puttasing", "Blockname": "Gunupur", "Healthblockname": "Gunupur", "Healthfacilitytype": "primary health centre", "Facilityname": "Kulusingi", "NIN": 8386313376, "latitude": 19.013, "longitude": 83.97639, "facility_type_standardized": "phc", "snapped_lon": 84.015076, "snapped_lat": 19.045606 }, "geometry": { "type": "Point", "coordinates": [ 84.015076, 19.045606 ] } },
{ "type": "Feature", "properties": { "Statename": "Odisha", "Districtname": "Rayagada", "Subdistrictname": "Rayagada", "Blockname": "Rayagada", "Healthblockname": "Rayagada", "Healthfacilitytype": "primary health centre", "Facilityname": "Khilimisiguda", "NIN": 3148447323, "latitude": 19.01645, "longitude": 83.45888, "facility_type_standardized": "phc", "snapped_lon": 83.463708, "snapped_lat": 19.00457 }, "geometry": { "type": "Point", "coordinates": [ 83.463708, 19.00457 ] } },
{ "type": "Feature", "properties": { "Statename": "Odisha", "Districtname": "Rayagada", "Subdistrictname": "Gudari", "Blockname": "Rayagada", "Healthblockname": "Rayagada", "Healthfacilitytype": "primary health centre", "Facilityname": "Kumbhikota", "NIN": 1552546556, "latitude": 19.11615, "longitude": 83.25191, "facility_type_standardized": "phc", "snapped_lon": 83.249898, "snapped_lat": 19.120214 }, "geometry": { "type": "Point", "coordinates": [ 83.249898, 19.120214 ] } },
{ "type": "Feature", "properties": { "Statename": "Odisha", "Districtname": "Rayagada", "Subdistrictname": "Seskhal", "Blockname": "Rayagada", "Healthblockname": "Rayagada", "Healthfacilitytype": "primary health centre", "Facilityname": "Jangili", "NIN": 5383287728, "latitude": 19.12956, "longitude": 83.52475, "facility_type_standardized": "phc", "snapped_lon": 83.519442, "snapped_lat": 19.129569 }, "geometry": { "type": "Point", "coordinates": [ 83.519442, 19.129569 ] } },
{ "type": "Feature", "properties": { "Statename": "Odisha", "Districtname": "Rayagada", "Subdistrictname": "Gunupur", "Blockname": "Ramanaguda", "Healthblockname": "Ramanaguda", "Healthfacilitytype": "primary health centre", "Facilityname": "Ukkumba", "NIN": 8364527583, "latitude": 19.16495, "longitude": 83.79301, "facility_type_standardized": "phc", "snapped_lon": 83.77908, "snapped_lat": 19.143361 }, "geometry": { "type": "Point", "coordinates": [ 83.77908, 19.143361 ] } },
{ "type": "Feature", "properties": { "Statename": "Odisha", "Districtname": "Rayagada", "Subdistrictname": "Puttasing", "Blockname": "Gunupur", "Healthblockname": "Gunupur", "Healthfacilitytype": "primary health centre", "Facilityname": "Dombosora", "NIN": 8152476787, "latitude": 19.17173, "longitude": 83.83454, "facility_type_standardized": "phc", "snapped_lon": 83.782072, "snapped_lat": 19.140932 }, "geometry": { "type": "Point", "coordinates": [ 83.782072, 19.140932 ] } },
{ "type": "Feature", "properties": { "Statename": "Odisha", "Districtname": "Rayagada", "Subdistrictname": "Tikiri", "Blockname": "Kasipur", "Healthblockname": "Kasipur", "Healthfacilitytype": "primary health centre", "Facilityname": "Tikiri", "NIN": 8665417740, "latitude": 19.175, "longitude": 83.09631, "facility_type_standardized": "phc", "snapped_lon": 83.098813, "snapped_lat": 19.17658 }, "geometry": { "type": "Point", "coordinates": [ 83.098813, 19.17658 ] } },
{ "type": "Feature", "properties": { "Statename": "Odisha", "Districtname": "Rayagada", "Subdistrictname": "Doraguda", "Blockname": "Kasipur", "Healthblockname": "Kasipur", "Healthfacilitytype": "primary health centre", "Facilityname": "Kuchiepadar", "NIN": 6744157741, "latitude": 19.19232, "longitude": 83.01648, "facility_type_standardized": "phc", "snapped_lon": 83.016429, "snapped_lat": 19.189502 }, "geometry": { "type": "Point", "coordinates": [ 83.016429, 19.189502 ] } },
{ "type": "Feature", "properties": { "Statename": "Odisha", "Districtname": "Rayagada", "Subdistrictname": "Rayagada", "Blockname": "Kolnara", "Healthblockname": "Kolanara", "Healthfacilitytype": "primary health centre", "Facilityname": "Rekhapadar", "NIN": 4771687623, "latitude": 19.20163, "longitude": 83.60186, "facility_type_standardized": "phc", "snapped_lon": 83.615246, "snapped_lat": 19.205217 }, "geometry": { "type": "Point", "coordinates": [ 83.615246, 19.205217 ] } },
{ "type": "Feature", "properties": { "Statename": "Odisha", "Districtname": "Rayagada", "Subdistrictname": "Seskhal", "Blockname": "Rayagada", "Healthblockname": "Rayagada", "Healthfacilitytype": "primary health centre", "Facilityname": "Maligaon", "NIN": 7237481762, "latitude": 19.2069, "longitude": 83.42879, "facility_type_standardized": "phc", "snapped_lon": 83.427103, "snapped_lat": 19.204314 }, "geometry": { "type": "Point", "coordinates": [ 83.427103, 19.204314 ] } },
{ "type": "Feature", "properties": { "Statename": "Odisha", "Districtname": "Rayagada", "Subdistrictname": "Doraguda", "Blockname": "Kasipur", "Healthblockname": "Kasipur", "Healthfacilitytype": "primary health centre", "Facilityname": "Dongasil", "NIN": 7271782869, "latitude": 19.22785, "longitude": 82.98521, "facility_type_standardized": "phc", "snapped_lon": 82.986174, "snapped_lat": 19.23554 }, "geometry": { "type": "Point", "coordinates": [ 82.986174, 19.23554 ] } },
{ "type": "Feature", "properties": { "Statename": "Odisha", "Districtname": "Rayagada", "Subdistrictname": "Tikiri", "Blockname": "Kasipur", "Healthblockname": "Kasipur", "Healthfacilitytype": "primary health centre", "Facilityname": "Gorakhpur", "NIN": 5884816173, "latitude": 19.2376, "longitude": 83.10273, "facility_type_standardized": "phc", "snapped_lon": 83.110423, "snapped_lat": 19.234887 }, "geometry": { "type": "Point", "coordinates": [ 83.110423, 19.234887 ] } },
{ "type": "Feature", "properties": { "Statename": "Odisha", "Districtname": "Rayagada", "Subdistrictname": "Padmapur", "Blockname": "Padmapur", "Healthblockname": "Padmapur", "Healthfacilitytype": "primary health centre", "Facilityname": "Likitipadar", "NIN": 5655386885, "latitude": 19.25098, "longitude": 83.97706, "facility_type_standardized": "phc", "snapped_lon": 83.936002, "snapped_lat": 19.312362 }, "geometry": { "type": "Point", "coordinates": [ 83.936002, 19.312362 ] } },
{ "type": "Feature", "properties": { "Statename": "Odisha", "Districtname": "Rayagada", "Subdistrictname": "Gudari", "Blockname": "Padmapur", "Healthblockname": "Padmapur", "Healthfacilitytype": "primary health centre", "Facilityname": "Derigaon", "NIN": 8534737146, "latitude": 19.25402, "longitude": 83.75467, "facility_type_standardized": "phc", "snapped_lon": 83.761356, "snapped_lat": 19.245945 }, "geometry": { "type": "Point", "coordinates": [ 83.761356, 19.245945 ] } },
{ "type": "Feature", "properties": { "Statename": "Odisha", "Districtname": "Rayagada", "Subdistrictname": "Rayagada", "Blockname": "Kolnara", "Healthblockname": "Kolanara", "Healthfacilitytype": "primary health centre", "Facilityname": "Minajhola", "NIN": 8338543351, "latitude": 19.26312, "longitude": 83.6066, "facility_type_standardized": "phc", "snapped_lon": 83.605803, "snapped_lat": 19.264098 }, "geometry": { "type": "Point", "coordinates": [ 83.605803, 19.264098 ] } },
{ "type": "Feature", "properties": { "Statename": "Odisha", "Districtname": "Rayagada", "Subdistrictname": "Padmapur", "Blockname": "Padmapur", "Healthblockname": "Padmapur", "Healthfacilitytype": "primary health centre", "Facilityname": "Tembaguda", "NIN": 2858677178, "latitude": 19.27928, "longitude": 83.98658, "facility_type_standardized": "phc", "snapped_lon": 83.942942, "snapped_lat": 19.318158 }, "geometry": { "type": "Point", "coordinates": [ 83.942942, 19.318158 ] } },
{ "type": "Feature", "properties": { "Statename": "Odisha", "Districtname": "Rayagada", "Subdistrictname": "Gunupur", "Blockname": "Ramanaguda", "Healthblockname": "Ramanaguda", "Healthfacilitytype": "primary health centre", "Facilityname": "Rugudubai", "NIN": 8738811721, "latitude": 19.28828, "longitude": 83.6384, "facility_type_standardized": "phc", "snapped_lon": 83.636287, "snapped_lat": 19.288318 }, "geometry": { "type": "Point", "coordinates": [ 83.636287, 19.288318 ] } },
{ "type": "Feature", "properties": { "Statename": "Odisha", "Districtname": "Rayagada", "Subdistrictname": "Rayagada", "Blockname": "Kolnara", "Healthblockname": "Kolanara", "Healthfacilitytype": "primary health centre", "Facilityname": "Badakhilapadar", "NIN": 4322873581, "latitude": 19.30066, "longitude": 83.53416, "facility_type_standardized": "phc", "snapped_lon": 83.488238, "snapped_lat": 19.303516 }, "geometry": { "type": "Point", "coordinates": [ 83.488238, 19.303516 ] } },
{ "type": "Feature", "properties": { "Statename": "Odisha", "Districtname": "Rayagada", "Subdistrictname": "Gudari", "Blockname": "Padmapur", "Healthblockname": "Padmapur", "Healthfacilitytype": "primary health centre", "Facilityname": "Naira", "NIN": 8436267630, "latitude": 19.30187, "longitude": 83.7734, "facility_type_standardized": "phc", "snapped_lon": 83.774525, "snapped_lat": 19.303428 }, "geometry": { "type": "Point", "coordinates": [ 83.774525, 19.303428 ] } },
{ "type": "Feature", "properties": { "Statename": "Odisha", "Districtname": "Rayagada", "Subdistrictname": "Bishamakatak", "Blockname": "Bissamcuttack", "Healthblockname": "Bissamacuttack", "Healthfacilitytype": "primary health centre", "Facilityname": "Durgi", "NIN": 8336183283, "latitude": 19.34671, "longitude": 83.59834, "facility_type_standardized": "phc", "snapped_lon": 83.593647, "snapped_lat": 19.344455 }, "geometry": { "type": "Point", "coordinates": [ 83.593647, 19.344455 ] } },
{ "type": "Feature", "properties": { "Statename": "Odisha", "Districtname": "Rayagada", "Subdistrictname": "Gudari", "Blockname": "Gudari", "Healthblockname": "Gudari", "Healthfacilitytype": "primary health centre", "Facilityname": "Dhepaguda", "NIN": 8726434650, "latitude": 19.3766, "longitude": 83.70535, "facility_type_standardized": "phc", "snapped_lon": 83.77152, "snapped_lat": 19.343544 }, "geometry": { "type": "Point", "coordinates": [ 83.77152, 19.343544 ] } },
{ "type": "Feature", "properties": { "Statename": "Odisha", "Districtname": "Rayagada", "Subdistrictname": "Kalyanasingpur", "Blockname": "Kalyansingpur", "Healthblockname": "K.Singpur", "Healthfacilitytype": "primary health centre", "Facilityname": "Sikarpai", "NIN": 6746385639, "latitude": 19.39866, "longitude": 83.31658, "facility_type_standardized": "phc", "snapped_lon": 83.315264, "snapped_lat": 19.404068 }, "geometry": { "type": "Point", "coordinates": [ 83.315264, 19.404068 ] } },
{ "type": "Feature", "properties": { "Statename": "Odisha", "Districtname": "Rayagada", "Subdistrictname": "Kashipur", "Blockname": "Kasipur", "Healthblockname": "Kasipur", "Healthfacilitytype": "primary health centre", "Facilityname": "Mandibisi", "NIN": 6515162185, "latitude": 19.3998, "longitude": 83.15921, "facility_type_standardized": "phc", "snapped_lon": 83.156464, "snapped_lat": 19.398427 }, "geometry": { "type": "Point", "coordinates": [ 83.156464, 19.398427 ] } },
{ "type": "Feature", "properties": { "Statename": "Odisha", "Districtname": "Rayagada", "Subdistrictname": "Padmapur", "Blockname": "Gudari", "Healthblockname": "Gudari", "Healthfacilitytype": "primary health centre", "Facilityname": "Sargiguda", "NIN": 5234776440, "latitude": 19.42398, "longitude": 83.81323, "facility_type_standardized": "phc", "snapped_lon": 83.793543, "snapped_lat": 19.385431 }, "geometry": { "type": "Point", "coordinates": [ 83.793543, 19.385431 ] } },
{ "type": "Feature", "properties": { "Statename": "Odisha", "Districtname": "Rayagada", "Subdistrictname": "Kalyanasingpur", "Blockname": "Kalyansingpur", "Healthblockname": "K.Singpur", "Healthfacilitytype": "primary health centre", "Facilityname": "Majhiguda", "NIN": 2213665314, "latitude": 19.43786, "longitude": 83.33122, "facility_type_standardized": "phc", "snapped_lon": 83.332721, "snapped_lat": 19.437717 }, "geometry": { "type": "Point", "coordinates": [ 83.332721, 19.437717 ] } },
{ "type": "Feature", "properties": { "Statename": "Odisha", "Districtname": "Rayagada", "Subdistrictname": "Bishamakatak", "Blockname": "Bissamcuttack", "Healthblockname": "Bissamacuttack", "Healthfacilitytype": "primary health centre", "Facilityname": "Sahada", "NIN": 3421213251, "latitude": 19.45145, "longitude": 83.60354, "facility_type_standardized": "phc", "snapped_lon": 83.550313, "snapped_lat": 19.461307 }, "geometry": { "type": "Point", "coordinates": [ 83.550313, 19.461307 ] } },
{ "type": "Feature", "properties": { "Statename": "Odisha", "Districtname": "Rayagada", "Subdistrictname": "Kashipur", "Blockname": "Kasipur", "Healthblockname": "Kasipur", "Healthfacilitytype": "primary health centre", "Facilityname": "Sunger", "NIN": 4161215548, "latitude": 19.46396, "longitude": 83.1008, "facility_type_standardized": "phc", "snapped_lon": 83.106034, "snapped_lat": 19.468976 }, "geometry": { "type": "Point", "coordinates": [ 83.106034, 19.468976 ] } },
{ "type": "Feature", "properties": { "Statename": "Odisha", "Districtname": "Rayagada", "Subdistrictname": "Kalyanasingpur", "Blockname": "Kalyansingpur", "Healthblockname": "K.Singpur", "Healthfacilitytype": "primary health centre", "Facilityname": "Badatodra", "NIN": 2631168115, "latitude": 19.485, "longitude": 83.28104, "facility_type_standardized": "phc", "snapped_lon": 83.277577, "snapped_lat": 19.485552 }, "geometry": { "type": "Point", "coordinates": [ 83.277577, 19.485552 ] } },
{ "type": "Feature", "properties": { "Statename": "Odisha", "Districtname": "Rayagada", "Subdistrictname": "Kalyanasingpur", "Blockname": "Bissamcuttack", "Healthblockname": "Bissamacuttack", "Healthfacilitytype": "primary health centre", "Facilityname": "Bhakuroguda", "NIN": 3336837459, "latitude": 19.5163, "longitude": 83.50848, "facility_type_standardized": "phc", "snapped_lon": 83.509275, "snapped_lat": 19.513019 }, "geometry": { "type": "Point", "coordinates": [ 83.509275, 19.513019 ] } },
{ "type": "Feature", "properties": { "Statename": "Odisha", "Districtname": "Rayagada", "Subdistrictname": "Bishamakatak", "Blockname": "Bissamcuttack", "Healthblockname": "Bissamacuttack", "Healthfacilitytype": "primary health centre", "Facilityname": "Khambesi", "NIN": 4445647359, "latitude": 19.53285, "longitude": 83.41014, "facility_type_standardized": "phc", "snapped_lon": 83.458055, "snapped_lat": 19.537957 }, "geometry": { "type": "Point", "coordinates": [ 83.458055, 19.537957 ] } },
{ "type": "Feature", "properties": { "Statename": "Odisha", "Districtname": "Rayagada", "Subdistrictname": "Chandrapur", "Blockname": "Chandrapur", "Healthblockname": "Chandrapur", "Healthfacilitytype": "primary health centre", "Facilityname": "Budubali", "NIN": 2788528566, "latitude": 19.60402, "longitude": 83.79206, "facility_type_standardized": "phc", "snapped_lon": 83.757685, "snapped_lat": 19.674802 }, "geometry": { "type": "Point", "coordinates": [ 83.757685, 19.674802 ] } },
{ "type": "Feature", "properties": { "Statename": "Odisha", "Districtname": "Rayagada", "Subdistrictname": "Chandrapur", "Blockname": "Chandrapur", "Healthblockname": "Chandrapur", "Healthfacilitytype": "primary health centre", "Facilityname": "Dangosoroda", "NIN": 2111273427, "latitude": 19.60555, "longitude": 83.64333, "facility_type_standardized": "phc", "snapped_lon": 83.645226, "snapped_lat": 19.605649 }, "geometry": { "type": "Point", "coordinates": [ 83.645226, 19.605649 ] } },
{ "type": "Feature", "properties": { "Statename": "Odisha", "Districtname": "Rayagada", "Subdistrictname": "Muniguda", "Blockname": "Muniguda", "Healthblockname": "Muniguda", "Healthfacilitytype": "primary health centre", "Facilityname": "Padmapur", "NIN": 2615555279, "latitude": 19.64385, "longitude": 83.53585, "facility_type_standardized": "phc", "snapped_lon": 83.535758, "snapped_lat": 19.641434 }, "geometry": { "type": "Point", "coordinates": [ 83.535758, 19.641434 ] } },
{ "type": "Feature", "properties": { "Statename": "Odisha", "Districtname": "Rayagada", "Subdistrictname": "Ambadala", "Blockname": "Muniguda", "Healthblockname": "Muniguda", "Healthfacilitytype": "primary health centre", "Facilityname": "Jagadalpur", "NIN": 2641525254, "latitude": 19.7644, "longitude": 83.55313, "facility_type_standardized": "phc", "snapped_lon": 83.547511, "snapped_lat": 19.759846 }, "geometry": { "type": "Point", "coordinates": [ 83.547511, 19.759846 ] } },
{ "type": "Feature", "properties": { "Statename": "Odisha", "Districtname": "Rayagada", "Subdistrictname": "Muniguda", "Blockname": "Muniguda", "Healthblockname": "Muniguda", "Healthfacilitytype": "primary health centre", "Facilityname": "Kumudabali", "NIN": 3814576470, "latitude": 19.84573, "longitude": 83.45786, "facility_type_standardized": "phc", "snapped_lon": 83.461239, "snapped_lat": 19.843371 }, "geometry": { "type": "Point", "coordinates": [ 83.461239, 19.843371 ] } },
{ "type": "Feature", "properties": { "Statename": "Odisha", "Districtname": "Rayagada", "Subdistrictname": "Gunupur", "Blockname": "Notmapped", "Healthblockname": "Notmapped", "Healthfacilitytype": "sub district hospital", "Facilityname": "Gunupur", "NIN": 1316142569, "latitude": 19.07132, "longitude": 83.80845, "facility_type_standardized": "sdh", "snapped_lon": 83.797151, "snapped_lat": 19.094532 }, "geometry": { "type": "Point", "coordinates": [ 83.797151, 19.094532 ] } },
{ "type": "Feature", "properties": { "Statename": "Odisha", "Districtname": "Rayagada", "Subdistrictname": "Gunupur", "Blockname": "Gunupur", "Healthblockname": "Gunupur", "Healthfacilitytype": "health sub centre", "Facilityname": "Moroma", "NIN": 5341551140, "latitude": 18.94707, "longitude": 83.75318, "facility_type_standardized": "hsc", "snapped_lon": 83.754267, "snapped_lat": 18.947072 }, "geometry": { "type": "Point", "coordinates": [ 83.754267, 18.947072 ] } },
{ "type": "Feature", "properties": { "Statename": "Odisha", "Districtname": "Rayagada", "Subdistrictname": "Seskhal", "Blockname": "Rayagada", "Healthblockname": "Rayagada", "Healthfacilitytype": "health sub centre", "Facilityname": "Kereda", "NIN": 2628628683, "latitude": 18.97557, "longitude": 83.45278, "facility_type_standardized": "hsc", "snapped_lon": 83.448721, "snapped_lat": 18.976863 }, "geometry": { "type": "Point", "coordinates": [ 83.448721, 18.976863 ] } },
{ "type": "Feature", "properties": { "Statename": "Odisha", "Districtname": "Rayagada", "Subdistrictname": "Gunupur", "Blockname": "Gunupur", "Healthblockname": "Gunupur", "Healthfacilitytype": "health sub centre", "Facilityname": "Gothalpadar", "NIN": 5118245157, "latitude": 19.00231, "longitude": 83.71859, "facility_type_standardized": "hsc", "snapped_lon": 83.716934, "snapped_lat": 19.005801 }, "geometry": { "type": "Point", "coordinates": [ 83.716934, 19.005801 ] } },
{ "type": "Feature", "properties": { "Statename": "Odisha", "Districtname": "Rayagada", "Subdistrictname": "Puttasing", "Blockname": "Gunupur", "Healthblockname": "Gunupur", "Healthfacilitytype": "health sub centre", "Facilityname": "Nuada", "NIN": 7662756787, "latitude": 19.00729, "longitude": 83.86489, "facility_type_standardized": "hsc", "snapped_lon": 83.812033, "snapped_lat": 18.965316 }, "geometry": { "type": "Point", "coordinates": [ 83.812033, 18.965316 ] } },
{ "type": "Feature", "properties": { "Statename": "Odisha", "Districtname": "Rayagada", "Subdistrictname": "Seskhal", "Blockname": "Rayagada", "Healthblockname": "Rayagada", "Healthfacilitytype": "health sub centre", "Facilityname": "Bilesu (Irkubadi)", "NIN": 5263265158, "latitude": 19.01333, "longitude": 83.40549, "facility_type_standardized": "hsc", "snapped_lon": 83.405111, "snapped_lat": 19.00997 }, "geometry": { "type": "Point", "coordinates": [ 83.405111, 19.00997 ] } },
{ "type": "Feature", "properties": { "Statename": "Odisha", "Districtname": "Rayagada", "Subdistrictname": "Puttasing", "Blockname": "Gunupur", "Healthblockname": "Gunupur", "Healthfacilitytype": "health sub centre", "Facilityname": "KULUSINGI", "NIN": 5776528779, "latitude": 19.01733, "longitude": 83.97414, "facility_type_standardized": "hsc", "snapped_lon": 84.015076, "snapped_lat": 19.045606 }, "geometry": { "type": "Point", "coordinates": [ 84.015076, 19.045606 ] } },
{ "type": "Feature", "properties": { "Statename": "Odisha", "Districtname": "Rayagada", "Subdistrictname": "Seskhal", "Blockname": "Rayagada", "Healthblockname": "Rayagada", "Healthfacilitytype": "health sub centre", "Facilityname": "Gajigaon", "NIN": 7747314420, "latitude": 19.0234, "longitude": 83.37794, "facility_type_standardized": "hsc", "snapped_lon": 83.376859, "snapped_lat": 19.022636 }, "geometry": { "type": "Point", "coordinates": [ 83.376859, 19.022636 ] } },
{ "type": "Feature", "properties": { "Statename": "Odisha", "Districtname": "Rayagada", "Subdistrictname": "Seskhal", "Blockname": "Rayagada", "Healthblockname": "Rayagada", "Healthfacilitytype": "health sub centre", "Facilityname": "Hat Sesikhal", "NIN": 6366125125, "latitude": 19.02397, "longitude": 83.43978, "facility_type_standardized": "hsc", "snapped_lon": 83.443824, "snapped_lat": 19.023502 }, "geometry": { "type": "Point", "coordinates": [ 83.443824, 19.023502 ] } },
{ "type": "Feature", "properties": { "Statename": "Odisha", "Districtname": "Rayagada", "Subdistrictname": "Gunupur", "Blockname": "Gunupur", "Healthblockname": "Gunupur", "Healthfacilitytype": "health sub centre", "Facilityname": "Jagannathpur", "NIN": 4855776425, "latitude": 19.02436, "longitude": 83.77524, "facility_type_standardized": "hsc", "snapped_lon": 83.770772, "snapped_lat": 19.031376 }, "geometry": { "type": "Point", "coordinates": [ 83.770772, 19.031376 ] } },
{ "type": "Feature", "properties": { "Statename": "Odisha", "Districtname": "Rayagada", "Subdistrictname": "Puttasing", "Blockname": "Gunupur", "Healthblockname": "Gunupur", "Healthfacilitytype": "health sub centre", "Facilityname": "Regeda", "NIN": 4874382155, "latitude": 19.02575, "longitude": 83.83592, "facility_type_standardized": "hsc", "snapped_lon": 83.787048, "snapped_lat": 19.010313 }, "geometry": { "type": "Point", "coordinates": [ 83.787048, 19.010313 ] } },
{ "type": "Feature", "properties": { "Statename": "Odisha", "Districtname": "Rayagada", "Subdistrictname": "Gunupur", "Blockname": "Gunupur", "Healthblockname": "Gunupur", "Healthfacilitytype": "health sub centre", "Facilityname": "Gadiakhola", "NIN": 1286847544, "latitude": 19.03727, "longitude": 83.7985, "facility_type_standardized": "hsc", "snapped_lon": 83.770772, "snapped_lat": 19.031376 }, "geometry": { "type": "Point", "coordinates": [ 83.770772, 19.031376 ] } },
{ "type": "Feature", "properties": { "Statename": "Odisha", "Districtname": "Rayagada", "Subdistrictname": "Seskhal", "Blockname": "Rayagada", "Healthblockname": "Rayagada", "Healthfacilitytype": "health sub centre", "Facilityname": "Durgapadu", "NIN": 7835437414, "latitude": 19.04574, "longitude": 83.52599, "facility_type_standardized": "hsc", "snapped_lon": 83.506984, "snapped_lat": 19.045772 }, "geometry": { "type": "Point", "coordinates": [ 83.506984, 19.045772 ] } },
{ "type": "Feature", "properties": { "Statename": "Odisha", "Districtname": "Rayagada", "Subdistrictname": "Rayagada", "Blockname": "Rayagada", "Healthblockname": "Rayagada", "Healthfacilitytype": "health sub centre", "Facilityname": "Cheka", "NIN": 1755326129, "latitude": 19.04641, "longitude": 83.22043, "facility_type_standardized": "hsc", "snapped_lon": 83.260258, "snapped_lat": 19.026935 }, "geometry": { "type": "Point", "coordinates": [ 83.260258, 19.026935 ] } },
{ "type": "Feature", "properties": { "Statename": "Odisha", "Districtname": "Rayagada", "Subdistrictname": "Rayagada", "Blockname": "Rayagada", "Healthblockname": "Rayagada", "Healthfacilitytype": "health sub centre", "Facilityname": "Penta", "NIN": 8134487316, "latitude": 19.05807, "longitude": 83.38868, "facility_type_standardized": "hsc", "snapped_lon": 83.38114, "snapped_lat": 19.06331 }, "geometry": { "type": "Point", "coordinates": [ 83.38114, 19.06331 ] } },
{ "type": "Feature", "properties": { "Statename": "Odisha", "Districtname": "Rayagada", "Subdistrictname": "Puttasing", "Blockname": "Gunupur", "Healthblockname": "Gunupur", "Healthfacilitytype": "health sub centre", "Facilityname": "Chinasari", "NIN": 6872285645, "latitude": 19.06311, "longitude": 83.92905, "facility_type_standardized": "hsc", "snapped_lon": 84.015076, "snapped_lat": 19.045606 }, "geometry": { "type": "Point", "coordinates": [ 84.015076, 19.045606 ] } },
{ "type": "Feature", "properties": { "Statename": "Odisha", "Districtname": "Rayagada", "Subdistrictname": "Gunupur", "Blockname": "Gunupur", "Healthblockname": "Gunupur", "Healthfacilitytype": "health sub centre", "Facilityname": "Munegal", "NIN": 7718571875, "latitude": 19.06597, "longitude": 83.95475, "facility_type_standardized": "hsc", "snapped_lon": 84.015076, "snapped_lat": 19.045606 }, "geometry": { "type": "Point", "coordinates": [ 84.015076, 19.045606 ] } },
{ "type": "Feature", "properties": { "Statename": "Odisha", "Districtname": "Rayagada", "Subdistrictname": "Seskhal", "Blockname": "Rayagada", "Healthblockname": "Rayagada", "Healthfacilitytype": "health sub centre", "Facilityname": "Sandhubadi", "NIN": 3761764830, "latitude": 19.07127, "longitude": 83.54923, "facility_type_standardized": "hsc", "snapped_lon": 83.542249, "snapped_lat": 19.069479 }, "geometry": { "type": "Point", "coordinates": [ 83.542249, 19.069479 ] } },
{ "type": "Feature", "properties": { "Statename": "Odisha", "Districtname": "Rayagada", "Subdistrictname": "Puttasing", "Blockname": "Gunupur", "Healthblockname": "Gunupur", "Healthfacilitytype": "health sub centre", "Facilityname": "Sagada", "NIN": 7446417573, "latitude": 19.0737, "longitude": 84.00935, "facility_type_standardized": "hsc", "snapped_lon": 84.015076, "snapped_lat": 19.045606 }, "geometry": { "type": "Point", "coordinates": [ 84.015076, 19.045606 ] } },
{ "type": "Feature", "properties": { "Statename": "Odisha", "Districtname": "Rayagada", "Subdistrictname": "Tikiri", "Blockname": "Kasipur", "Healthblockname": "Kasipur", "Healthfacilitytype": "health sub centre", "Facilityname": "Bankamba", "NIN": 1381487378, "latitude": 19.07912, "longitude": 83.06107, "facility_type_standardized": "hsc", "snapped_lon": 83.059452, "snapped_lat": 19.159229 }, "geometry": { "type": "Point", "coordinates": [ 83.059452, 19.159229 ] } },
{ "type": "Feature", "properties": { "Statename": "Odisha", "Districtname": "Rayagada", "Subdistrictname": "Rayagada", "Blockname": "Rayagada", "Healthblockname": "Rayagada", "Healthfacilitytype": "health sub centre", "Facilityname": "Nuapada", "NIN": 8135448366, "latitude": 19.08759, "longitude": 83.36999, "facility_type_standardized": "hsc", "snapped_lon": 83.362426, "snapped_lat": 19.091417 }, "geometry": { "type": "Point", "coordinates": [ 83.362426, 19.091417 ] } },
{ "type": "Feature", "properties": { "Statename": "Odisha", "Districtname": "Rayagada", "Subdistrictname": "Seskhal", "Blockname": "Rayagada", "Healthblockname": "Rayagada", "Healthfacilitytype": "health sub centre", "Facilityname": "Mirabali", "NIN": 1884636182, "latitude": 19.08961, "longitude": 83.53307, "facility_type_standardized": "hsc", "snapped_lon": 83.530102, "snapped_lat": 19.087778 }, "geometry": { "type": "Point", "coordinates": [ 83.530102, 19.087778 ] } },
{ "type": "Feature", "properties": { "Statename": "Odisha", "Districtname": "Rayagada", "Subdistrictname": "Puttasing", "Blockname": "Gunupur", "Healthblockname": "Gunupur", "Healthfacilitytype": "health sub centre", "Facilityname": "Puttasing", "NIN": 6744353670, "latitude": 19.09216, "longitude": 83.98174, "facility_type_standardized": "hsc", "snapped_lon": 84.015076, "snapped_lat": 19.045606 }, "geometry": { "type": "Point", "coordinates": [ 84.015076, 19.045606 ] } },
{ "type": "Feature", "properties": { "Statename": "Odisha", "Districtname": "Rayagada", "Subdistrictname": "Puttasing", "Blockname": "Gunupur", "Healthblockname": "Gunupur", "Healthfacilitytype": "health sub centre", "Facilityname": "Talana", "NIN": 6522878732, "latitude": 19.09679, "longitude": 83.92876, "facility_type_standardized": "hsc", "snapped_lon": 84.015076, "snapped_lat": 19.045606 }, "geometry": { "type": "Point", "coordinates": [ 84.015076, 19.045606 ] } },
{ "type": "Feature", "properties": { "Statename": "Odisha", "Districtname": "Rayagada", "Subdistrictname": "Gunupur", "Blockname": "Gunupur", "Healthblockname": "Gunupur", "Healthfacilitytype": "health sub centre", "Facilityname": "Sirijholi", "NIN": 7364664818, "latitude": 19.09693, "longitude": 83.78184, "facility_type_standardized": "hsc", "snapped_lon": 83.796513, "snapped_lat": 19.100532 }, "geometry": { "type": "Point", "coordinates": [ 83.796513, 19.100532 ] } },
{ "type": "Feature", "properties": { "Statename": "Odisha", "Districtname": "Rayagada", "Subdistrictname": "Seskhal", "Blockname": "Rayagada", "Healthblockname": "Rayagada", "Healthfacilitytype": "health sub centre", "Facilityname": "Dangolodi", "NIN": 3466823675, "latitude": 19.10103, "longitude": 83.5083, "facility_type_standardized": "hsc", "snapped_lon": 83.502571, "snapped_lat": 19.101007 }, "geometry": { "type": "Point", "coordinates": [ 83.502571, 19.101007 ] } },
{ "type": "Feature", "properties": { "Statename": "Odisha", "Districtname": "Rayagada", "Subdistrictname": "Kashipur", "Blockname": "Kasipur", "Healthblockname": "Kasipur", "Healthfacilitytype": "health sub centre", "Facilityname": "Puhundi", "NIN": 7214473865, "latitude": 19.10336, "longitude": 83.08548, "facility_type_standardized": "hsc", "snapped_lon": 83.060635, "snapped_lat": 19.159476 }, "geometry": { "type": "Point", "coordinates": [ 83.060635, 19.159476 ] } },
{ "type": "Feature", "properties": { "Statename": "Odisha", "Districtname": "Rayagada", "Subdistrictname": "Seskhal", "Blockname": "Rayagada", "Healthblockname": "Rayagada", "Healthfacilitytype": "health sub centre", "Facilityname": "Kutuli", "NIN": 8385423812, "latitude": 19.10843, "longitude": 83.19763, "facility_type_standardized": "hsc", "snapped_lon": 83.19377, "snapped_lat": 19.107945 }, "geometry": { "type": "Point", "coordinates": [ 83.19377, 19.107945 ] } },
{ "type": "Feature", "properties": { "Statename": "Odisha", "Districtname": "Rayagada", "Subdistrictname": "Gunupur", "Blockname": "Ramanaguda", "Healthblockname": "Ramanaguda", "Healthfacilitytype": "health sub centre", "Facilityname": "Haduguda", "NIN": 7143685779, "latitude": 19.10947, "longitude": 83.76456, "facility_type_standardized": "hsc", "snapped_lon": 83.784963, "snapped_lat": 19.125425 }, "geometry": { "type": "Point", "coordinates": [ 83.784963, 19.125425 ] } },
{ "type": "Feature", "properties": { "Statename": "Odisha", "Districtname": "Rayagada", "Subdistrictname": "Puttasing", "Blockname": "Gunupur", "Healthblockname": "Gunupur", "Healthfacilitytype": "health sub centre", "Facilityname": "Jaltar", "NIN": 7733528678, "latitude": 19.11007, "longitude": 83.89427, "facility_type_standardized": "hsc", "snapped_lon": 83.797718, "snapped_lat": 19.104427 }, "geometry": { "type": "Point", "coordinates": [ 83.797718, 19.104427 ] } },
{ "type": "Feature", "properties": { "Statename": "Odisha", "Districtname": "Rayagada", "Subdistrictname": "Gunupur", "Blockname": "Ramanaguda", "Healthblockname": "Ramanaguda", "Healthfacilitytype": "health sub centre", "Facilityname": "Kerandiguda", "NIN": 8286865418, "latitude": 19.1111, "longitude": 83.67854, "facility_type_standardized": "hsc", "snapped_lon": 83.655592, "snapped_lat": 19.095725 }, "geometry": { "type": "Point", "coordinates": [ 83.655592, 19.095725 ] } },
{ "type": "Feature", "properties": { "Statename": "Odisha", "Districtname": "Rayagada", "Subdistrictname": "Seskhal", "Blockname": "Rayagada", "Healthblockname": "Rayagada", "Healthfacilitytype": "health sub centre", "Facilityname": "Karubai", "NIN": 8168861857, "latitude": 19.11892, "longitude": 83.51097, "facility_type_standardized": "hsc", "snapped_lon": 83.509052, "snapped_lat": 19.119204 }, "geometry": { "type": "Point", "coordinates": [ 83.509052, 19.119204 ] } },
{ "type": "Feature", "properties": { "Statename": "Odisha", "Districtname": "Rayagada", "Subdistrictname": "Rayagada", "Blockname": "Kolnara", "Healthblockname": "Kolanara", "Healthfacilitytype": "health sub centre", "Facilityname": "Panichotra", "NIN": 2653783478, "latitude": 19.12068, "longitude": 83.566, "facility_type_standardized": "hsc", "snapped_lon": 83.524776, "snapped_lat": 19.109913 }, "geometry": { "type": "Point", "coordinates": [ 83.524776, 19.109913 ] } },
{ "type": "Feature", "properties": { "Statename": "Odisha", "Districtname": "Rayagada", "Subdistrictname": "Seskhal", "Blockname": "Rayagada", "Healthblockname": "Rayagada", "Healthfacilitytype": "health sub centre", "Facilityname": "Singiput", "NIN": 4858235643, "latitude": 19.12287, "longitude": 83.36907, "facility_type_standardized": "hsc", "snapped_lon": 83.378067, "snapped_lat": 19.127841 }, "geometry": { "type": "Point", "coordinates": [ 83.378067, 19.127841 ] } },
{ "type": "Feature", "properties": { "Statename": "Odisha", "Districtname": "Rayagada", "Subdistrictname": "Doraguda", "Blockname": "Kasipur", "Healthblockname": "Kasipur", "Healthfacilitytype": "health sub centre", "Facilityname": "Podapadi", "NIN": 7257454475, "latitude": 19.12917, "longitude": 83.08114, "facility_type_standardized": "hsc", "snapped_lon": 83.070327, "snapped_lat": 19.163823 }, "geometry": { "type": "Point", "coordinates": [ 83.070327, 19.163823 ] } },
{ "type": "Feature", "properties": { "Statename": "Odisha", "Districtname": "Rayagada", "Subdistrictname": "Gunupur", "Blockname": "Ramanaguda", "Healthblockname": "Ramanaguda", "Healthfacilitytype": "health sub centre", "Facilityname": "Omading", "NIN": 8758565439, "latitude": 19.13334, "longitude": 83.728, "facility_type_standardized": "hsc", "snapped_lon": 83.744405, "snapped_lat": 19.16764 }, "geometry": { "type": "Point", "coordinates": [ 83.744405, 19.16764 ] } },
{ "type": "Feature", "properties": { "Statename": "Odisha", "Districtname": "Rayagada", "Subdistrictname": "Gunupur", "Blockname": "Ramanaguda", "Healthblockname": "Ramanaguda", "Healthfacilitytype": "health sub centre", "Facilityname": "A Gulumunda", "NIN": 8157447635, "latitude": 19.13418, "longitude": 83.78663, "facility_type_standardized": "hsc", "snapped_lon": 83.782954, "snapped_lat": 19.138488 }, "geometry": { "type": "Point", "coordinates": [ 83.782954, 19.138488 ] } },
{ "type": "Feature", "properties": { "Statename": "Odisha", "Districtname": "Rayagada", "Subdistrictname": "Seskhal", "Blockname": "Rayagada", "Healthblockname": "Rayagada", "Healthfacilitytype": "health sub centre", "Facilityname": "Pitamahal", "NIN": 3132112677, "latitude": 19.13463, "longitude": 83.41225, "facility_type_standardized": "hsc", "snapped_lon": 83.408738, "snapped_lat": 19.13481 }, "geometry": { "type": "Point", "coordinates": [ 83.408738, 19.13481 ] } },
{ "type": "Feature", "properties": { "Statename": "Odisha", "Districtname": "Rayagada", "Subdistrictname": "Gudari", "Blockname": "Rayagada", "Healthblockname": "Rayagada", "Healthfacilitytype": "health sub centre", "Facilityname": "Kumbhikota", "NIN": 5644736679, "latitude": 19.13651, "longitude": 83.24601, "facility_type_standardized": "hsc", "snapped_lon": 83.258241, "snapped_lat": 19.130303 }, "geometry": { "type": "Point", "coordinates": [ 83.258241, 19.130303 ] } },
{ "type": "Feature", "properties": { "Statename": "Odisha", "Districtname": "Rayagada", "Subdistrictname": "Seskhal", "Blockname": "Rayagada", "Healthblockname": "Rayagada", "Healthfacilitytype": "health sub centre", "Facilityname": "Siguri", "NIN": 4764831816, "latitude": 19.13696, "longitude": 83.49888, "facility_type_standardized": "hsc", "snapped_lon": 83.495394, "snapped_lat": 19.137022 }, "geometry": { "type": "Point", "coordinates": [ 83.495394, 19.137022 ] } },
{ "type": "Feature", "properties": { "Statename": "Odisha", "Districtname": "Rayagada", "Subdistrictname": "Gunupur", "Blockname": "Gunupur", "Healthblockname": "Gunupur", "Healthfacilitytype": "health sub centre", "Facilityname": "Chalkamba", "NIN": 8121172319, "latitude": 19.13786, "longitude": 83.82729, "facility_type_standardized": "hsc", "snapped_lon": 83.795183, "snapped_lat": 19.114129 }, "geometry": { "type": "Point", "coordinates": [ 83.795183, 19.114129 ] } },
{ "type": "Feature", "properties": { "Statename": "Odisha", "Districtname": "Rayagada", "Subdistrictname": "Tikiri", "Blockname": "Kasipur", "Healthblockname": "Kasipur", "Healthfacilitytype": "health sub centre", "Facilityname": "Panchali", "NIN": 7631112328, "latitude": 19.14262, "longitude": 83.13982, "facility_type_standardized": "hsc", "snapped_lon": 83.146914, "snapped_lat": 19.163048 }, "geometry": { "type": "Point", "coordinates": [ 83.146914, 19.163048 ] } },
{ "type": "Feature", "properties": { "Statename": "Odisha", "Districtname": "Rayagada", "Subdistrictname": "Seskhal", "Blockname": "Rayagada", "Healthblockname": "Rayagada", "Healthfacilitytype": "health sub centre", "Facilityname": "Tadama", "NIN": 8366587569, "latitude": 19.14272, "longitude": 83.38188, "facility_type_standardized": "hsc", "snapped_lon": 83.376399, "snapped_lat": 19.143579 }, "geometry": { "type": "Point", "coordinates": [ 83.376399, 19.143579 ] } },
{ "type": "Feature", "properties": { "Statename": "Odisha", "Districtname": "Rayagada", "Subdistrictname": "Doraguda", "Blockname": "Kasipur", "Healthblockname": "Kasipur", "Healthfacilitytype": "health sub centre", "Facilityname": "Mundagaon", "NIN": 7257867759, "latitude": 19.14742, "longitude": 83.06958, "facility_type_standardized": "hsc", "snapped_lon": 83.061673, "snapped_lat": 19.159941 }, "geometry": { "type": "Point", "coordinates": [ 83.061673, 19.159941 ] } },
{ "type": "Feature", "properties": { "Statename": "Odisha", "Districtname": "Rayagada", "Subdistrictname": "Doraguda", "Blockname": "Kasipur", "Healthblockname": "Kasipur", "Healthfacilitytype": "health sub centre", "Facilityname": "D Korala", "NIN": 8474265660, "latitude": 19.15129, "longitude": 83.01565, "facility_type_standardized": "hsc", "snapped_lon": 83.006027, "snapped_lat": 19.140673 }, "geometry": { "type": "Point", "coordinates": [ 83.006027, 19.140673 ] } },
{ "type": "Feature", "properties": { "Statename": "Odisha", "Districtname": "Rayagada", "Subdistrictname": "Puttasing", "Blockname": "Gunupur", "Healthblockname": "Gunupur", "Healthfacilitytype": "health sub centre", "Facilityname": "Khaira", "NIN": 4143468637, "latitude": 19.1517, "longitude": 83.93748, "facility_type_standardized": "hsc", "snapped_lon": 84.015076, "snapped_lat": 19.045606 }, "geometry": { "type": "Point", "coordinates": [ 84.015076, 19.045606 ] } },
{ "type": "Feature", "properties": { "Statename": "Odisha", "Districtname": "Rayagada", "Subdistrictname": "Gunupur", "Blockname": "Ramanaguda", "Healthblockname": "Ramanaguda", "Healthfacilitytype": "health sub centre", "Facilityname": "Kujendri", "NIN": 7541742487, "latitude": 19.15226, "longitude": 83.76968, "facility_type_standardized": "hsc", "snapped_lon": 83.767601, "snapped_lat": 19.150477 }, "geometry": { "type": "Point", "coordinates": [ 83.767601, 19.150477 ] } },
{ "type": "Feature", "properties": { "Statename": "Odisha", "Districtname": "Rayagada", "Subdistrictname": "Gunupur", "Blockname": "Ramanaguda", "Healthblockname": "Ramanaguda", "Healthfacilitytype": "health sub centre", "Facilityname": "Gogupadu", "NIN": 3188346450, "latitude": 19.15754, "longitude": 83.66777, "facility_type_standardized": "hsc", "snapped_lon": 83.66025, "snapped_lat": 19.158146 }, "geometry": { "type": "Point", "coordinates": [ 83.66025, 19.158146 ] } },
{ "type": "Feature", "properties": { "Statename": "Odisha", "Districtname": "Rayagada", "Subdistrictname": "Puttasing", "Blockname": "Gunupur", "Healthblockname": "Gunupur", "Healthfacilitytype": "health sub centre", "Facilityname": "Dambosora", "NIN": 8341358649, "latitude": 19.16373, "longitude": 83.83649, "facility_type_standardized": "hsc", "snapped_lon": 83.782269, "snapped_lat": 19.140521 }, "geometry": { "type": "Point", "coordinates": [ 83.782269, 19.140521 ] } },
{ "type": "Feature", "properties": { "Statename": "Odisha", "Districtname": "Rayagada", "Subdistrictname": "Gunupur", "Blockname": "Gunupur", "Healthblockname": "Gunupur", "Healthfacilitytype": "health sub centre", "Facilityname": "Bagasala", "NIN": 8187423242, "latitude": 19.16412, "longitude": 83.81883, "facility_type_standardized": "hsc", "snapped_lon": 83.782072, "snapped_lat": 19.140932 }, "geometry": { "type": "Point", "coordinates": [ 83.782072, 19.140932 ] } },
{ "type": "Feature", "properties": { "Statename": "Odisha", "Districtname": "Rayagada", "Subdistrictname": "Gunupur", "Blockname": "Ramanaguda", "Healthblockname": "Ramanaguda", "Healthfacilitytype": "health sub centre", "Facilityname": "Ukkumba", "NIN": 1751565142, "latitude": 19.16443, "longitude": 83.78532, "facility_type_standardized": "hsc", "snapped_lon": 83.77908, "snapped_lat": 19.143361 }, "geometry": { "type": "Point", "coordinates": [ 83.77908, 19.143361 ] } },
{ "type": "Feature", "properties": { "Statename": "Odisha", "Districtname": "Rayagada", "Subdistrictname": "Kashipur", "Blockname": "Kasipur", "Healthblockname": "Kasipur", "Healthfacilitytype": "health sub centre", "Facilityname": "Mailiguda", "NIN": 4231784580, "latitude": 19.16637, "longitude": 83.10884, "facility_type_standardized": "hsc", "snapped_lon": 83.098813, "snapped_lat": 19.17658 }, "geometry": { "type": "Point", "coordinates": [ 83.098813, 19.17658 ] } },
{ "type": "Feature", "properties": { "Statename": "Odisha", "Districtname": "Rayagada", "Subdistrictname": "Tikiri", "Blockname": "Kasipur", "Healthblockname": "Kasipur", "Healthfacilitytype": "health sub centre", "Facilityname": "Sankarada", "NIN": 2274373386, "latitude": 19.16779, "longitude": 83.17307, "facility_type_standardized": "hsc", "snapped_lon": 83.168432, "snapped_lat": 19.162678 }, "geometry": { "type": "Point", "coordinates": [ 83.168432, 19.162678 ] } },
{ "type": "Feature", "properties": { "Statename": "Odisha", "Districtname": "Rayagada", "Subdistrictname": "Gunupur", "Blockname": "Ramanaguda", "Healthblockname": "Ramanaguda", "Healthfacilitytype": "health sub centre", "Facilityname": "Tikarpada", "NIN": 5768574575, "latitude": 19.17277, "longitude": 83.77423, "facility_type_standardized": "hsc", "snapped_lon": 83.760037, "snapped_lat": 19.158894 }, "geometry": { "type": "Point", "coordinates": [ 83.760037, 19.158894 ] } },
{ "type": "Feature", "properties": { "Statename": "Odisha", "Districtname": "Rayagada", "Subdistrictname": "Rayagada", "Blockname": "Kolnara", "Healthblockname": "Kolanara", "Healthfacilitytype": "health sub centre", "Facilityname": "Bhoimoda", "NIN": 6634386459, "latitude": 19.17914, "longitude": 83.5822, "facility_type_standardized": "hsc", "snapped_lon": 83.616344, "snapped_lat": 19.202995 }, "geometry": { "type": "Point", "coordinates": [ 83.616344, 19.202995 ] } },
{ "type": "Feature", "properties": { "Statename": "Odisha", "Districtname": "Rayagada", "Subdistrictname": "Tikiri", "Blockname": "Kasipur", "Healthblockname": "Kasipur", "Healthfacilitytype": "health sub centre", "Facilityname": "Tikiri", "NIN": 7362588811, "latitude": 19.17927, "longitude": 83.09708, "facility_type_standardized": "hsc", "snapped_lon": 83.099158, "snapped_lat": 19.17749 }, "geometry": { "type": "Point", "coordinates": [ 83.099158, 19.17749 ] } },
{ "type": "Feature", "properties": { "Statename": "Odisha", "Districtname": "Rayagada", "Subdistrictname": "Gudari", "Blockname": "Ramanaguda", "Healthblockname": "Ramanaguda", "Healthfacilitytype": "health sub centre", "Facilityname": "Bhamini", "NIN": 7384564147, "latitude": 19.17953, "longitude": 83.79778, "facility_type_standardized": "hsc", "snapped_lon": 83.77908, "snapped_lat": 19.143361 }, "geometry": { "type": "Point", "coordinates": [ 83.77908, 19.143361 ] } },
{ "type": "Feature", "properties": { "Statename": "Odisha", "Districtname": "Rayagada", "Subdistrictname": "Gunupur", "Blockname": "Ramanaguda", "Healthblockname": "Ramanaguda", "Healthfacilitytype": "health sub centre", "Facilityname": "Gulunthi", "NIN": 4872855756, "latitude": 19.18154, "longitude": 83.66491, "facility_type_standardized": "hsc", "snapped_lon": 83.660657, "snapped_lat": 19.185273 }, "geometry": { "type": "Point", "coordinates": [ 83.660657, 19.185273 ] } },
{ "type": "Feature", "properties": { "Statename": "Odisha", "Districtname": "Rayagada", "Subdistrictname": "Seskhal", "Blockname": "Rayagada", "Healthblockname": "Rayagada", "Healthfacilitytype": "health sub centre", "Facilityname": "Bairagi Halwa", "NIN": 7711662119, "latitude": 19.18162, "longitude": 83.3551, "facility_type_standardized": "hsc", "snapped_lon": 83.356481, "snapped_lat": 19.178874 }, "geometry": { "type": "Point", "coordinates": [ 83.356481, 19.178874 ] } },
{ "type": "Feature", "properties": { "Statename": "Odisha", "Districtname": "Rayagada", "Subdistrictname": "Rayagada", "Blockname": "Rayagada", "Healthblockname": "Rayagada", "Healthfacilitytype": "health sub centre", "Facilityname": "Halua", "NIN": 2825547488, "latitude": 19.18162, "longitude": 83.3551, "facility_type_standardized": "hsc", "snapped_lon": 83.356481, "snapped_lat": 19.178874 }, "geometry": { "type": "Point", "coordinates": [ 83.356481, 19.178874 ] } },
{ "type": "Feature", "properties": { "Statename": "Odisha", "Districtname": "Rayagada", "Subdistrictname": "Rayagada", "Blockname": "Kolnara", "Healthblockname": "Kolanara", "Healthfacilitytype": "health sub centre", "Facilityname": "Pandratola", "NIN": 7768146453, "latitude": 19.18196, "longitude": 83.60824, "facility_type_standardized": "hsc", "snapped_lon": 83.626867, "snapped_lat": 19.194478 }, "geometry": { "type": "Point", "coordinates": [ 83.626867, 19.194478 ] } },
{ "type": "Feature", "properties": { "Statename": "Odisha", "Districtname": "Rayagada", "Subdistrictname": "Gunupur", "Blockname": "Ramanaguda", "Healthblockname": "Ramanaguda", "Healthfacilitytype": "health sub centre", "Facilityname": "Penkam", "NIN": 2188865733, "latitude": 19.18404, "longitude": 83.73429, "facility_type_standardized": "hsc", "snapped_lon": 83.735543, "snapped_lat": 19.186277 }, "geometry": { "type": "Point", "coordinates": [ 83.735543, 19.186277 ] } },
{ "type": "Feature", "properties": { "Statename": "Odisha", "Districtname": "Rayagada", "Subdistrictname": "Kashipur", "Blockname": "Kasipur", "Healthblockname": "Kasipur", "Healthfacilitytype": "health sub centre", "Facilityname": "Sundhusali (Ladakhaman)", "NIN": 2832815886, "latitude": 19.18541, "longitude": 82.94096, "facility_type_standardized": "hsc", "snapped_lon": 82.9753, "snapped_lat": 19.147703 }, "geometry": { "type": "Point", "coordinates": [ 82.9753, 19.147703 ] } },
{ "type": "Feature", "properties": { "Statename": "Odisha", "Districtname": "Rayagada", "Subdistrictname": "Doraguda", "Blockname": "Kasipur", "Healthblockname": "Kasipur", "Healthfacilitytype": "health sub centre", "Facilityname": "Dongasil", "NIN": 4656688415, "latitude": 19.18791, "longitude": 83.172, "facility_type_standardized": "hsc", "snapped_lon": 83.168432, "snapped_lat": 19.162678 }, "geometry": { "type": "Point", "coordinates": [ 83.168432, 19.162678 ] } },
{ "type": "Feature", "properties": { "Statename": "Odisha", "Districtname": "Rayagada", "Subdistrictname": "Seskhal", "Blockname": "Rayagada", "Healthblockname": "Rayagada", "Healthfacilitytype": "health sub centre", "Facilityname": "Bada Allubadi", "NIN": 8256668438, "latitude": 19.18832, "longitude": 83.51522, "facility_type_standardized": "hsc", "snapped_lon": 83.506825, "snapped_lat": 19.187206 }, "geometry": { "type": "Point", "coordinates": [ 83.506825, 19.187206 ] } },
{ "type": "Feature", "properties": { "Statename": "Odisha", "Districtname": "Rayagada", "Subdistrictname": "Puttasing", "Blockname": "Gunupur", "Healthblockname": "Gunupur", "Healthfacilitytype": "health sub centre", "Facilityname": "Loba", "NIN": 8831524387, "latitude": 19.18863, "longitude": 83.87665, "facility_type_standardized": "hsc", "snapped_lon": 83.80164, "snapped_lat": 19.244658 }, "geometry": { "type": "Point", "coordinates": [ 83.80164, 19.244658 ] } },
{ "type": "Feature", "properties": { "Statename": "Odisha", "Districtname": "Rayagada", "Subdistrictname": "Puttasing", "Blockname": "Gunupur", "Healthblockname": "Gunupur", "Healthfacilitytype": "health sub centre", "Facilityname": "Bhimpur", "NIN": 8153856847, "latitude": 19.1898, "longitude": 83.94809, "facility_type_standardized": "hsc", "snapped_lon": 83.912569, "snapped_lat": 19.30363 }, "geometry": { "type": "Point", "coordinates": [ 83.912569, 19.30363 ] } },
{ "type": "Feature", "properties": { "Statename": "Odisha", "Districtname": "Rayagada", "Subdistrictname": "Doraguda", "Blockname": "Kasipur", "Healthblockname": "Kasipur", "Healthfacilitytype": "health sub centre", "Facilityname": "Kucheipadar", "NIN": 6886416426, "latitude": 19.19337, "longitude": 83.01879, "facility_type_standardized": "hsc", "snapped_lon": 83.016429, "snapped_lat": 19.189502 }, "geometry": { "type": "Point", "coordinates": [ 83.016429, 19.189502 ] } },
{ "type": "Feature", "properties": { "Statename": "Odisha", "Districtname": "Rayagada", "Subdistrictname": "Tikiri", "Blockname": "Kasipur", "Healthblockname": "Kasipur", "Healthfacilitytype": "health sub centre", "Facilityname": "Dudukabahal", "NIN": 4818817530, "latitude": 19.1934, "longitude": 83.11191, "facility_type_standardized": "hsc", "snapped_lon": 83.112973, "snapped_lat": 19.194045 }, "geometry": { "type": "Point", "coordinates": [ 83.112973, 19.194045 ] } },
{ "type": "Feature", "properties": { "Statename": "Odisha", "Districtname": "Rayagada", "Subdistrictname": "Rayagada", "Blockname": "Rayagada", "Healthblockname": "Rayagada", "Healthfacilitytype": "health sub centre", "Facilityname": "Gumma", "NIN": 6571854485, "latitude": 19.19591, "longitude": 83.29153, "facility_type_standardized": "hsc", "snapped_lon": 83.291082, "snapped_lat": 19.195243 }, "geometry": { "type": "Point", "coordinates": [ 83.291082, 19.195243 ] } },
{ "type": "Feature", "properties": { "Statename": "Odisha", "Districtname": "Rayagada", "Subdistrictname": "Puttasing", "Blockname": "Gunupur", "Healthblockname": "Gunupur", "Healthfacilitytype": "health sub centre", "Facilityname": "Titimiri", "NIN": 4442673630, "latitude": 19.19834, "longitude": 83.91638, "facility_type_standardized": "hsc", "snapped_lon": 83.912569, "snapped_lat": 19.30363 }, "geometry": { "type": "Point", "coordinates": [ 83.912569, 19.30363 ] } },
{ "type": "Feature", "properties": { "Statename": "Odisha", "Districtname": "Rayagada", "Subdistrictname": "Rayagada", "Blockname": "Kolnara", "Healthblockname": "Kolanara", "Healthfacilitytype": "health sub centre", "Facilityname": "Rekhapadar", "NIN": 8373228819, "latitude": 19.20254, "longitude": 83.59999, "facility_type_standardized": "hsc", "snapped_lon": 83.615246, "snapped_lat": 19.205217 }, "geometry": { "type": "Point", "coordinates": [ 83.615246, 19.205217 ] } },
{ "type": "Feature", "properties": { "Statename": "Odisha", "Districtname": "Rayagada", "Subdistrictname": "Seskhal", "Blockname": "Rayagada", "Healthblockname": "Rayagada", "Healthfacilitytype": "health sub centre", "Facilityname": "K Maligaon", "NIN": 3151461534, "latitude": 19.2031, "longitude": 83.43664, "facility_type_standardized": "hsc", "snapped_lon": 83.427103, "snapped_lat": 19.204314 }, "geometry": { "type": "Point", "coordinates": [ 83.427103, 19.204314 ] } },
{ "type": "Feature", "properties": { "Statename": "Odisha", "Districtname": "Rayagada", "Subdistrictname": "Seskhal", "Blockname": "Rayagada", "Healthblockname": "Rayagada", "Healthfacilitytype": "health sub centre", "Facilityname": "Kuli(Kuliguda)", "NIN": 6847336564, "latitude": 19.20585, "longitude": 83.47252, "facility_type_standardized": "hsc", "snapped_lon": 83.472128, "snapped_lat": 19.209221 }, "geometry": { "type": "Point", "coordinates": [ 83.472128, 19.209221 ] } },
{ "type": "Feature", "properties": { "Statename": "Odisha", "Districtname": "Rayagada", "Subdistrictname": "Rayagada", "Blockname": "Rayagada", "Healthblockname": "Rayagada", "Healthfacilitytype": "health sub centre", "Facilityname": "Kotapeta", "NIN": 2853247381, "latitude": 19.20743, "longitude": 83.41797, "facility_type_standardized": "hsc", "snapped_lon": 83.41641, "snapped_lat": 19.204291 }, "geometry": { "type": "Point", "coordinates": [ 83.41641, 19.204291 ] } },
{ "type": "Feature", "properties": { "Statename": "Odisha", "Districtname": "Rayagada", "Subdistrictname": "Gudari", "Blockname": "Ramanaguda", "Healthblockname": "Ramanaguda", "Healthfacilitytype": "health sub centre", "Facilityname": "Chakunda", "NIN": 7478623148, "latitude": 19.2075, "longitude": 83.68523, "facility_type_standardized": "hsc", "snapped_lon": 83.685687, "snapped_lat": 19.208807 }, "geometry": { "type": "Point", "coordinates": [ 83.685687, 19.208807 ] } },
{ "type": "Feature", "properties": { "Statename": "Odisha", "Districtname": "Rayagada", "Subdistrictname": "Gunupur", "Blockname": "Ramanaguda", "Healthblockname": "Ramanaguda", "Healthfacilitytype": "health sub centre", "Facilityname": "Parikhiti", "NIN": 5845676765, "latitude": 19.21273, "longitude": 83.6449, "facility_type_standardized": "hsc", "snapped_lon": 83.644389, "snapped_lat": 19.218746 }, "geometry": { "type": "Point", "coordinates": [ 83.644389, 19.218746 ] } },
{ "type": "Feature", "properties": { "Statename": "Odisha", "Districtname": "Rayagada", "Subdistrictname": "Padmapur", "Blockname": "Padmapur", "Healthblockname": "Padmapur", "Healthfacilitytype": "health sub centre", "Facilityname": "Mariguda", "NIN": 6346586735, "latitude": 19.21462, "longitude": 83.8242, "facility_type_standardized": "hsc", "snapped_lon": 83.80164, "snapped_lat": 19.244658 }, "geometry": { "type": "Point", "coordinates": [ 83.80164, 19.244658 ] } },
{ "type": "Feature", "properties": { "Statename": "Odisha", "Districtname": "Rayagada", "Subdistrictname": "Gudari", "Blockname": "Ramanaguda", "Healthblockname": "Ramanaguda", "Healthfacilitytype": "health sub centre", "Facilityname": "Limapadar", "NIN": 2117166328, "latitude": 19.21475, "longitude": 83.77899, "facility_type_standardized": "hsc", "snapped_lon": 83.760534, "snapped_lat": 19.227155 }, "geometry": { "type": "Point", "coordinates": [ 83.760534, 19.227155 ] } },
{ "type": "Feature", "properties": { "Statename": "Odisha", "Districtname": "Rayagada", "Subdistrictname": "Gunupur", "Blockname": "Ramanaguda", "Healthblockname": "Ramanaguda", "Healthfacilitytype": "health sub centre", "Facilityname": "Ramanaguda", "NIN": 6877412582, "latitude": 19.22188, "longitude": 83.67613, "facility_type_standardized": "hsc", "snapped_lon": 83.668589, "snapped_lat": 19.224331 }, "geometry": { "type": "Point", "coordinates": [ 83.668589, 19.224331 ] } },
{ "type": "Feature", "properties": { "Statename": "Odisha", "Districtname": "Rayagada", "Subdistrictname": "Andirakanch", "Blockname": "Kasipur", "Healthblockname": "Kasipur", "Healthfacilitytype": "health sub centre", "Facilityname": "Godibali", "NIN": 2736881349, "latitude": 19.22234, "longitude": 82.97909, "facility_type_standardized": "hsc", "snapped_lon": 82.986174, "snapped_lat": 19.23554 }, "geometry": { "type": "Point", "coordinates": [ 82.986174, 19.23554 ] } },
{ "type": "Feature", "properties": { "Statename": "Odisha", "Districtname": "Rayagada", "Subdistrictname": "Rayagada", "Blockname": "Rayagada", "Healthblockname": "Rayagada", "Healthfacilitytype": "health sub centre", "Facilityname": "Matikona", "NIN": 5577843245, "latitude": 19.22258, "longitude": 83.37189, "facility_type_standardized": "hsc", "snapped_lon": 83.373875, "snapped_lat": 19.224061 }, "geometry": { "type": "Point", "coordinates": [ 83.373875, 19.224061 ] } },
{ "type": "Feature", "properties": { "Statename": "Odisha", "Districtname": "Rayagada", "Subdistrictname": "Rayagada", "Blockname": "Kolnara", "Healthblockname": "Kolanara", "Healthfacilitytype": "health sub centre", "Facilityname": "Mukundapur", "NIN": 4488815137, "latitude": 19.22281, "longitude": 83.56344, "facility_type_standardized": "hsc", "snapped_lon": 83.558553, "snapped_lat": 19.225921 }, "geometry": { "type": "Point", "coordinates": [ 83.558553, 19.225921 ] } },
{ "type": "Feature", "properties": { "Statename": "Odisha", "Districtname": "Rayagada", "Subdistrictname": "Rayagada", "Blockname": "Kolnara", "Healthblockname": "Kolanara", "Healthfacilitytype": "health sub centre", "Facilityname": "Jhorodi", "NIN": 4487661425, "latitude": 19.22342, "longitude": 83.6246, "facility_type_standardized": "hsc", "snapped_lon": 83.620593, "snapped_lat": 19.220674 }, "geometry": { "type": "Point", "coordinates": [ 83.620593, 19.220674 ] } },
{ "type": "Feature", "properties": { "Statename": "Odisha", "Districtname": "Rayagada", "Subdistrictname": "Rayagada", "Blockname": "Kolnara", "Healthblockname": "Kolanara", "Healthfacilitytype": "health sub centre", "Facilityname": "Pipiliguda", "NIN": 2236721219, "latitude": 19.22679, "longitude": 83.4988, "facility_type_standardized": "hsc", "snapped_lon": 83.506128, "snapped_lat": 19.235908 }, "geometry": { "type": "Point", "coordinates": [ 83.506128, 19.235908 ] } },
{ "type": "Feature", "properties": { "Statename": "Odisha", "Districtname": "Rayagada", "Subdistrictname": "Rayagada", "Blockname": "Kolnara", "Healthblockname": "Kolanara", "Healthfacilitytype": "health sub centre", "Facilityname": "Kailashpur", "NIN": 2143671119, "latitude": 19.22685, "longitude": 83.54791, "facility_type_standardized": "hsc", "snapped_lon": 83.548205, "snapped_lat": 19.226795 }, "geometry": { "type": "Point", "coordinates": [ 83.548205, 19.226795 ] } },
{ "type": "Feature", "properties": { "Statename": "Odisha", "Districtname": "Rayagada", "Subdistrictname": "Rayagada", "Blockname": "Rayagada", "Healthblockname": "Rayagada", "Healthfacilitytype": "health sub centre", "Facilityname": "Kumutipentho", "NIN": 7114788248, "latitude": 19.22776, "longitude": 83.41348, "facility_type_standardized": "hsc", "snapped_lon": 83.412146, "snapped_lat": 19.22259 }, "geometry": { "type": "Point", "coordinates": [ 83.412146, 19.22259 ] } },
{ "type": "Feature", "properties": { "Statename": "Odisha", "Districtname": "Rayagada", "Subdistrictname": "Rayagada", "Blockname": "Kolnara", "Healthblockname": "Kolanara", "Healthfacilitytype": "health sub centre", "Facilityname": "Guakona", "NIN": 8552378468, "latitude": 19.22989, "longitude": 83.47486, "facility_type_standardized": "hsc", "snapped_lon": 83.470937, "snapped_lat": 19.225775 }, "geometry": { "type": "Point", "coordinates": [ 83.470937, 19.225775 ] } },
{ "type": "Feature", "properties": { "Statename": "Odisha", "Districtname": "Rayagada", "Subdistrictname": "Padmapur", "Blockname": "Padmapur", "Healthblockname": "Padmapur", "Healthfacilitytype": "health sub centre", "Facilityname": "Padmapur", "NIN": 5451155187, "latitude": 19.23114, "longitude": 83.81957, "facility_type_standardized": "hsc", "snapped_lon": 83.80164, "snapped_lat": 19.244658 }, "geometry": { "type": "Point", "coordinates": [ 83.80164, 19.244658 ] } },
{ "type": "Feature", "properties": { "Statename": "Odisha", "Districtname": "Rayagada", "Subdistrictname": "Doraguda", "Blockname": "Kasipur", "Healthblockname": "Kasipur", "Healthfacilitytype": "health sub centre", "Facilityname": "Badalijharan", "NIN": 7138442467, "latitude": 19.23239, "longitude": 83.02959, "facility_type_standardized": "hsc", "snapped_lon": 82.9983, "snapped_lat": 19.225623 }, "geometry": { "type": "Point", "coordinates": [ 82.9983, 19.225623 ] } },
{ "type": "Feature", "properties": { "Statename": "Odisha", "Districtname": "Rayagada", "Subdistrictname": "Rayagada", "Blockname": "Rayagada", "Healthblockname": "Rayagada", "Healthfacilitytype": "health sub centre", "Facilityname": "Siltiguda", "NIN": 4885856551, "latitude": 19.23536, "longitude": 83.38499, "facility_type_standardized": "hsc", "snapped_lon": 83.382577, "snapped_lat": 19.240766 }, "geometry": { "type": "Point", "coordinates": [ 83.382577, 19.240766 ] } },
{ "type": "Feature", "properties": { "Statename": "Odisha", "Districtname": "Rayagada", "Subdistrictname": "Tikiri", "Blockname": "Kasipur", "Healthblockname": "Kasipur", "Healthfacilitytype": "health sub centre", "Facilityname": "Gorkhpur", "NIN": 4171525316, "latitude": 19.23856, "longitude": 83.10593, "facility_type_standardized": "hsc", "snapped_lon": 83.110423, "snapped_lat": 19.234887 }, "geometry": { "type": "Point", "coordinates": [ 83.110423, 19.234887 ] } },
{ "type": "Feature", "properties": { "Statename": "Odisha", "Districtname": "Rayagada", "Subdistrictname": "Padmapur", "Blockname": "Padmapur", "Healthblockname": "Padmapur", "Healthfacilitytype": "health sub centre", "Facilityname": "Jatili", "NIN": 5837646271, "latitude": 19.23956, "longitude": 83.84461, "facility_type_standardized": "hsc", "snapped_lon": 83.80164, "snapped_lat": 19.244658 }, "geometry": { "type": "Point", "coordinates": [ 83.80164, 19.244658 ] } },
{ "type": "Feature", "properties": { "Statename": "Odisha", "Districtname": "Rayagada", "Subdistrictname": "Gunupur", "Blockname": "Ramanaguda", "Healthblockname": "Ramanaguda", "Healthfacilitytype": "health sub centre", "Facilityname": "Kondajam", "NIN": 1373111366, "latitude": 19.2425, "longitude": 83.63966, "facility_type_standardized": "hsc", "snapped_lon": 83.637902, "snapped_lat": 19.245334 }, "geometry": { "type": "Point", "coordinates": [ 83.637902, 19.245334 ] } },
{ "type": "Feature", "properties": { "Statename": "Odisha", "Districtname": "Rayagada", "Subdistrictname": "Rayagada", "Blockname": "Rayagada", "Healthblockname": "Rayagada", "Healthfacilitytype": "health sub centre", "Facilityname": "Sana Chandili", "NIN": 5571351351, "latitude": 19.24324, "longitude": 83.4251, "facility_type_standardized": "hsc", "snapped_lon": 83.418461, "snapped_lat": 19.237012 }, "geometry": { "type": "Point", "coordinates": [ 83.418461, 19.237012 ] } },
{ "type": "Feature", "properties": { "Statename": "Odisha", "Districtname": "Rayagada", "Subdistrictname": "Rayagada", "Blockname": "Rayagada", "Healthblockname": "Rayagada", "Healthfacilitytype": "health sub centre", "Facilityname": "Raikona", "NIN": 4116522626, "latitude": 19.24837, "longitude": 83.27115, "facility_type_standardized": "hsc", "snapped_lon": 83.269172, "snapped_lat": 19.246851 }, "geometry": { "type": "Point", "coordinates": [ 83.269172, 19.246851 ] } },
{ "type": "Feature", "properties": { "Statename": "Odisha", "Districtname": "Rayagada", "Subdistrictname": "Padmapur", "Blockname": "Padmapur", "Healthblockname": "Padmapur", "Healthfacilitytype": "health sub centre", "Facilityname": "Likitipadar", "NIN": 6137248479, "latitude": 19.25016, "longitude": 83.98067, "facility_type_standardized": "hsc", "snapped_lon": 83.936002, "snapped_lat": 19.312362 }, "geometry": { "type": "Point", "coordinates": [ 83.936002, 19.312362 ] } },
{ "type": "Feature", "properties": { "Statename": "Odisha", "Districtname": "Rayagada", "Subdistrictname": "Rayagada", "Blockname": "Rayagada", "Healthblockname": "Rayagada", "Healthfacilitytype": "health sub centre", "Facilityname": "Amlabhota", "NIN": 4383174663, "latitude": 19.25055, "longitude": 83.43507, "facility_type_standardized": "hsc", "snapped_lon": 83.433108, "snapped_lat": 19.248618 }, "geometry": { "type": "Point", "coordinates": [ 83.433108, 19.248618 ] } },
{ "type": "Feature", "properties": { "Statename": "Odisha", "Districtname": "Rayagada", "Subdistrictname": "Tikiri", "Blockname": "Kasipur", "Healthblockname": "Kasipur", "Healthfacilitytype": "health sub centre", "Facilityname": "Kanhuguda", "NIN": 3134384282, "latitude": 19.25087, "longitude": 83.06315, "facility_type_standardized": "hsc", "snapped_lon": 83.106635, "snapped_lat": 19.248021 }, "geometry": { "type": "Point", "coordinates": [ 83.106635, 19.248021 ] } },
{ "type": "Feature", "properties": { "Statename": "Odisha", "Districtname": "Rayagada", "Subdistrictname": "Padmapur", "Blockname": "Padmapur", "Healthblockname": "Padmapur", "Healthfacilitytype": "health sub centre", "Facilityname": "Indupur", "NIN": 2348134442, "latitude": 19.25441, "longitude": 83.81819, "facility_type_standardized": "hsc", "snapped_lon": 83.800771, "snapped_lat": 19.257208 }, "geometry": { "type": "Point", "coordinates": [ 83.800771, 19.257208 ] } },
{ "type": "Feature", "properties": { "Statename": "Odisha", "Districtname": "Rayagada", "Subdistrictname": "Rayagada", "Blockname": "Kolnara", "Healthblockname": "Kolanara", "Healthfacilitytype": "health sub centre", "Facilityname": "Kolnora", "NIN": 2786627857, "latitude": 19.25506, "longitude": 83.45992, "facility_type_standardized": "hsc", "snapped_lon": 83.456414, "snapped_lat": 19.254704 }, "geometry": { "type": "Point", "coordinates": [ 83.456414, 19.254704 ] } },
{ "type": "Feature", "properties": { "Statename": "Odisha", "Districtname": "Rayagada", "Subdistrictname": "Gudari", "Blockname": "Padmapur", "Healthblockname": "Padmapur", "Healthfacilitytype": "health sub centre", "Facilityname": "Derigaon", "NIN": 7358633829, "latitude": 19.2569, "longitude": 83.75292, "facility_type_standardized": "hsc", "snapped_lon": 83.752648, "snapped_lat": 19.265612 }, "geometry": { "type": "Point", "coordinates": [ 83.752648, 19.265612 ] } },
{ "type": "Feature", "properties": { "Statename": "Odisha", "Districtname": "Rayagada", "Subdistrictname": "Padmapur", "Blockname": "Padmapur", "Healthblockname": "Padmapur", "Healthfacilitytype": "health sub centre", "Facilityname": "Gudiabandha", "NIN": 5547736446, "latitude": 19.25802, "longitude": 83.80086, "facility_type_standardized": "hsc", "snapped_lon": 83.80082, "snapped_lat": 19.258447 }, "geometry": { "type": "Point", "coordinates": [ 83.80082, 19.258447 ] } },
{ "type": "Feature", "properties": { "Statename": "Odisha", "Districtname": "Rayagada", "Subdistrictname": "Rayagada", "Blockname": "Kolnara", "Healthblockname": "Kolanara", "Healthfacilitytype": "health sub centre", "Facilityname": "Bheja", "NIN": 8262436382, "latitude": 19.25915, "longitude": 83.56086, "facility_type_standardized": "hsc", "snapped_lon": 83.570259, "snapped_lat": 19.239783 }, "geometry": { "type": "Point", "coordinates": [ 83.570259, 19.239783 ] } },
{ "type": "Feature", "properties": { "Statename": "Odisha", "Districtname": "Rayagada", "Subdistrictname": "Rayagada", "Blockname": "Rayagada", "Healthblockname": "Rayagada", "Healthfacilitytype": "health sub centre", "Facilityname": "Karlakona", "NIN": 5452311326, "latitude": 19.25922, "longitude": 83.3987, "facility_type_standardized": "hsc", "snapped_lon": 83.39564, "snapped_lat": 19.260386 }, "geometry": { "type": "Point", "coordinates": [ 83.39564, 19.260386 ] } },
{ "type": "Feature", "properties": { "Statename": "Odisha", "Districtname": "Rayagada", "Subdistrictname": "Padmapur", "Blockname": "Padmapur", "Healthblockname": "Padmapur", "Healthfacilitytype": "health sub centre", "Facilityname": "Bahupadar", "NIN": 5583587430, "latitude": 19.26129, "longitude": 83.87072, "facility_type_standardized": "hsc", "snapped_lon": 83.842633, "snapped_lat": 19.287998 }, "geometry": { "type": "Point", "coordinates": [ 83.842633, 19.287998 ] } },
{ "type": "Feature", "properties": { "Statename": "Odisha", "Districtname": "Rayagada", "Subdistrictname": "Seskhal", "Blockname": "Rayagada", "Healthblockname": "Rayagada", "Healthfacilitytype": "health sub centre", "Facilityname": "Jemadeipentho", "NIN": 1522626264, "latitude": 19.26144, "longitude": 83.42726, "facility_type_standardized": "hsc", "snapped_lon": 83.427754, "snapped_lat": 19.261817 }, "geometry": { "type": "Point", "coordinates": [ 83.427754, 19.261817 ] } },
{ "type": "Feature", "properties": { "Statename": "Odisha", "Districtname": "Rayagada", "Subdistrictname": "Rayagada", "Blockname": "Kolnara", "Healthblockname": "Kolanara", "Healthfacilitytype": "health sub centre", "Facilityname": "Suri", "NIN": 3848425355, "latitude": 19.27207, "longitude": 83.47245, "facility_type_standardized": "hsc", "snapped_lon": 83.460288, "snapped_lat": 19.276127 }, "geometry": { "type": "Point", "coordinates": [ 83.460288, 19.276127 ] } },
{ "type": "Feature", "properties": { "Statename": "Odisha", "Districtname": "Rayagada", "Subdistrictname": "Rayagada", "Blockname": "Kolnara", "Healthblockname": "Kolanara", "Healthfacilitytype": "health sub centre", "Facilityname": "Bankili", "NIN": 2315221644, "latitude": 19.27265, "longitude": 83.60731, "facility_type_standardized": "hsc", "snapped_lon": 83.610312, "snapped_lat": 19.271207 }, "geometry": { "type": "Point", "coordinates": [ 83.610312, 19.271207 ] } },
{ "type": "Feature", "properties": { "Statename": "Odisha", "Districtname": "Rayagada", "Subdistrictname": "Doraguda", "Blockname": "Kasipur", "Healthblockname": "Kasipur", "Healthfacilitytype": "health sub centre", "Facilityname": "Kodipari", "NIN": 2478372549, "latitude": 19.27399, "longitude": 83.00961, "facility_type_standardized": "hsc", "snapped_lon": 83.00894, "snapped_lat": 19.271857 }, "geometry": { "type": "Point", "coordinates": [ 83.00894, 19.271857 ] } },
{ "type": "Feature", "properties": { "Statename": "Odisha", "Districtname": "Rayagada", "Subdistrictname": "Padmapur", "Blockname": "Padmapur", "Healthblockname": "Padmapur", "Healthfacilitytype": "health sub centre", "Facilityname": "Akhusingi", "NIN": 5876762286, "latitude": 19.27699, "longitude": 83.85825, "facility_type_standardized": "hsc", "snapped_lon": 83.842633, "snapped_lat": 19.287998 }, "geometry": { "type": "Point", "coordinates": [ 83.842633, 19.287998 ] } },
{ "type": "Feature", "properties": { "Statename": "Odisha", "Districtname": "Rayagada", "Subdistrictname": "Padmapur", "Blockname": "Padmapur", "Healthblockname": "Padmapur", "Healthfacilitytype": "health sub centre", "Facilityname": "Saradhapur", "NIN": 2335612251, "latitude": 19.28544, "longitude": 83.90883, "facility_type_standardized": "hsc", "snapped_lon": 83.912569, "snapped_lat": 19.30363 }, "geometry": { "type": "Point", "coordinates": [ 83.912569, 19.30363 ] } },
{ "type": "Feature", "properties": { "Statename": "Odisha", "Districtname": "Rayagada", "Subdistrictname": "Gunupur", "Blockname": "Ramanaguda", "Healthblockname": "Ramanaguda", "Healthfacilitytype": "health sub centre", "Facilityname": "Sundhi Dhamuni", "NIN": 1836781771, "latitude": 19.28564, "longitude": 83.62396, "facility_type_standardized": "hsc", "snapped_lon": 83.61934, "snapped_lat": 19.284018 }, "geometry": { "type": "Point", "coordinates": [ 83.61934, 19.284018 ] } },
{ "type": "Feature", "properties": { "Statename": "Odisha", "Districtname": "Rayagada", "Subdistrictname": "Gunupur", "Blockname": "Kolnara", "Healthblockname": "Kolanara", "Healthfacilitytype": "health sub centre", "Facilityname": "S Pitesu", "NIN": 1352233223, "latitude": 19.28707, "longitude": 83.41716, "facility_type_standardized": "hsc", "snapped_lon": 83.415262, "snapped_lat": 19.287362 }, "geometry": { "type": "Point", "coordinates": [ 83.415262, 19.287362 ] } },
{ "type": "Feature", "properties": { "Statename": "Odisha", "Districtname": "Rayagada", "Subdistrictname": "Rayagada", "Blockname": "Kolnara", "Healthblockname": "Kolanara", "Healthfacilitytype": "health sub centre", "Facilityname": "Munising", "NIN": 5757842827, "latitude": 19.29033, "longitude": 83.46223, "facility_type_standardized": "hsc", "snapped_lon": 83.460549, "snapped_lat": 19.292515 }, "geometry": { "type": "Point", "coordinates": [ 83.460549, 19.292515 ] } },
{ "type": "Feature", "properties": { "Statename": "Odisha", "Districtname": "Rayagada", "Subdistrictname": "Kalyanasingpur", "Blockname": "Kalyansingpur", "Healthblockname": "K.Singpur", "Healthfacilitytype": "health sub centre", "Facilityname": "Seriguma", "NIN": 7254668671, "latitude": 19.29841, "longitude": 83.29584, "facility_type_standardized": "hsc", "snapped_lon": 83.293291, "snapped_lat": 19.298775 }, "geometry": { "type": "Point", "coordinates": [ 83.293291, 19.298775 ] } },
{ "type": "Feature", "properties": { "Statename": "Odisha", "Districtname": "Rayagada", "Subdistrictname": "Padmapur", "Blockname": "Padmapur", "Healthblockname": "Padmapur", "Healthfacilitytype": "health sub centre", "Facilityname": "Kenduguda", "NIN": 2112738113, "latitude": 19.29958, "longitude": 83.90921, "facility_type_standardized": "hsc", "snapped_lon": 83.912569, "snapped_lat": 19.30363 }, "geometry": { "type": "Point", "coordinates": [ 83.912569, 19.30363 ] } },
{ "type": "Feature", "properties": { "Statename": "Odisha", "Districtname": "Rayagada", "Subdistrictname": "Kalyanasingpur", "Blockname": "Kalyansingpur", "Healthblockname": "K.Singpur", "Healthfacilitytype": "health sub centre", "Facilityname": "Deulabadi", "NIN": 4287737136, "latitude": 19.3015, "longitude": 83.28722, "facility_type_standardized": "hsc", "snapped_lon": 83.287066, "snapped_lat": 19.298879 }, "geometry": { "type": "Point", "coordinates": [ 83.287066, 19.298879 ] } },
{ "type": "Feature", "properties": { "Statename": "Odisha", "Districtname": "Rayagada", "Subdistrictname": "Gudari", "Blockname": "Padmapur", "Healthblockname": "Padmapur", "Healthfacilitytype": "health sub centre", "Facilityname": "Naira", "NIN": 4778455354, "latitude": 19.30168, "longitude": 83.77181, "facility_type_standardized": "hsc", "snapped_lon": 83.771072, "snapped_lat": 19.30193 }, "geometry": { "type": "Point", "coordinates": [ 83.771072, 19.30193 ] } },
{ "type": "Feature", "properties": { "Statename": "Odisha", "Districtname": "Rayagada", "Subdistrictname": "Rayagada", "Blockname": "Kolnara", "Healthblockname": "Kolanara", "Healthfacilitytype": "health sub centre", "Facilityname": "Badakhilapadar", "NIN": 4464564188, "latitude": 19.30315, "longitude": 83.53163, "facility_type_standardized": "hsc", "snapped_lon": 83.488238, "snapped_lat": 19.303516 }, "geometry": { "type": "Point", "coordinates": [ 83.488238, 19.303516 ] } },
{ "type": "Feature", "properties": { "Statename": "Odisha", "Districtname": "Rayagada", "Subdistrictname": "Gunupur", "Blockname": "Kolnara", "Healthblockname": "Kolanara", "Healthfacilitytype": "health sub centre", "Facilityname": "Dunduli", "NIN": 4557642842, "latitude": 19.3047, "longitude": 83.38467, "facility_type_standardized": "hsc", "snapped_lon": 83.382442, "snapped_lat": 19.305506 }, "geometry": { "type": "Point", "coordinates": [ 83.382442, 19.305506 ] } },
{ "type": "Feature", "properties": { "Statename": "Odisha", "Districtname": "Rayagada", "Subdistrictname": "Kashipur", "Blockname": "Kasipur", "Healthblockname": "Kasipur", "Healthfacilitytype": "health sub centre", "Facilityname": "Renga", "NIN": 5357883429, "latitude": 19.30537, "longitude": 83.11185, "facility_type_standardized": "hsc", "snapped_lon": 83.11325, "snapped_lat": 19.312216 }, "geometry": { "type": "Point", "coordinates": [ 83.11325, 19.312216 ] } },
{ "type": "Feature", "properties": { "Statename": "Odisha", "Districtname": "Rayagada", "Subdistrictname": "Gudari", "Blockname": "Gudari", "Healthblockname": "Gudari", "Healthfacilitytype": "health sub centre", "Facilityname": "Sanahuma", "NIN": 7557862740, "latitude": 19.30545, "longitude": 83.78613, "facility_type_standardized": "hsc", "snapped_lon": 83.774525, "snapped_lat": 19.303428 }, "geometry": { "type": "Point", "coordinates": [ 83.774525, 19.303428 ] } },
{ "type": "Feature", "properties": { "Statename": "Odisha", "Districtname": "Rayagada", "Subdistrictname": "Padmapur", "Blockname": "Padmapur", "Healthblockname": "Padmapur", "Healthfacilitytype": "health sub centre", "Facilityname": "Jumuruguda", "NIN": 8771526780, "latitude": 19.30753, "longitude": 83.7134, "facility_type_standardized": "hsc", "snapped_lon": 83.723093, "snapped_lat": 19.302763 }, "geometry": { "type": "Point", "coordinates": [ 83.723093, 19.302763 ] } },
{ "type": "Feature", "properties": { "Statename": "Odisha", "Districtname": "Rayagada", "Subdistrictname": "Gunupur", "Blockname": "Kasipur", "Healthblockname": "Kasipur", "Healthfacilitytype": "health sub centre", "Facilityname": "Siripai", "NIN": 6167114120, "latitude": 19.30968, "longitude": 83.21131, "facility_type_standardized": "hsc", "snapped_lon": 83.262559, "snapped_lat": 19.298779 }, "geometry": { "type": "Point", "coordinates": [ 83.262559, 19.298779 ] } },
{ "type": "Feature", "properties": { "Statename": "Odisha", "Districtname": "Rayagada", "Subdistrictname": "Andirakanch", "Blockname": "Kasipur", "Healthblockname": "Kasipur", "Healthfacilitytype": "health sub centre", "Facilityname": "Maikancha", "NIN": 5161171649, "latitude": 19.31867, "longitude": 83.04233, "facility_type_standardized": "hsc", "snapped_lon": 83.042113, "snapped_lat": 19.314407 }, "geometry": { "type": "Point", "coordinates": [ 83.042113, 19.314407 ] } },
{ "type": "Feature", "properties": { "Statename": "Odisha", "Districtname": "Rayagada", "Subdistrictname": "Padmapur", "Blockname": "Padmapur", "Healthblockname": "Padmapur", "Healthfacilitytype": "health sub centre", "Facilityname": "Guluguda", "NIN": 5211441539, "latitude": 19.32468, "longitude": 83.99067, "facility_type_standardized": "hsc", "snapped_lon": 83.963327, "snapped_lat": 19.352292 }, "geometry": { "type": "Point", "coordinates": [ 83.963327, 19.352292 ] } },
{ "type": "Feature", "properties": { "Statename": "Odisha", "Districtname": "Rayagada", "Subdistrictname": "Kashipur", "Blockname": "Kasipur", "Healthblockname": "Kasipur", "Healthfacilitytype": "health sub centre", "Facilityname": "Kumbhasala", "NIN": 4865747168, "latitude": 19.32604, "longitude": 83.09749, "facility_type_standardized": "hsc", "snapped_lon": 83.11325, "snapped_lat": 19.312216 }, "geometry": { "type": "Point", "coordinates": [ 83.11325, 19.312216 ] } },
{ "type": "Feature", "properties": { "Statename": "Odisha", "Districtname": "Rayagada", "Subdistrictname": "Rayagada", "Blockname": "Kolnara", "Healthblockname": "Kolanara", "Healthfacilitytype": "health sub centre", "Facilityname": "Rivolkona", "NIN": 6115166545, "latitude": 19.32747, "longitude": 83.37339, "facility_type_standardized": "hsc", "snapped_lon": 83.36922, "snapped_lat": 19.327606 }, "geometry": { "type": "Point", "coordinates": [ 83.36922, 19.327606 ] } },
{ "type": "Feature", "properties": { "Statename": "Odisha", "Districtname": "Rayagada", "Subdistrictname": "Rayagada", "Blockname": "Kolnara", "Healthblockname": "Kolanara", "Healthfacilitytype": "health sub centre", "Facilityname": "Illigalpadu", "NIN": 4711486771, "latitude": 19.32781, "longitude": 83.44436, "facility_type_standardized": "hsc", "snapped_lon": 83.445788, "snapped_lat": 19.327612 }, "geometry": { "type": "Point", "coordinates": [ 83.445788, 19.327612 ] } },
{ "type": "Feature", "properties": { "Statename": "Odisha", "Districtname": "Rayagada", "Subdistrictname": "Andirakanch", "Blockname": "Kasipur", "Healthblockname": "Kasipur", "Healthfacilitytype": "health sub centre", "Facilityname": "Karanja Kupakhal", "NIN": 5622126265, "latitude": 19.32838, "longitude": 82.97138, "facility_type_standardized": "hsc", "snapped_lon": 82.987916, "snapped_lat": 19.34249 }, "geometry": { "type": "Point", "coordinates": [ 82.987916, 19.34249 ] } },
{ "type": "Feature", "properties": { "Statename": "Odisha", "Districtname": "Rayagada", "Subdistrictname": "Rayagada", "Blockname": "Kolnara", "Healthblockname": "Kolanara", "Healthfacilitytype": "health sub centre", "Facilityname": "Therubali", "NIN": 6435764854, "latitude": 19.33238, "longitude": 83.42532, "facility_type_standardized": "hsc", "snapped_lon": 83.408823, "snapped_lat": 19.33508 }, "geometry": { "type": "Point", "coordinates": [ 83.408823, 19.33508 ] } },
{ "type": "Feature", "properties": { "Statename": "Odisha", "Districtname": "Rayagada", "Subdistrictname": "Padmapur", "Blockname": "Gudari", "Healthblockname": "Gudari", "Healthfacilitytype": "health sub centre", "Facilityname": "MK Rai", "NIN": 7141715123, "latitude": 19.33325, "longitude": 83.81768, "facility_type_standardized": "hsc", "snapped_lon": 83.814869, "snapped_lat": 19.317401 }, "geometry": { "type": "Point", "coordinates": [ 83.814869, 19.317401 ] } },
{ "type": "Feature", "properties": { "Statename": "Odisha", "Districtname": "Rayagada", "Subdistrictname": "Kashipur", "Blockname": "Kasipur", "Healthblockname": "Kasipur", "Healthfacilitytype": "health sub centre", "Facilityname": "Routghati", "NIN": 2628148773, "latitude": 19.34659, "longitude": 83.15245, "facility_type_standardized": "hsc", "snapped_lon": 83.128356, "snapped_lat": 19.33462 }, "geometry": { "type": "Point", "coordinates": [ 83.128356, 19.33462 ] } },
{ "type": "Feature", "properties": { "Statename": "Odisha", "Districtname": "Rayagada", "Subdistrictname": "Bishamakatak", "Blockname": "Bissamcuttack", "Healthblockname": "Bissamacuttack", "Healthfacilitytype": "health sub centre", "Facilityname": "Konabai", "NIN": 4775853247, "latitude": 19.34711, "longitude": 83.54761, "facility_type_standardized": "hsc", "snapped_lon": 83.569478, "snapped_lat": 19.364607 }, "geometry": { "type": "Point", "coordinates": [ 83.569478, 19.364607 ] } },
{ "type": "Feature", "properties": { "Statename": "Odisha", "Districtname": "Rayagada", "Subdistrictname": "Gudari", "Blockname": "Gudari", "Healthblockname": "Gudari", "Healthfacilitytype": "health sub centre", "Facilityname": "Madhuban", "NIN": 8357436727, "latitude": 19.34782, "longitude": 83.74821, "facility_type_standardized": "hsc", "snapped_lon": 83.771345, "snapped_lat": 19.342903 }, "geometry": { "type": "Point", "coordinates": [ 83.771345, 19.342903 ] } },
{ "type": "Feature", "properties": { "Statename": "Odisha", "Districtname": "Rayagada", "Subdistrictname": "Bishamakatak", "Blockname": "Bissamcuttack", "Healthblockname": "Bissamacuttack", "Healthfacilitytype": "health sub centre", "Facilityname": "Purikona", "NIN": 3736267745, "latitude": 19.34833, "longitude": 83.51954, "facility_type_standardized": "hsc", "snapped_lon": 83.554953, "snapped_lat": 19.383692 }, "geometry": { "type": "Point", "coordinates": [ 83.554953, 19.383692 ] } },
{ "type": "Feature", "properties": { "Statename": "Odisha", "Districtname": "Rayagada", "Subdistrictname": "Rayagada", "Blockname": "Kolnara", "Healthblockname": "Kolanara", "Healthfacilitytype": "health sub centre", "Facilityname": "Gadi Seskhalko", "NIN": 3474712837, "latitude": 19.34949, "longitude": 83.37604, "facility_type_standardized": "hsc", "snapped_lon": 83.374879, "snapped_lat": 19.349714 }, "geometry": { "type": "Point", "coordinates": [ 83.374879, 19.349714 ] } },
{ "type": "Feature", "properties": { "Statename": "Odisha", "Districtname": "Rayagada", "Subdistrictname": "Bishamakatak", "Blockname": "Bissamcuttack", "Healthblockname": "Bissamacuttack", "Healthfacilitytype": "health sub centre", "Facilityname": "Durgi", "NIN": 8388161674, "latitude": 19.3503, "longitude": 83.59535, "facility_type_standardized": "hsc", "snapped_lon": 83.592767, "snapped_lat": 19.346314 }, "geometry": { "type": "Point", "coordinates": [ 83.592767, 19.346314 ] } },
{ "type": "Feature", "properties": { "Statename": "Odisha", "Districtname": "Rayagada", "Subdistrictname": "Gudari", "Blockname": "Gudari", "Healthblockname": "Gudari", "Healthfacilitytype": "health sub centre", "Facilityname": "Gudari", "NIN": 6685328285, "latitude": 19.35216, "longitude": 83.78818, "facility_type_standardized": "hsc", "snapped_lon": 83.784125, "snapped_lat": 19.352611 }, "geometry": { "type": "Point", "coordinates": [ 83.784125, 19.352611 ] } },
{ "type": "Feature", "properties": { "Statename": "Odisha", "Districtname": "Rayagada", "Subdistrictname": "Padmapur", "Blockname": "Padmapur", "Healthblockname": "Padmapur", "Healthfacilitytype": "health sub centre", "Facilityname": "Nuagada", "NIN": 7115355658, "latitude": 19.35278, "longitude": 83.96327, "facility_type_standardized": "hsc", "snapped_lon": 83.963479, "snapped_lat": 19.352446 }, "geometry": { "type": "Point", "coordinates": [ 83.963479, 19.352446 ] } },
{ "type": "Feature", "properties": { "Statename": "Odisha", "Districtname": "Rayagada", "Subdistrictname": "Kashipur", "Blockname": "Kasipur", "Healthblockname": "Kasipur", "Healthfacilitytype": "health sub centre", "Facilityname": "Kashipur", "NIN": 1256461524, "latitude": 19.35364, "longitude": 83.12556, "facility_type_standardized": "hsc", "snapped_lon": 83.12259, "snapped_lat": 19.354741 }, "geometry": { "type": "Point", "coordinates": [ 83.12259, 19.354741 ] } },
{ "type": "Feature", "properties": { "Statename": "Odisha", "Districtname": "Rayagada", "Subdistrictname": "Rayagada", "Blockname": "Kolnara", "Healthblockname": "Kolanara", "Healthfacilitytype": "health sub centre", "Facilityname": "Khedapada", "NIN": 2786634242, "latitude": 19.35444, "longitude": 83.43614, "facility_type_standardized": "hsc", "snapped_lon": 83.445445, "snapped_lat": 19.354461 }, "geometry": { "type": "Point", "coordinates": [ 83.445445, 19.354461 ] } },
{ "type": "Feature", "properties": { "Statename": "Odisha", "Districtname": "Rayagada", "Subdistrictname": "Gudari", "Blockname": "Gudari", "Healthblockname": "Gudari", "Healthfacilitytype": "health sub centre", "Facilityname": "Khariguda", "NIN": 7778114467, "latitude": 19.35498, "longitude": 83.88489, "facility_type_standardized": "hsc", "snapped_lon": 83.920136, "snapped_lat": 19.31366 }, "geometry": { "type": "Point", "coordinates": [ 83.920136, 19.31366 ] } },
{ "type": "Feature", "properties": { "Statename": "Odisha", "Districtname": "Rayagada", "Subdistrictname": "Padmapur", "Blockname": "Gudari", "Healthblockname": "Gudari", "Healthfacilitytype": "health sub centre", "Facilityname": "Chakunda", "NIN": 8531874454, "latitude": 19.35508, "longitude": 83.66913, "facility_type_standardized": "hsc", "snapped_lon": 83.628331, "snapped_lat": 19.323761 }, "geometry": { "type": "Point", "coordinates": [ 83.628331, 19.323761 ] } },
{ "type": "Feature", "properties": { "Statename": "Odisha", "Districtname": "Rayagada", "Subdistrictname": "Padmapur", "Blockname": "Gudari", "Healthblockname": "Gudari", "Healthfacilitytype": "health sub centre", "Facilityname": "Kadama", "NIN": 2724786815, "latitude": 19.36877, "longitude": 83.8372, "facility_type_standardized": "hsc", "snapped_lon": 83.793543, "snapped_lat": 19.385431 }, "geometry": { "type": "Point", "coordinates": [ 83.793543, 19.385431 ] } },
{ "type": "Feature", "properties": { "Statename": "Odisha", "Districtname": "Rayagada", "Subdistrictname": "Rayagada", "Blockname": "Kolnara", "Healthblockname": "Kolanara", "Healthfacilitytype": "health sub centre", "Facilityname": "Dumuriguma", "NIN": 5531115839, "latitude": 19.37135, "longitude": 83.42983, "facility_type_standardized": "hsc", "snapped_lon": 83.444424, "snapped_lat": 19.364808 }, "geometry": { "type": "Point", "coordinates": [ 83.444424, 19.364808 ] } },
{ "type": "Feature", "properties": { "Statename": "Odisha", "Districtname": "Rayagada", "Subdistrictname": "Kashipur", "Blockname": "Bissamcuttack", "Healthblockname": "Bissamacuttack", "Healthfacilitytype": "health sub centre", "Facilityname": "Dumurnali", "NIN": 7181787248, "latitude": 19.37494, "longitude": 83.61778, "facility_type_standardized": "hsc", "snapped_lon": 83.593055, "snapped_lat": 19.34611 }, "geometry": { "type": "Point", "coordinates": [ 83.593055, 19.34611 ] } },
{ "type": "Feature", "properties": { "Statename": "Odisha", "Districtname": "Rayagada", "Subdistrictname": "Gudari", "Blockname": "Gudari", "Healthblockname": "Gudari", "Healthfacilitytype": "health sub centre", "Facilityname": "Salimi", "NIN": 1716351323, "latitude": 19.37515, "longitude": 83.80427, "facility_type_standardized": "hsc", "snapped_lon": 83.791062, "snapped_lat": 19.380035 }, "geometry": { "type": "Point", "coordinates": [ 83.791062, 19.380035 ] } },
{ "type": "Feature", "properties": { "Statename": "Odisha", "Districtname": "Rayagada", "Subdistrictname": "Gudari", "Blockname": "Gudari", "Healthblockname": "Gudari", "Healthfacilitytype": "health sub centre", "Facilityname": "Gouda Dhepaguda", "NIN": 5761721512, "latitude": 19.37558, "longitude": 83.70098, "facility_type_standardized": "hsc", "snapped_lon": 83.730892, "snapped_lat": 19.306319 }, "geometry": { "type": "Point", "coordinates": [ 83.730892, 19.306319 ] } },
{ "type": "Feature", "properties": { "Statename": "Odisha", "Districtname": "Rayagada", "Subdistrictname": "Gudari", "Blockname": "Bissamcuttack", "Healthblockname": "Bissamacuttack", "Healthfacilitytype": "health sub centre", "Facilityname": "Murtuli", "NIN": 4547143778, "latitude": 19.38369, "longitude": 83.57962, "facility_type_standardized": "hsc", "snapped_lon": 83.56412, "snapped_lat": 19.377606 }, "geometry": { "type": "Point", "coordinates": [ 83.56412, 19.377606 ] } },
{ "type": "Feature", "properties": { "Statename": "Odisha", "Districtname": "Rayagada", "Subdistrictname": "Kashipur", "Blockname": "Kasipur", "Healthblockname": "Kasipur", "Healthfacilitytype": "health sub centre", "Facilityname": "Chandragiri", "NIN": 7617465872, "latitude": 19.38378, "longitude": 82.98751, "facility_type_standardized": "hsc", "snapped_lon": 82.989268, "snapped_lat": 19.385975 }, "geometry": { "type": "Point", "coordinates": [ 82.989268, 19.385975 ] } },
{ "type": "Feature", "properties": { "Statename": "Odisha", "Districtname": "Rayagada", "Subdistrictname": "Bishamakatak", "Blockname": "Bissamcuttack", "Healthblockname": "Bissamacuttack", "Healthfacilitytype": "health sub centre", "Facilityname": "Bhatapur", "NIN": 4527767349, "latitude": 19.38546, "longitude": 83.44402, "facility_type_standardized": "hsc", "snapped_lon": 83.446865, "snapped_lat": 19.384905 }, "geometry": { "type": "Point", "coordinates": [ 83.446865, 19.384905 ] } },
{ "type": "Feature", "properties": { "Statename": "Odisha", "Districtname": "Rayagada", "Subdistrictname": "Kashipur", "Blockname": "Kasipur", "Healthblockname": "Kasipur", "Healthfacilitytype": "health sub centre", "Facilityname": "Surugunja", "NIN": 2866863364, "latitude": 19.3874, "longitude": 83.01139, "facility_type_standardized": "hsc", "snapped_lon": 83.012747, "snapped_lat": 19.387358 }, "geometry": { "type": "Point", "coordinates": [ 83.012747, 19.387358 ] } },
{ "type": "Feature", "properties": { "Statename": "Odisha", "Districtname": "Rayagada", "Subdistrictname": "Andirakanch", "Blockname": "Kasipur", "Healthblockname": "Kasipur", "Healthfacilitytype": "health sub centre", "Facilityname": "Bartibali", "NIN": 8858628152, "latitude": 19.38827, "longitude": 83.21264, "facility_type_standardized": "hsc", "snapped_lon": 83.206946, "snapped_lat": 19.38348 }, "geometry": { "type": "Point", "coordinates": [ 83.206946, 19.38348 ] } },
{ "type": "Feature", "properties": { "Statename": "Odisha", "Districtname": "Rayagada", "Subdistrictname": "Gudari", "Blockname": "Bissamcuttack", "Healthblockname": "Bissamacuttack", "Healthfacilitytype": "health sub centre", "Facilityname": "Kumardhamuni", "NIN": 2775438548, "latitude": 19.38913, "longitude": 83.55294, "facility_type_standardized": "hsc", "snapped_lon": 83.552878, "snapped_lat": 19.389194 }, "geometry": { "type": "Point", "coordinates": [ 83.552878, 19.389194 ] } },
{ "type": "Feature", "properties": { "Statename": "Odisha", "Districtname": "Rayagada", "Subdistrictname": "Bishamakatak", "Blockname": "Bissamcuttack", "Healthblockname": "Bissamacuttack", "Healthfacilitytype": "health sub centre", "Facilityname": "Bethiapada", "NIN": 2876731445, "latitude": 19.38937, "longitude": 83.52008, "facility_type_standardized": "hsc", "snapped_lon": 83.551375, "snapped_lat": 19.394332 }, "geometry": { "type": "Point", "coordinates": [ 83.551375, 19.394332 ] } },
{ "type": "Feature", "properties": { "Statename": "Odisha", "Districtname": "Rayagada", "Subdistrictname": "Kalyanasingpur", "Blockname": "Kalyansingpur", "Healthblockname": "K.Singpur", "Healthfacilitytype": "health sub centre", "Facilityname": "Belekona", "NIN": 8617426385, "latitude": 19.38978, "longitude": 83.36128, "facility_type_standardized": "hsc", "snapped_lon": 83.356084, "snapped_lat": 19.389854 }, "geometry": { "type": "Point", "coordinates": [ 83.356084, 19.389854 ] } },
{ "type": "Feature", "properties": { "Statename": "Odisha", "Districtname": "Rayagada", "Subdistrictname": "Padmapur", "Blockname": "Padmapur", "Healthblockname": "Padmapur", "Healthfacilitytype": "health sub centre", "Facilityname": "Khilapadar", "NIN": 4322247844, "latitude": 19.39536, "longitude": 83.94068, "facility_type_standardized": "hsc", "snapped_lon": 83.97278, "snapped_lat": 19.370352 }, "geometry": { "type": "Point", "coordinates": [ 83.97278, 19.370352 ] } },
{ "type": "Feature", "properties": { "Statename": "Odisha", "Districtname": "Rayagada", "Subdistrictname": "Kashipur", "Blockname": "Kasipur", "Healthblockname": "Kasipur", "Healthfacilitytype": "health sub centre", "Facilityname": "Mandibisi", "NIN": 2141361564, "latitude": 19.40046, "longitude": 83.16179, "facility_type_standardized": "hsc", "snapped_lon": 83.158782, "snapped_lat": 19.395978 }, "geometry": { "type": "Point", "coordinates": [ 83.158782, 19.395978 ] } },