{
"type": "FeatureCollection",
"name": "sambalpur_facilities_snapped",
"crs": { "type": "name", "properties": { "name": "urn:ogc:def:crs:OGC:1.3:CRS84" } },
"features": [
{ "type": "Feature", "properties": { "Statename": "Odisha", "Districtname": "Sambalpur", "Subdistrictname": "Charamal", "Blockname": "Rairakhol", "Healthblockname": "Rairakhole", "Healthfacilitytype": "community health centre", "Facilityname": "Charmal", "NIN": 6137845688, "latitude": 21.10848, "longitude": 84.2154, "facility_type_standardized": "chc", "snapped_lon": 84.215806, "snapped_lat": 21.107313 }, "geometry": { "type": "Point", "coordinates": [ 84.215806, 21.107313 ] } },
{ "type": "Feature", "properties": { "Statename": "Odisha", "Districtname": "Sambalpur", "Subdistrictname": "Jujomura", "Blockname": "Jujomura", "Healthblockname": "Jujmura", "Healthfacilitytype": "community health centre", "Facilityname": "Jujomura", "NIN": 8282733578, "latitude": 21.23776, "longitude": 84.13375, "facility_type_standardized": "chc", "snapped_lon": 84.134617, "snapped_lat": 21.244994 }, "geometry": { "type": "Point", "coordinates": [ 84.134617, 21.244994 ] } },
{ "type": "Feature", "properties": { "Statename": "Odisha", "Districtname": "Sambalpur", "Subdistrictname": "Naktideul", "Blockname": "Naktideul", "Healthblockname": "Naktideul", "Healthfacilitytype": "community health centre", "Facilityname": "Naktideul", "NIN": 1783685678, "latitude": 21.25605, "longitude": 84.54399, "facility_type_standardized": "chc", "snapped_lon": 84.539104, "snapped_lat": 21.251867 }, "geometry": { "type": "Point", "coordinates": [ 84.539104, 21.251867 ] } },
{ "type": "Feature", "properties": { "Statename": "Odisha", "Districtname": "Sambalpur", "Subdistrictname": "Sadar", "Blockname": "Maneswar", "Healthblockname": "Maneswar", "Healthfacilitytype": "community health centre", "Facilityname": "Themera", "NIN": 8256865687, "latitude": 21.48109, "longitude": 84.03731, "facility_type_standardized": "chc", "snapped_lon": 84.037201, "snapped_lat": 21.479392 }, "geometry": { "type": "Point", "coordinates": [ 84.037201, 21.479392 ] } },
{ "type": "Feature", "properties": { "Statename": "Odisha", "Districtname": "Sambalpur", "Subdistrictname": "Sambalpur (M)", "Blockname": "Dhankauda", "Healthblockname": "Dhankauda", "Healthfacilitytype": "community health centre", "Facilityname": "Hirakud", "NIN": 5244814447, "latitude": 21.5266, "longitude": 83.9023, "facility_type_standardized": "chc", "snapped_lon": 83.879373, "snapped_lat": 21.536686 }, "geometry": { "type": "Point", "coordinates": [ 83.879373, 21.536686 ] } },
{ "type": "Feature", "properties": { "Statename": "Odisha", "Districtname": "Sambalpur", "Subdistrictname": "Sadar", "Blockname": "Dhankauda", "Healthblockname": "Dhankauda", "Healthfacilitytype": "community health centre", "Facilityname": "Debeipali", "NIN": 2317487730, "latitude": 21.53821, "longitude": 84.02666, "facility_type_standardized": "chc", "snapped_lon": 84.030502, "snapped_lat": 21.534308 }, "geometry": { "type": "Point", "coordinates": [ 84.030502, 21.534308 ] } },
{ "type": "Feature", "properties": { "Statename": "Odisha", "Districtname": "Sambalpur", "Subdistrictname": "Jamankira", "Blockname": "Jamankira", "Healthblockname": "Jamanakera", "Healthfacilitytype": "community health centre", "Facilityname": "Fasimal", "NIN": 1388587535, "latitude": 21.60196, "longitude": 84.28288, "facility_type_standardized": "chc", "snapped_lon": 84.280277, "snapped_lat": 21.601908 }, "geometry": { "type": "Point", "coordinates": [ 84.280277, 21.601908 ] } },
{ "type": "Feature", "properties": { "Statename": "Odisha", "Districtname": "Sambalpur", "Subdistrictname": "Rengali", "Blockname": "Rengali", "Healthblockname": "Rengali", "Healthfacilitytype": "community health centre", "Facilityname": "Laida", "NIN": 8557578336, "latitude": 21.72669, "longitude": 84.23518, "facility_type_standardized": "chc", "snapped_lon": 84.241852, "snapped_lat": 21.71673 }, "geometry": { "type": "Point", "coordinates": [ 84.241852, 21.71673 ] } },
{ "type": "Feature", "properties": { "Statename": "Odisha", "Districtname": "Sambalpur", "Subdistrictname": "Kochinda", "Blockname": "Kuchinda", "Healthblockname": "Kuchinda", "Healthfacilitytype": "community health centre", "Facilityname": "Kuntara", "NIN": 3432686768, "latitude": 21.79248, "longitude": 84.52218, "facility_type_standardized": "chc", "snapped_lon": 84.527601, "snapped_lat": 21.794559 }, "geometry": { "type": "Point", "coordinates": [ 84.527601, 21.794559 ] } },
{ "type": "Feature", "properties": { "Statename": "Odisha", "Districtname": "Sambalpur", "Subdistrictname": "Govindpur", "Blockname": "Bamra", "Healthblockname": "Bamara", "Healthfacilitytype": "community health centre", "Facilityname": "Govindpur", "NIN": 1111346548, "latitude": 22.04549, "longitude": 84.29027, "facility_type_standardized": "chc", "snapped_lon": 84.282634, "snapped_lat": 22.050016 }, "geometry": { "type": "Point", "coordinates": [ 84.282634, 22.050016 ] } },
{ "type": "Feature", "properties": { "Statename": "Odisha", "Districtname": "Sambalpur", "Subdistrictname": "Govindpur", "Blockname": "Bamra", "Healthblockname": "Bamara", "Healthfacilitytype": "community health centre", "Facilityname": "Garposh", "NIN": 6735246487, "latitude": 22.12411, "longitude": 84.41974, "facility_type_standardized": "chc", "snapped_lon": 84.424254, "snapped_lat": 22.132864 }, "geometry": { "type": "Point", "coordinates": [ 84.424254, 22.132864 ] } },
{ "type": "Feature", "properties": { "Statename": "Odisha", "Districtname": "Sambalpur", "Subdistrictname": "Sambalpur (M)", "Blockname": "Notmapped", "Healthblockname": "Notmapped", "Healthfacilitytype": "district hospital", "Facilityname": "Sambalpur", "NIN": 2535581124, "latitude": 21.47313, "longitude": 83.9765, "facility_type_standardized": "dh", "snapped_lon": 83.973277, "snapped_lat": 21.483443 }, "geometry": { "type": "Point", "coordinates": [ 83.973277, 21.483443 ] } },
{ "type": "Feature", "properties": { "Statename": "Odisha", "Districtname": "Sambalpur", "Subdistrictname": "Charamal", "Blockname": "Rairakhol", "Healthblockname": "Rairakhole", "Healthfacilitytype": "primary health centre", "Facilityname": "Kadaligarh", "NIN": 1111346365, "latitude": 20.95107, "longitude": 84.31084, "facility_type_standardized": "phc", "snapped_lon": 84.307655, "snapped_lat": 20.952024 }, "geometry": { "type": "Point", "coordinates": [ 84.307655, 20.952024 ] } },
{ "type": "Feature", "properties": { "Statename": "Odisha", "Districtname": "Sambalpur", "Subdistrictname": "Charamal", "Blockname": "Rairakhol", "Healthblockname": "Rairakhole", "Healthfacilitytype": "primary health centre", "Facilityname": "Badmal", "NIN": 1111346332, "latitude": 21.1082, "longitude": 84.07736, "facility_type_standardized": "phc", "snapped_lon": 84.067197, "snapped_lat": 21.07287 }, "geometry": { "type": "Point", "coordinates": [ 84.067197, 21.07287 ] } },
{ "type": "Feature", "properties": { "Statename": "Odisha", "Districtname": "Sambalpur", "Subdistrictname": "Naktideul", "Blockname": "Naktideul", "Healthblockname": "Naktideul", "Healthfacilitytype": "primary health centre", "Facilityname": "Batagaon", "NIN": 1111347629, "latitude": 21.24157, "longitude": 84.65826, "facility_type_standardized": "phc", "snapped_lon": 84.659319, "snapped_lat": 21.240521 }, "geometry": { "type": "Point", "coordinates": [ 84.659319, 21.240521 ] } },
{ "type": "Feature", "properties": { "Statename": "Odisha", "Districtname": "Sambalpur", "Subdistrictname": "Dhama", "Blockname": "Maneswar", "Healthblockname": "Maneswar", "Healthfacilitytype": "primary health centre", "Facilityname": "Dhama", "NIN": 1111346639, "latitude": 21.26004, "longitude": 83.92458, "facility_type_standardized": "phc", "snapped_lon": 83.919037, "snapped_lat": 21.256095 }, "geometry": { "type": "Point", "coordinates": [ 83.919037, 21.256095 ] } },
{ "type": "Feature", "properties": { "Statename": "Odisha", "Districtname": "Sambalpur", "Subdistrictname": "Naktideul", "Blockname": "Naktideul", "Healthblockname": "Naktideul", "Healthfacilitytype": "primary health centre", "Facilityname": "G.C Pur", "NIN": 1111347652, "latitude": 21.3194, "longitude": 84.3827, "facility_type_standardized": "phc", "snapped_lon": 84.382788, "snapped_lat": 21.321581 }, "geometry": { "type": "Point", "coordinates": [ 84.382788, 21.321581 ] } },
{ "type": "Feature", "properties": { "Statename": "Odisha", "Districtname": "Sambalpur", "Subdistrictname": "Jujomura", "Blockname": "Jujomura", "Healthblockname": "Jujmura", "Healthfacilitytype": "primary health centre", "Facilityname": "Hatibari", "NIN": 1848236467, "latitude": 21.3313, "longitude": 84.10079, "facility_type_standardized": "phc", "snapped_lon": 84.098459, "snapped_lat": 21.343235 }, "geometry": { "type": "Point", "coordinates": [ 84.098459, 21.343235 ] } },
{ "type": "Feature", "properties": { "Statename": "Odisha", "Districtname": "Sambalpur", "Subdistrictname": "Jujomura", "Blockname": "Jujomura", "Healthblockname": "Jujmura", "Healthfacilitytype": "primary health centre", "Facilityname": "Meghapal", "NIN": 1111353684, "latitude": 21.35513, "longitude": 84.24712, "facility_type_standardized": "phc", "snapped_lon": 84.23632, "snapped_lat": 21.351092 }, "geometry": { "type": "Point", "coordinates": [ 84.23632, 21.351092 ] } },
{ "type": "Feature", "properties": { "Statename": "Odisha", "Districtname": "Sambalpur", "Subdistrictname": "Sambalpur (M)", "Blockname": "Notmapped", "Healthblockname": "Notmapped", "Healthfacilitytype": "uphc", "Facilityname": "UPHC Dhankauda", "NIN": 1111347355, "latitude": 21.39258, "longitude": 83.91327, "facility_type_standardized": "phc", "snapped_lon": 83.909671, "snapped_lat": 21.397894 }, "geometry": { "type": "Point", "coordinates": [ 83.909671, 21.397894 ] } },
{ "type": "Feature", "properties": { "Statename": "Odisha", "Districtname": "Sambalpur", "Subdistrictname": "Sambalpur (M)", "Blockname": "Notmapped", "Healthblockname": "Notmapped", "Healthfacilitytype": "uphc", "Facilityname": "UPHC Maneswar", "NIN": 1111346456, "latitude": 21.41479, "longitude": 84.03514, "facility_type_standardized": "phc", "snapped_lon": 84.034726, "snapped_lat": 21.416839 }, "geometry": { "type": "Point", "coordinates": [ 84.034726, 21.416839 ] } },
{ "type": "Feature", "properties": { "Statename": "Odisha", "Districtname": "Sambalpur", "Subdistrictname": "Sambalpur (M)", "Blockname": "Notmapped", "Healthblockname": "Notmapped", "Healthfacilitytype": "uphc", "Facilityname": "UPHC Chaurpur", "NIN": 1111347322, "latitude": 21.43657, "longitude": 83.97003, "facility_type_standardized": "phc", "snapped_lon": 83.971136, "snapped_lat": 21.428002 }, "geometry": { "type": "Point", "coordinates": [ 83.971136, 21.428002 ] } },
{ "type": "Feature", "properties": { "Statename": "Odisha", "Districtname": "Sambalpur", "Subdistrictname": "Jamankira", "Blockname": "Jamankira", "Healthblockname": "Jamanakera", "Healthfacilitytype": "primary health centre", "Facilityname": "Kulundi", "NIN": 1111348312, "latitude": 21.43922, "longitude": 84.19505, "facility_type_standardized": "phc", "snapped_lon": 84.183029, "snapped_lat": 21.446269 }, "geometry": { "type": "Point", "coordinates": [ 84.183029, 21.446269 ] } },
{ "type": "Feature", "properties": { "Statename": "Odisha", "Districtname": "Sambalpur", "Subdistrictname": "Jujomura", "Blockname": "Jujomura", "Healthblockname": "Jujmura", "Healthfacilitytype": "primary health centre", "Facilityname": "Padiabahal", "NIN": 5723738679, "latitude": 21.44863, "longitude": 84.15313, "facility_type_standardized": "phc", "snapped_lon": 84.143834, "snapped_lat": 21.441168 }, "geometry": { "type": "Point", "coordinates": [ 84.143834, 21.441168 ] } },
{ "type": "Feature", "properties": { "Statename": "Odisha", "Districtname": "Sambalpur", "Subdistrictname": "Sambalpur (M)", "Blockname": "Notmapped", "Healthblockname": "Notmapped", "Healthfacilitytype": "uphc", "Facilityname": "UPHC Dhanupali", "NIN": 1111347413, "latitude": 21.48568, "longitude": 83.96468, "facility_type_standardized": "phc", "snapped_lon": 83.973277, "snapped_lat": 21.483443 }, "geometry": { "type": "Point", "coordinates": [ 83.973277, 21.483443 ] } },
{ "type": "Feature", "properties": { "Statename": "Odisha", "Districtname": "Sambalpur", "Subdistrictname": "Dhama", "Blockname": "Maneswar", "Healthblockname": "Maneswar", "Healthfacilitytype": "primary health centre", "Facilityname": "Parmanpur", "NIN": 5874618456, "latitude": 21.53145, "longitude": 84.10904, "facility_type_standardized": "phc", "snapped_lon": 84.110797, "snapped_lat": 21.528202 }, "geometry": { "type": "Point", "coordinates": [ 84.110797, 21.528202 ] } },
{ "type": "Feature", "properties": { "Statename": "Odisha", "Districtname": "Sambalpur", "Subdistrictname": "Dhama", "Blockname": "Maneswar", "Healthblockname": "Maneswar", "Healthfacilitytype": "primary health centre", "Facilityname": "Sangramal", "NIN": 1111346423, "latitude": 21.5329, "longitude": 84.18524, "facility_type_standardized": "phc", "snapped_lon": 84.190248, "snapped_lat": 21.540678 }, "geometry": { "type": "Point", "coordinates": [ 84.190248, 21.540678 ] } },
{ "type": "Feature", "properties": { "Statename": "Odisha", "Districtname": "Sambalpur", "Subdistrictname": "Jamankira", "Blockname": "Jamankira", "Healthblockname": "Jamanakera", "Healthfacilitytype": "primary health centre", "Facilityname": "Jamankira", "NIN": 1111348221, "latitude": 21.53325, "longitude": 84.38342, "facility_type_standardized": "phc", "snapped_lon": 84.381939, "snapped_lat": 21.528444 }, "geometry": { "type": "Point", "coordinates": [ 84.381939, 21.528444 ] } },
{ "type": "Feature", "properties": { "Statename": "Odisha", "Districtname": "Sambalpur", "Subdistrictname": "Jamankira", "Blockname": "Jamankira", "Healthblockname": "Jamanakera", "Healthfacilitytype": "primary health centre", "Facilityname": "Banjari", "NIN": 1111348163, "latitude": 21.59583, "longitude": 84.43338, "facility_type_standardized": "phc", "snapped_lon": 84.432523, "snapped_lat": 21.594849 }, "geometry": { "type": "Point", "coordinates": [ 84.432523, 21.594849 ] } },
{ "type": "Feature", "properties": { "Statename": "Odisha", "Districtname": "Sambalpur", "Subdistrictname": "Rengali", "Blockname": "Rengali", "Healthblockname": "Rengali", "Healthfacilitytype": "primary health centre", "Facilityname": "Katarbaga", "NIN": 4641113214, "latitude": 21.63599, "longitude": 84.05106, "facility_type_standardized": "phc", "snapped_lon": 84.060794, "snapped_lat": 21.646729 }, "geometry": { "type": "Point", "coordinates": [ 84.060794, 21.646729 ] } },
{ "type": "Feature", "properties": { "Statename": "Odisha", "Districtname": "Sambalpur", "Subdistrictname": "Rengali", "Blockname": "Rengali", "Healthblockname": "Rengali", "Healthfacilitytype": "primary health centre", "Facilityname": "Katarbaga", "NIN": 4641113214, "latitude": 21.64356, "longitude": 84.1299, "facility_type_standardized": "phc", "snapped_lon": 84.121987, "snapped_lat": 21.647751 }, "geometry": { "type": "Point", "coordinates": [ 84.121987, 21.647751 ] } },
{ "type": "Feature", "properties": { "Statename": "Odisha", "Districtname": "Sambalpur", "Subdistrictname": "Jamankira", "Blockname": "Jamankira", "Healthblockname": "Jamanakera", "Healthfacilitytype": "primary health centre", "Facilityname": "Kenadhipa", "NIN": 1111348254, "latitude": 21.64749, "longitude": 84.24001, "facility_type_standardized": "phc", "snapped_lon": 84.238534, "snapped_lat": 21.662345 }, "geometry": { "type": "Point", "coordinates": [ 84.238534, 21.662345 ] } },
{ "type": "Feature", "properties": { "Statename": "Odisha", "Districtname": "Sambalpur", "Subdistrictname": "Jamankira", "Blockname": "Jamankira", "Healthblockname": "Jamanakera", "Healthfacilitytype": "primary health centre", "Facilityname": "Bhojpur", "NIN": 6843214682, "latitude": 21.65011, "longitude": 84.40585, "facility_type_standardized": "phc", "snapped_lon": 84.403528, "snapped_lat": 21.653716 }, "geometry": { "type": "Point", "coordinates": [ 84.403528, 21.653716 ] } },
{ "type": "Feature", "properties": { "Statename": "Odisha", "Districtname": "Sambalpur", "Subdistrictname": "Kochinda", "Blockname": "Kuchinda", "Healthblockname": "Kuchinda", "Healthfacilitytype": "primary health centre", "Facilityname": "Tureiniktimal", "NIN": 1561183169, "latitude": 21.71668, "longitude": 84.40327, "facility_type_standardized": "phc", "snapped_lon": 84.403045, "snapped_lat": 21.729997 }, "geometry": { "type": "Point", "coordinates": [ 84.403045, 21.729997 ] } },
{ "type": "Feature", "properties": { "Statename": "Odisha", "Districtname": "Sambalpur", "Subdistrictname": "Rengali", "Blockname": "Rengali", "Healthblockname": "Rengali", "Healthfacilitytype": "primary health centre", "Facilityname": "Babu Khinda", "NIN": 1111347231, "latitude": 21.73493, "longitude": 83.99474, "facility_type_standardized": "phc", "snapped_lon": 83.991792, "snapped_lat": 21.735176 }, "geometry": { "type": "Point", "coordinates": [ 83.991792, 21.735176 ] } },
{ "type": "Feature", "properties": { "Statename": "Odisha", "Districtname": "Sambalpur", "Subdistrictname": "Kochinda", "Blockname": "Kuchinda", "Healthblockname": "Kuchinda", "Healthfacilitytype": "primary health centre", "Facilityname": "Kuturachan", "NIN": 1111347538, "latitude": 21.74096, "longitude": 84.29908, "facility_type_standardized": "phc", "snapped_lon": 84.296123, "snapped_lat": 21.74459 }, "geometry": { "type": "Point", "coordinates": [ 84.296123, 21.74459 ] } },
{ "type": "Feature", "properties": { "Statename": "Odisha", "Districtname": "Sambalpur", "Subdistrictname": "Kochinda", "Blockname": "Kuchinda", "Healthblockname": "Kuchinda", "Healthfacilitytype": "primary health centre", "Facilityname": "Kusumi", "NIN": 2648735468, "latitude": 21.7674, "longitude": 84.5271, "facility_type_standardized": "phc", "snapped_lon": 84.524419, "snapped_lat": 21.764873 }, "geometry": { "type": "Point", "coordinates": [ 84.524419, 21.764873 ] } },
{ "type": "Feature", "properties": { "Statename": "Odisha", "Districtname": "Sambalpur", "Subdistrictname": "Kochinda", "Blockname": "Kuchinda", "Healthblockname": "Kuchinda", "Healthfacilitytype": "primary health centre", "Facilityname": "Gochhara", "NIN": 1111347561, "latitude": 21.79868, "longitude": 84.40981, "facility_type_standardized": "phc", "snapped_lon": 84.410922, "snapped_lat": 21.802463 }, "geometry": { "type": "Point", "coordinates": [ 84.410922, 21.802463 ] } },
{ "type": "Feature", "properties": { "Statename": "Odisha", "Districtname": "Sambalpur", "Subdistrictname": "Govindpur", "Blockname": "Bamra", "Healthblockname": "Bamara", "Healthfacilitytype": "primary health centre", "Facilityname": "Mahulpali", "NIN": 1111347140, "latitude": 21.86084, "longitude": 84.41338, "facility_type_standardized": "phc", "snapped_lon": 84.41122, "snapped_lat": 21.866397 }, "geometry": { "type": "Point", "coordinates": [ 84.41122, 21.866397 ] } },
{ "type": "Feature", "properties": { "Statename": "Odisha", "Districtname": "Sambalpur", "Subdistrictname": "Govindpur", "Blockname": "Bamra", "Healthblockname": "Bamara", "Healthfacilitytype": "primary health centre", "Facilityname": "Babuniktimal", "NIN": 1111346571, "latitude": 21.86672, "longitude": 84.46085, "facility_type_standardized": "phc", "snapped_lon": 84.45954, "snapped_lat": 21.853692 }, "geometry": { "type": "Point", "coordinates": [ 84.45954, 21.853692 ] } },
{ "type": "Feature", "properties": { "Statename": "Odisha", "Districtname": "Sambalpur", "Subdistrictname": "Govindpur", "Blockname": "Bamra", "Healthblockname": "Bamara", "Healthfacilitytype": "primary health centre", "Facilityname": "Keseibahal", "NIN": 1111346720, "latitude": 21.91254, "longitude": 84.39531, "facility_type_standardized": "phc", "snapped_lon": 84.387401, "snapped_lat": 21.909615 }, "geometry": { "type": "Point", "coordinates": [ 84.387401, 21.909615 ] } },
{ "type": "Feature", "properties": { "Statename": "Odisha", "Districtname": "Sambalpur", "Subdistrictname": "Govindpur", "Blockname": "Bamra", "Healthblockname": "Bamara", "Healthfacilitytype": "primary health centre", "Facilityname": "Jarabaga", "NIN": 1111346753, "latitude": 21.95675, "longitude": 84.45403, "facility_type_standardized": "phc", "snapped_lon": 84.462025, "snapped_lat": 21.954718 }, "geometry": { "type": "Point", "coordinates": [ 84.462025, 21.954718 ] } },
{ "type": "Feature", "properties": { "Statename": "Odisha", "Districtname": "Sambalpur", "Subdistrictname": "Govindpur", "Blockname": "Bamra", "Healthblockname": "Bamara", "Healthfacilitytype": "primary health centre", "Facilityname": "Burbuda", "NIN": 1111346662, "latitude": 22.1156, "longitude": 84.31715, "facility_type_standardized": "phc", "snapped_lon": 84.297114, "snapped_lat": 22.110818 }, "geometry": { "type": "Point", "coordinates": [ 84.297114, 22.110818 ] } },
{ "type": "Feature", "properties": { "Statename": "Odisha", "Districtname": "Sambalpur", "Subdistrictname": "Rairakhol", "Blockname": "Notmapped", "Healthblockname": "Notmapped", "Healthfacilitytype": "sub district hospital", "Facilityname": "Rairakhol", "NIN": 6184284633, "latitude": 21.06932, "longitude": 84.34475, "facility_type_standardized": "sdh", "snapped_lon": 84.333734, "snapped_lat": 21.069596 }, "geometry": { "type": "Point", "coordinates": [ 84.333734, 21.069596 ] } },
{ "type": "Feature", "properties": { "Statename": "Odisha", "Districtname": "Sambalpur", "Subdistrictname": "Kochinda", "Blockname": "Notmapped", "Healthblockname": "Notmapped", "Healthfacilitytype": "sub district hospital", "Facilityname": "Kochinda", "NIN": 6713634845, "latitude": 21.74666, "longitude": 84.36168, "facility_type_standardized": "sdh", "snapped_lon": 84.353755, "snapped_lat": 21.745092 }, "geometry": { "type": "Point", "coordinates": [ 84.353755, 21.745092 ] } },
{ "type": "Feature", "properties": { "Statename": "Odisha", "Districtname": "Sambalpur", "Subdistrictname": "Charamal", "Blockname": "Rairakhol", "Healthblockname": "Rairakhole", "Healthfacilitytype": "health sub centre", "Facilityname": "Tribanpur", "NIN": 7781756585, "latitude": 20.99008, "longitude": 84.23774, "facility_type_standardized": "hsc", "snapped_lon": 84.238068, "snapped_lat": 20.995256 }, "geometry": { "type": "Point", "coordinates": [ 84.238068, 20.995256 ] } },
{ "type": "Feature", "properties": { "Statename": "Odisha", "Districtname": "Sambalpur", "Subdistrictname": "Charamal", "Blockname": "Rairakhol", "Healthblockname": "Rairakhole", "Healthfacilitytype": "health sub centre", "Facilityname": "Badbahal", "NIN": 4523647834, "latitude": 21.03041, "longitude": 84.35102, "facility_type_standardized": "hsc", "snapped_lon": 84.340446, "snapped_lat": 21.026664 }, "geometry": { "type": "Point", "coordinates": [ 84.340446, 21.026664 ] } },
{ "type": "Feature", "properties": { "Statename": "Odisha", "Districtname": "Sambalpur", "Subdistrictname": "Charamal", "Blockname": "Rairakhol", "Healthblockname": "Rairakhole", "Healthfacilitytype": "health sub centre", "Facilityname": "Podabalanda", "NIN": 2126451711, "latitude": 21.05434, "longitude": 84.29336, "facility_type_standardized": "hsc", "snapped_lon": 84.281424, "snapped_lat": 21.055379 }, "geometry": { "type": "Point", "coordinates": [ 84.281424, 21.055379 ] } },
{ "type": "Feature", "properties": { "Statename": "Odisha", "Districtname": "Sambalpur", "Subdistrictname": "Charamal", "Blockname": "Rairakhol", "Healthblockname": "Rairakhole", "Healthfacilitytype": "health sub centre", "Facilityname": "Bansajal", "NIN": 1667468373, "latitude": 21.07662, "longitude": 84.21817, "facility_type_standardized": "hsc", "snapped_lon": 84.231868, "snapped_lat": 21.102204 }, "geometry": { "type": "Point", "coordinates": [ 84.231868, 21.102204 ] } },
{ "type": "Feature", "properties": { "Statename": "Odisha", "Districtname": "Sambalpur", "Subdistrictname": "Charamal", "Blockname": "Rairakhol", "Healthblockname": "Rairakhole", "Healthfacilitytype": "health sub centre", "Facilityname": "Luhapank", "NIN": 5647855443, "latitude": 21.07792, "longitude": 84.41217, "facility_type_standardized": "hsc", "snapped_lon": 84.415883, "snapped_lat": 21.068465 }, "geometry": { "type": "Point", "coordinates": [ 84.415883, 21.068465 ] } },
{ "type": "Feature", "properties": { "Statename": "Odisha", "Districtname": "Sambalpur", "Subdistrictname": "Charamal", "Blockname": "Rairakhol", "Healthblockname": "Rairakhole", "Healthfacilitytype": "health sub centre", "Facilityname": "Badhindol", "NIN": 1415118718, "latitude": 21.09386, "longitude": 84.266, "facility_type_standardized": "hsc", "snapped_lon": 84.269571, "snapped_lat": 21.092465 }, "geometry": { "type": "Point", "coordinates": [ 84.269571, 21.092465 ] } },
{ "type": "Feature", "properties": { "Statename": "Odisha", "Districtname": "Sambalpur", "Subdistrictname": "Charamal", "Blockname": "Rairakhol", "Healthblockname": "Rairakhole", "Healthfacilitytype": "health sub centre", "Facilityname": "Badmal", "NIN": 1846277646, "latitude": 21.10754, "longitude": 84.07395, "facility_type_standardized": "hsc", "snapped_lon": 84.067197, "snapped_lat": 21.07287 }, "geometry": { "type": "Point", "coordinates": [ 84.067197, 21.07287 ] } },
{ "type": "Feature", "properties": { "Statename": "Odisha", "Districtname": "Sambalpur", "Subdistrictname": "Charamal", "Blockname": "Rairakhol", "Healthblockname": "Rairakhole", "Healthfacilitytype": "health sub centre", "Facilityname": "Charmal", "NIN": 6757875577, "latitude": 21.10758, "longitude": 84.23281, "facility_type_standardized": "hsc", "snapped_lon": 84.231868, "snapped_lat": 21.102204 }, "geometry": { "type": "Point", "coordinates": [ 84.231868, 21.102204 ] } },
{ "type": "Feature", "properties": { "Statename": "Odisha", "Districtname": "Sambalpur", "Subdistrictname": "Charamal", "Blockname": "Rairakhol", "Healthblockname": "Rairakhole", "Healthfacilitytype": "health sub centre", "Facilityname": "Nuapada", "NIN": 2718874718, "latitude": 21.11497, "longitude": 84.26928, "facility_type_standardized": "hsc", "snapped_lon": 84.269571, "snapped_lat": 21.092465 }, "geometry": { "type": "Point", "coordinates": [ 84.269571, 21.092465 ] } },
{ "type": "Feature", "properties": { "Statename": "Odisha", "Districtname": "Sambalpur", "Subdistrictname": "Charamal", "Blockname": "Rairakhol", "Healthblockname": "Rairakhole", "Healthfacilitytype": "health sub centre", "Facilityname": "Mochibahal", "NIN": 1211256779, "latitude": 21.15174, "longitude": 84.14898, "facility_type_standardized": "hsc", "snapped_lon": 84.134728, "snapped_lat": 21.165287 }, "geometry": { "type": "Point", "coordinates": [ 84.134728, 21.165287 ] } },
{ "type": "Feature", "properties": { "Statename": "Odisha", "Districtname": "Sambalpur", "Subdistrictname": "Naktideul", "Blockname": "Naktideul", "Healthblockname": "Naktideul", "Healthfacilitytype": "health sub centre", "Facilityname": "Ghosaramal", "NIN": 1748278320, "latitude": 21.15991, "longitude": 84.5039, "facility_type_standardized": "hsc", "snapped_lon": 84.50818, "snapped_lat": 21.16003 }, "geometry": { "type": "Point", "coordinates": [ 84.50818, 21.16003 ] } },
{ "type": "Feature", "properties": { "Statename": "Odisha", "Districtname": "Sambalpur", "Subdistrictname": "Naktideul", "Blockname": "Naktideul", "Healthblockname": "Naktideul", "Healthfacilitytype": "health sub centre", "Facilityname": "Daincha", "NIN": 4754436543, "latitude": 21.16348, "longitude": 84.42601, "facility_type_standardized": "hsc", "snapped_lon": 84.422557, "snapped_lat": 21.162988 }, "geometry": { "type": "Point", "coordinates": [ 84.422557, 21.162988 ] } },
{ "type": "Feature", "properties": { "Statename": "Odisha", "Districtname": "Sambalpur", "Subdistrictname": "Jujomura", "Blockname": "Jujomura", "Healthblockname": "Jujmura", "Healthfacilitytype": "health sub centre", "Facilityname": "Keshapali", "NIN": 5283426848, "latitude": 21.20473, "longitude": 84.02798, "facility_type_standardized": "hsc", "snapped_lon": 84.029467, "snapped_lat": 21.206889 }, "geometry": { "type": "Point", "coordinates": [ 84.029467, 21.206889 ] } },
{ "type": "Feature", "properties": { "Statename": "Odisha", "Districtname": "Sambalpur", "Subdistrictname": "Jujomura", "Blockname": "Jujomura", "Healthblockname": "Jujmura", "Healthfacilitytype": "health sub centre", "Facilityname": "Lipinda", "NIN": 8785223580, "latitude": 21.20595, "longitude": 84.12087, "facility_type_standardized": "hsc", "snapped_lon": 84.114029, "snapped_lat": 21.207196 }, "geometry": { "type": "Point", "coordinates": [ 84.114029, 21.207196 ] } },
{ "type": "Feature", "properties": { "Statename": "Odisha", "Districtname": "Sambalpur", "Subdistrictname": "Naktideul", "Blockname": "Naktideul", "Healthblockname": "Naktideul", "Healthfacilitytype": "health sub centre", "Facilityname": "Similipal", "NIN": 5141361146, "latitude": 21.20806, "longitude": 84.47434, "facility_type_standardized": "hsc", "snapped_lon": 84.479511, "snapped_lat": 21.209728 }, "geometry": { "type": "Point", "coordinates": [ 84.479511, 21.209728 ] } },
{ "type": "Feature", "properties": { "Statename": "Odisha", "Districtname": "Sambalpur", "Subdistrictname": "Dhama", "Blockname": "Maneswar", "Healthblockname": "Maneswar", "Healthfacilitytype": "health sub centre", "Facilityname": "Deogaon", "NIN": 1573521232, "latitude": 21.21711, "longitude": 83.92013, "facility_type_standardized": "hsc", "snapped_lon": 83.9226, "snapped_lat": 21.218703 }, "geometry": { "type": "Point", "coordinates": [ 83.9226, 21.218703 ] } },
{ "type": "Feature", "properties": { "Statename": "Odisha", "Districtname": "Sambalpur", "Subdistrictname": "Naktideul", "Blockname": "Naktideul", "Healthblockname": "Naktideul", "Healthfacilitytype": "health sub centre", "Facilityname": "Jamujori", "NIN": 1111347710, "latitude": 21.23827, "longitude": 84.71197, "facility_type_standardized": "hsc", "snapped_lon": 84.70776, "snapped_lat": 21.234592 }, "geometry": { "type": "Point", "coordinates": [ 84.70776, 21.234592 ] } },
{ "type": "Feature", "properties": { "Statename": "Odisha", "Districtname": "Sambalpur", "Subdistrictname": "Jujomura", "Blockname": "Jujomura", "Healthblockname": "Jujmura", "Healthfacilitytype": "health sub centre", "Facilityname": "Jujomura", "NIN": 6334482665, "latitude": 21.24203, "longitude": 84.13947, "facility_type_standardized": "hsc", "snapped_lon": 84.134617, "snapped_lat": 21.244994 }, "geometry": { "type": "Point", "coordinates": [ 84.134617, 21.244994 ] } },
{ "type": "Feature", "properties": { "Statename": "Odisha", "Districtname": "Sambalpur", "Subdistrictname": "Naktideul", "Blockname": "Naktideul", "Healthblockname": "Naktideul", "Healthfacilitytype": "health sub centre", "Facilityname": "Batagaon", "NIN": 6783757567, "latitude": 21.2454, "longitude": 84.65351, "facility_type_standardized": "hsc", "snapped_lon": 84.658762, "snapped_lat": 21.249165 }, "geometry": { "type": "Point", "coordinates": [ 84.658762, 21.249165 ] } },
{ "type": "Feature", "properties": { "Statename": "Odisha", "Districtname": "Sambalpur", "Subdistrictname": "Dhama", "Blockname": "Maneswar", "Healthblockname": "Maneswar", "Healthfacilitytype": "health sub centre", "Facilityname": "Dhama", "NIN": 7248326287, "latitude": 21.25467, "longitude": 83.9261, "facility_type_standardized": "hsc", "snapped_lon": 83.919037, "snapped_lat": 21.256095 }, "geometry": { "type": "Point", "coordinates": [ 83.919037, 21.256095 ] } },
{ "type": "Feature", "properties": { "Statename": "Odisha", "Districtname": "Sambalpur", "Subdistrictname": "Jujomura", "Blockname": "Jujomura", "Healthblockname": "Jujmura", "Healthfacilitytype": "health sub centre", "Facilityname": "Kansar", "NIN": 6877542669, "latitude": 21.26816, "longitude": 84.1331, "facility_type_standardized": "hsc", "snapped_lon": 84.133828, "snapped_lat": 21.268336 }, "geometry": { "type": "Point", "coordinates": [ 84.133828, 21.268336 ] } },
{ "type": "Feature", "properties": { "Statename": "Odisha", "Districtname": "Sambalpur", "Subdistrictname": "Dhama", "Blockname": "Maneswar", "Healthblockname": "Maneswar", "Healthfacilitytype": "health sub centre", "Facilityname": "Dakara", "NIN": 8773668515, "latitude": 21.27064, "longitude": 83.98708, "facility_type_standardized": "hsc", "snapped_lon": 83.98652, "snapped_lat": 21.273337 }, "geometry": { "type": "Point", "coordinates": [ 83.98652, 21.273337 ] } },
{ "type": "Feature", "properties": { "Statename": "Odisha", "Districtname": "Sambalpur", "Subdistrictname": "Naktideul", "Blockname": "Naktideul", "Healthblockname": "Naktideul", "Healthfacilitytype": "health sub centre", "Facilityname": "Sarapali", "NIN": 5887815727, "latitude": 21.28173, "longitude": 84.52464, "facility_type_standardized": "hsc", "snapped_lon": 84.521823, "snapped_lat": 21.273519 }, "geometry": { "type": "Point", "coordinates": [ 84.521823, 21.273519 ] } },
{ "type": "Feature", "properties": { "Statename": "Odisha", "Districtname": "Sambalpur", "Subdistrictname": "Jujomura", "Blockname": "Jujomura", "Healthblockname": "Jujmura", "Healthfacilitytype": "health sub centre", "Facilityname": "Birsinghgarh", "NIN": 8123615125, "latitude": 21.28277, "longitude": 84.09655, "facility_type_standardized": "hsc", "snapped_lon": 84.080903, "snapped_lat": 21.285312 }, "geometry": { "type": "Point", "coordinates": [ 84.080903, 21.285312 ] } },
{ "type": "Feature", "properties": { "Statename": "Odisha", "Districtname": "Sambalpur", "Subdistrictname": "Dhama", "Blockname": "Maneswar", "Healthblockname": "Maneswar", "Healthfacilitytype": "health sub centre", "Facilityname": "Panchfut", "NIN": 1118123429, "latitude": 21.28288, "longitude": 83.95945, "facility_type_standardized": "hsc", "snapped_lon": 83.957384, "snapped_lat": 21.287852 }, "geometry": { "type": "Point", "coordinates": [ 83.957384, 21.287852 ] } },
{ "type": "Feature", "properties": { "Statename": "Odisha", "Districtname": "Sambalpur", "Subdistrictname": "Naktideul", "Blockname": "Naktideul", "Healthblockname": "Naktideul", "Healthfacilitytype": "health sub centre", "Facilityname": "Naktideul", "NIN": 2488282357, "latitude": 21.29902, "longitude": 84.68836, "facility_type_standardized": "hsc", "snapped_lon": 84.687375, "snapped_lat": 21.296644 }, "geometry": { "type": "Point", "coordinates": [ 84.687375, 21.296644 ] } },
{ "type": "Feature", "properties": { "Statename": "Odisha", "Districtname": "Sambalpur", "Subdistrictname": "Naktideul", "Blockname": "Naktideul", "Healthblockname": "Naktideul", "Healthfacilitytype": "health sub centre", "Facilityname": "Salebhata", "NIN": 2752778379, "latitude": 21.29902, "longitude": 84.68836, "facility_type_standardized": "hsc", "snapped_lon": 84.687375, "snapped_lat": 21.296644 }, "geometry": { "type": "Point", "coordinates": [ 84.687375, 21.296644 ] } },
{ "type": "Feature", "properties": { "Statename": "Odisha", "Districtname": "Sambalpur", "Subdistrictname": "Naktideul", "Blockname": "Naktideul", "Healthblockname": "Naktideul", "Healthfacilitytype": "health sub centre", "Facilityname": "Ballam", "NIN": 2386472852, "latitude": 21.30125, "longitude": 84.47722, "facility_type_standardized": "hsc", "snapped_lon": 84.474169, "snapped_lat": 21.3001 }, "geometry": { "type": "Point", "coordinates": [ 84.474169, 21.3001 ] } },
{ "type": "Feature", "properties": { "Statename": "Odisha", "Districtname": "Sambalpur", "Subdistrictname": "Dhama", "Blockname": "Maneswar", "Healthblockname": "Maneswar", "Healthfacilitytype": "health sub centre", "Facilityname": "Matikhai", "NIN": 3157153135, "latitude": 21.31335, "longitude": 83.91127, "facility_type_standardized": "hsc", "snapped_lon": 83.904237, "snapped_lat": 21.310692 }, "geometry": { "type": "Point", "coordinates": [ 83.904237, 21.310692 ] } },
{ "type": "Feature", "properties": { "Statename": "Odisha", "Districtname": "Sambalpur", "Subdistrictname": "Naktideul", "Blockname": "Naktideul", "Healthblockname": "Naktideul", "Healthfacilitytype": "health sub centre", "Facilityname": "G.C Pur", "NIN": 8756576461, "latitude": 21.31662, "longitude": 84.38753, "facility_type_standardized": "hsc", "snapped_lon": 84.392869, "snapped_lat": 21.312632 }, "geometry": { "type": "Point", "coordinates": [ 84.392869, 21.312632 ] } },
{ "type": "Feature", "properties": { "Statename": "Odisha", "Districtname": "Sambalpur", "Subdistrictname": "Dhama", "Blockname": "Maneswar", "Healthblockname": "Maneswar", "Healthfacilitytype": "health sub centre", "Facilityname": "Bargaon", "NIN": 7646146832, "latitude": 21.31719, "longitude": 83.94653, "facility_type_standardized": "hsc", "snapped_lon": 83.945224, "snapped_lat": 21.319034 }, "geometry": { "type": "Point", "coordinates": [ 83.945224, 21.319034 ] } },
{ "type": "Feature", "properties": { "Statename": "Odisha", "Districtname": "Sambalpur", "Subdistrictname": "Jujomura", "Blockname": "Jujomura", "Healthblockname": "Jujmura", "Healthfacilitytype": "health sub centre", "Facilityname": "Chhamunda", "NIN": 6843552842, "latitude": 21.32185, "longitude": 84.17966, "facility_type_standardized": "hsc", "snapped_lon": 84.177946, "snapped_lat": 21.322324 }, "geometry": { "type": "Point", "coordinates": [ 84.177946, 21.322324 ] } },
{ "type": "Feature", "properties": { "Statename": "Odisha", "Districtname": "Sambalpur", "Subdistrictname": "Jujomura", "Blockname": "Jujomura", "Healthblockname": "Jujmura", "Healthfacilitytype": "health sub centre", "Facilityname": "Hatibari", "NIN": 4673323772, "latitude": 21.33736, "longitude": 84.09421, "facility_type_standardized": "hsc", "snapped_lon": 84.098459, "snapped_lat": 21.343235 }, "geometry": { "type": "Point", "coordinates": [ 84.098459, 21.343235 ] } },
{ "type": "Feature", "properties": { "Statename": "Odisha", "Districtname": "Sambalpur", "Subdistrictname": "Dhama", "Blockname": "Maneswar", "Healthblockname": "Maneswar", "Healthfacilitytype": "health sub centre", "Facilityname": "Sahaspur", "NIN": 7456773725, "latitude": 21.34095, "longitude": 83.96091, "facility_type_standardized": "hsc", "snapped_lon": 83.959361, "snapped_lat": 21.343041 }, "geometry": { "type": "Point", "coordinates": [ 83.959361, 21.343041 ] } },
{ "type": "Feature", "properties": { "Statename": "Odisha", "Districtname": "Sambalpur", "Subdistrictname": "Naktideul", "Blockname": "Naktideul", "Healthblockname": "Naktideul", "Healthfacilitytype": "health sub centre", "Facilityname": "Kisinda", "NIN": 2417153125, "latitude": 21.34169, "longitude": 84.34646, "facility_type_standardized": "hsc", "snapped_lon": 84.345083, "snapped_lat": 21.342578 }, "geometry": { "type": "Point", "coordinates": [ 84.345083, 21.342578 ] } },
{ "type": "Feature", "properties": { "Statename": "Odisha", "Districtname": "Sambalpur", "Subdistrictname": "Sadar", "Blockname": "Dhankauda", "Healthblockname": "Dhankauda", "Healthfacilitytype": "health sub centre", "Facilityname": "Chipilima", "NIN": 1442638381, "latitude": 21.34247, "longitude": 83.90654, "facility_type_standardized": "hsc", "snapped_lon": 83.906377, "snapped_lat": 21.344324 }, "geometry": { "type": "Point", "coordinates": [ 83.906377, 21.344324 ] } },
{ "type": "Feature", "properties": { "Statename": "Odisha", "Districtname": "Sambalpur", "Subdistrictname": "Sambalpur (M)", "Blockname": "Maneswar", "Healthblockname": "Maneswar", "Healthfacilitytype": "health sub centre", "Facilityname": "Mathpali", "NIN": 8626568854, "latitude": 21.3498, "longitude": 83.99976, "facility_type_standardized": "hsc", "snapped_lon": 83.997552, "snapped_lat": 21.356424 }, "geometry": { "type": "Point", "coordinates": [ 83.997552, 21.356424 ] } },
{ "type": "Feature", "properties": { "Statename": "Odisha", "Districtname": "Sambalpur", "Subdistrictname": "Dhama", "Blockname": "Maneswar", "Healthblockname": "Maneswar", "Healthfacilitytype": "health sub centre", "Facilityname": "Batemura", "NIN": 5876658757, "latitude": 21.36469, "longitude": 83.98663, "facility_type_standardized": "hsc", "snapped_lon": 83.987942, "snapped_lat": 21.366642 }, "geometry": { "type": "Point", "coordinates": [ 83.987942, 21.366642 ] } },
{ "type": "Feature", "properties": { "Statename": "Odisha", "Districtname": "Sambalpur", "Subdistrictname": "Jujomura", "Blockname": "Jujomura", "Healthblockname": "Jujmura", "Healthfacilitytype": "health sub centre", "Facilityname": "Nuabarangamal", "NIN": 5281858745, "latitude": 21.3698, "longitude": 84.16203, "facility_type_standardized": "hsc", "snapped_lon": 84.163384, "snapped_lat": 21.364583 }, "geometry": { "type": "Point", "coordinates": [ 84.163384, 21.364583 ] } },
{ "type": "Feature", "properties": { "Statename": "Odisha", "Districtname": "Sambalpur", "Subdistrictname": "Jujomura", "Blockname": "Jujomura", "Healthblockname": "Jujmura", "Healthfacilitytype": "health sub centre", "Facilityname": "Tampergarh", "NIN": 2127812150, "latitude": 21.38923, "longitude": 84.26367, "facility_type_standardized": "hsc", "snapped_lon": 84.261512, "snapped_lat": 21.39263 }, "geometry": { "type": "Point", "coordinates": [ 84.261512, 21.39263 ] } },
{ "type": "Feature", "properties": { "Statename": "Odisha", "Districtname": "Sambalpur", "Subdistrictname": "Sadar", "Blockname": "Dhankauda", "Healthblockname": "Dhankauda", "Healthfacilitytype": "health sub centre", "Facilityname": "Basantpur", "NIN": 1783861774, "latitude": 21.39578, "longitude": 83.91075, "facility_type_standardized": "hsc", "snapped_lon": 83.909671, "snapped_lat": 21.397894 }, "geometry": { "type": "Point", "coordinates": [ 83.909671, 21.397894 ] } },
{ "type": "Feature", "properties": { "Statename": "Odisha", "Districtname": "Sambalpur", "Subdistrictname": "Jujomura", "Blockname": "Jujomura", "Healthblockname": "Jujmura", "Healthfacilitytype": "health sub centre", "Facilityname": "Badsahir", "NIN": 8558617687, "latitude": 21.3995, "longitude": 84.13665, "facility_type_standardized": "hsc", "snapped_lon": 84.129559, "snapped_lat": 21.397858 }, "geometry": { "type": "Point", "coordinates": [ 84.129559, 21.397858 ] } },
{ "type": "Feature", "properties": { "Statename": "Odisha", "Districtname": "Sambalpur", "Subdistrictname": "Sambalpur (M)", "Blockname": "Maneswar", "Healthblockname": "Maneswar", "Healthfacilitytype": "health sub centre", "Facilityname": "Gunderpur", "NIN": 5553152579, "latitude": 21.40447, "longitude": 83.99189, "facility_type_standardized": "hsc", "snapped_lon": 83.994982, "snapped_lat": 21.405519 }, "geometry": { "type": "Point", "coordinates": [ 83.994982, 21.405519 ] } },
{ "type": "Feature", "properties": { "Statename": "Odisha", "Districtname": "Sambalpur", "Subdistrictname": "Sambalpur (M)", "Blockname": "Dhankauda", "Healthblockname": "Dhankauda", "Healthfacilitytype": "health sub centre", "Facilityname": "Berhampura", "NIN": 3374857567, "latitude": 21.40992, "longitude": 83.96716, "facility_type_standardized": "hsc", "snapped_lon": 83.969374, "snapped_lat": 21.413591 }, "geometry": { "type": "Point", "coordinates": [ 83.969374, 21.413591 ] } },
{ "type": "Feature", "properties": { "Statename": "Odisha", "Districtname": "Sambalpur", "Subdistrictname": "Sadar", "Blockname": "Dhankauda", "Healthblockname": "Dhankauda", "Healthfacilitytype": "health sub centre", "Facilityname": "Kalamati", "NIN": 8837223570, "latitude": 21.41079, "longitude": 83.88065, "facility_type_standardized": "hsc", "snapped_lon": 83.88373, "snapped_lat": 21.413631 }, "geometry": { "type": "Point", "coordinates": [ 83.88373, 21.413631 ] } },
{ "type": "Feature", "properties": { "Statename": "Odisha", "Districtname": "Sambalpur", "Subdistrictname": "Jamankira", "Blockname": "Jamankira", "Healthblockname": "Jamanakera", "Healthfacilitytype": "health sub centre", "Facilityname": "Budhikutuni", "NIN": 4184265488, "latitude": 21.41128, "longitude": 84.22236, "facility_type_standardized": "hsc", "snapped_lon": 84.220329, "snapped_lat": 21.417039 }, "geometry": { "type": "Point", "coordinates": [ 84.220329, 21.417039 ] } },
{ "type": "Feature", "properties": { "Statename": "Odisha", "Districtname": "Sambalpur", "Subdistrictname": "Sambalpur (M)", "Blockname": "Maneswar", "Healthblockname": "Maneswar", "Healthfacilitytype": "health sub centre", "Facilityname": "Maneswar", "NIN": 4875735369, "latitude": 21.42195, "longitude": 84.03489, "facility_type_standardized": "hsc", "snapped_lon": 84.034726, "snapped_lat": 21.416839 }, "geometry": { "type": "Point", "coordinates": [ 84.034726, 21.416839 ] } },
{ "type": "Feature", "properties": { "Statename": "Odisha", "Districtname": "Sambalpur", "Subdistrictname": "Jujomura", "Blockname": "Jujomura", "Healthblockname": "Jujmura", "Healthfacilitytype": "health sub centre", "Facilityname": "Dangarpada", "NIN": 8641628766, "latitude": 21.42222, "longitude": 84.18806, "facility_type_standardized": "hsc", "snapped_lon": 84.186787, "snapped_lat": 21.425957 }, "geometry": { "type": "Point", "coordinates": [ 84.186787, 21.425957 ] } },
{ "type": "Feature", "properties": { "Statename": "Odisha", "Districtname": "Sambalpur", "Subdistrictname": "Sambalpur (M)", "Blockname": "Maneswar", "Healthblockname": "Maneswar", "Healthfacilitytype": "health sub centre", "Facilityname": "Bhoipali", "NIN": 6113513813, "latitude": 21.42833, "longitude": 84.07736, "facility_type_standardized": "hsc", "snapped_lon": 84.081134, "snapped_lat": 21.432679 }, "geometry": { "type": "Point", "coordinates": [ 84.081134, 21.432679 ] } },
{ "type": "Feature", "properties": { "Statename": "Odisha", "Districtname": "Sambalpur", "Subdistrictname": "Sambalpur (M)", "Blockname": "Dhankauda", "Healthblockname": "Dhankauda", "Healthfacilitytype": "health sub centre", "Facilityname": "Chaurpur", "NIN": 2784245462, "latitude": 21.43799, "longitude": 83.96058, "facility_type_standardized": "hsc", "snapped_lon": 83.963596, "snapped_lat": 21.442742 }, "geometry": { "type": "Point", "coordinates": [ 83.963596, 21.442742 ] } },
{ "type": "Feature", "properties": { "Statename": "Odisha", "Districtname": "Sambalpur", "Subdistrictname": "Jamankira", "Blockname": "Jamankira", "Healthblockname": "Jamanakera", "Healthfacilitytype": "health sub centre", "Facilityname": "Kulundi", "NIN": 8418536283, "latitude": 21.4382, "longitude": 84.18598, "facility_type_standardized": "hsc", "snapped_lon": 84.183029, "snapped_lat": 21.446269 }, "geometry": { "type": "Point", "coordinates": [ 84.183029, 21.446269 ] } },
{ "type": "Feature", "properties": { "Statename": "Odisha", "Districtname": "Sambalpur", "Subdistrictname": "Jujomura", "Blockname": "Jujomura", "Healthblockname": "Jujmura", "Healthfacilitytype": "health sub centre", "Facilityname": "Padiabahal", "NIN": 8882624227, "latitude": 21.44096, "longitude": 84.14936, "facility_type_standardized": "hsc", "snapped_lon": 84.143834, "snapped_lat": 21.441168 }, "geometry": { "type": "Point", "coordinates": [ 84.143834, 21.441168 ] } },
{ "type": "Feature", "properties": { "Statename": "Odisha", "Districtname": "Sambalpur", "Subdistrictname": "Jujomura", "Blockname": "Jujomura", "Healthblockname": "Jujmura", "Healthfacilitytype": "health sub centre", "Facilityname": "Kabrapali", "NIN": 1867832733, "latitude": 21.44748, "longitude": 84.09705, "facility_type_standardized": "hsc", "snapped_lon": 84.094605, "snapped_lat": 21.455681 }, "geometry": { "type": "Point", "coordinates": [ 84.094605, 21.455681 ] } },
{ "type": "Feature", "properties": { "Statename": "Odisha", "Districtname": "Sambalpur", "Subdistrictname": "Sambalpur (M)", "Blockname": "Maneswar", "Healthblockname": "Maneswar", "Healthfacilitytype": "health sub centre", "Facilityname": "Sindurpank", "NIN": 3217644487, "latitude": 21.45445, "longitude": 84.02413, "facility_type_standardized": "hsc", "snapped_lon": 84.022472, "snapped_lat": 21.452855 }, "geometry": { "type": "Point", "coordinates": [ 84.022472, 21.452855 ] } },
{ "type": "Feature", "properties": { "Statename": "Odisha", "Districtname": "Sambalpur", "Subdistrictname": "Jamankira", "Blockname": "Jamankira", "Healthblockname": "Jamanakera", "Healthfacilitytype": "health sub centre", "Facilityname": "Padhanpali", "NIN": 7817843555, "latitude": 21.46138, "longitude": 84.17498, "facility_type_standardized": "hsc", "snapped_lon": 84.171318, "snapped_lat": 21.465275 }, "geometry": { "type": "Point", "coordinates": [ 84.171318, 21.465275 ] } },
{ "type": "Feature", "properties": { "Statename": "Odisha", "Districtname": "Sambalpur", "Subdistrictname": "Jamankira", "Blockname": "Jamankira", "Healthblockname": "Jamanakera", "Healthfacilitytype": "health sub centre", "Facilityname": "Kumkapali", "NIN": 3152151837, "latitude": 21.46962, "longitude": 84.20171, "facility_type_standardized": "hsc", "snapped_lon": 84.194666, "snapped_lat": 21.473834 }, "geometry": { "type": "Point", "coordinates": [ 84.194666, 21.473834 ] } },
{ "type": "Feature", "properties": { "Statename": "Odisha", "Districtname": "Sambalpur", "Subdistrictname": "Jamankira", "Blockname": "Jamankira", "Healthblockname": "Jamanakera", "Healthfacilitytype": "health sub centre", "Facilityname": "Sarda", "NIN": 8458314187, "latitude": 21.47362, "longitude": 84.38989, "facility_type_standardized": "hsc", "snapped_lon": 84.365887, "snapped_lat": 21.522389 }, "geometry": { "type": "Point", "coordinates": [ 84.365887, 21.522389 ] } },
{ "type": "Feature", "properties": { "Statename": "Odisha", "Districtname": "Sambalpur", "Subdistrictname": "Sambalpur (M)", "Blockname": "Maneswar", "Healthblockname": "Maneswar", "Healthfacilitytype": "health sub centre", "Facilityname": "Themera", "NIN": 8727352380, "latitude": 21.47533, "longitude": 84.04023, "facility_type_standardized": "hsc", "snapped_lon": 84.037201, "snapped_lat": 21.479392 }, "geometry": { "type": "Point", "coordinates": [ 84.037201, 21.479392 ] } },
{ "type": "Feature", "properties": { "Statename": "Odisha", "Districtname": "Sambalpur", "Subdistrictname": "Jamankira", "Blockname": "Jamankira", "Healthblockname": "Jamanakera", "Healthfacilitytype": "health sub centre", "Facilityname": "Kadalipal", "NIN": 2474644719, "latitude": 21.47567, "longitude": 84.23768, "facility_type_standardized": "hsc", "snapped_lon": 84.24494, "snapped_lat": 21.478587 }, "geometry": { "type": "Point", "coordinates": [ 84.24494, 21.478587 ] } },
{ "type": "Feature", "properties": { "Statename": "Odisha", "Districtname": "Sambalpur", "Subdistrictname": "Jamankira", "Blockname": "Jamankira", "Healthblockname": "Jamanakera", "Healthfacilitytype": "health sub centre", "Facilityname": "Badrama", "NIN": 7121175652, "latitude": 21.48891, "longitude": 84.27587, "facility_type_standardized": "hsc", "snapped_lon": 84.27865, "snapped_lat": 21.489735 }, "geometry": { "type": "Point", "coordinates": [ 84.27865, 21.489735 ] } },
{ "type": "Feature", "properties": { "Statename": "Odisha", "Districtname": "Sambalpur", "Subdistrictname": "Jujomura", "Blockname": "Jujomura", "Healthblockname": "Jujmura", "Healthfacilitytype": "health sub centre", "Facilityname": "Kukudapali", "NIN": 4684544614, "latitude": 21.49124, "longitude": 84.10007, "facility_type_standardized": "hsc", "snapped_lon": 84.09722, "snapped_lat": 21.494982 }, "geometry": { "type": "Point", "coordinates": [ 84.09722, 21.494982 ] } },
{ "type": "Feature", "properties": { "Statename": "Odisha", "Districtname": "Sambalpur", "Subdistrictname": "Sambalpur (M)", "Blockname": "Dhankauda", "Healthblockname": "Dhankauda", "Healthfacilitytype": "health sub centre", "Facilityname": "Sasnkarma", "NIN": 6261113366, "latitude": 21.49181, "longitude": 84.01089, "facility_type_standardized": "hsc", "snapped_lon": 84.006899, "snapped_lat": 21.498261 }, "geometry": { "type": "Point", "coordinates": [ 84.006899, 21.498261 ] } },
{ "type": "Feature", "properties": { "Statename": "Odisha", "Districtname": "Sambalpur", "Subdistrictname": "Jamankira", "Blockname": "Jamankira", "Healthblockname": "Jamanakera", "Healthfacilitytype": "health sub centre", "Facilityname": "Mudhenpali", "NIN": 3218747677, "latitude": 21.49197, "longitude": 84.16277, "facility_type_standardized": "hsc", "snapped_lon": 84.167633, "snapped_lat": 21.510239 }, "geometry": { "type": "Point", "coordinates": [ 84.167633, 21.510239 ] } },
{ "type": "Feature", "properties": { "Statename": "Odisha", "Districtname": "Sambalpur", "Subdistrictname": "Jamankira", "Blockname": "Jamankira", "Healthblockname": "Jamanakera", "Healthfacilitytype": "health sub centre", "Facilityname": "Dimirimunda", "NIN": 7144344244, "latitude": 21.49242, "longitude": 84.32037, "facility_type_standardized": "hsc", "snapped_lon": 84.323372, "snapped_lat": 21.498414 }, "geometry": { "type": "Point", "coordinates": [ 84.323372, 21.498414 ] } },
{ "type": "Feature", "properties": { "Statename": "Odisha", "Districtname": "Sambalpur", "Subdistrictname": "Sambalpur (M)", "Blockname": "Dhankauda", "Healthblockname": "Dhankauda", "Healthfacilitytype": "health sub centre", "Facilityname": "Kainsir", "NIN": 8164238464, "latitude": 21.5092, "longitude": 83.99299, "facility_type_standardized": "hsc", "snapped_lon": 83.9905, "snapped_lat": 21.511334 }, "geometry": { "type": "Point", "coordinates": [ 83.9905, 21.511334 ] } },
{ "type": "Feature", "properties": { "Statename": "Odisha", "Districtname": "Sambalpur", "Subdistrictname": "Sambalpur (M)", "Blockname": "Dhankauda", "Healthblockname": "Dhankauda", "Healthfacilitytype": "health sub centre", "Facilityname": "Dengimacha", "NIN": 4781423738, "latitude": 21.5104, "longitude": 83.97289, "facility_type_standardized": "hsc", "snapped_lon": 83.978986, "snapped_lat": 21.513355 }, "geometry": { "type": "Point", "coordinates": [ 83.978986, 21.513355 ] } },
{ "type": "Feature", "properties": { "Statename": "Odisha", "Districtname": "Sambalpur", "Subdistrictname": "Dhama", "Blockname": "Maneswar", "Healthblockname": "Maneswar", "Healthfacilitytype": "health sub centre", "Facilityname": "Kultanuapali", "NIN": 2837173745, "latitude": 21.51434, "longitude": 84.0422, "facility_type_standardized": "hsc", "snapped_lon": 84.038326, "snapped_lat": 21.51623 }, "geometry": { "type": "Point", "coordinates": [ 84.038326, 21.51623 ] } },
{ "type": "Feature", "properties": { "Statename": "Odisha", "Districtname": "Sambalpur", "Subdistrictname": "Dhama", "Blockname": "Maneswar", "Healthblockname": "Maneswar", "Healthfacilitytype": "health sub centre", "Facilityname": "Bhikhampur", "NIN": 4834562763, "latitude": 21.52002, "longitude": 84.13433, "facility_type_standardized": "hsc", "snapped_lon": 84.138078, "snapped_lat": 21.517815 }, "geometry": { "type": "Point", "coordinates": [ 84.138078, 21.517815 ] } },
{ "type": "Feature", "properties": { "Statename": "Odisha", "Districtname": "Sambalpur", "Subdistrictname": "Dhama", "Blockname": "Maneswar", "Healthblockname": "Maneswar", "Healthfacilitytype": "health sub centre", "Facilityname": "Tabla", "NIN": 4528673769, "latitude": 21.52446, "longitude": 84.07262, "facility_type_standardized": "hsc", "snapped_lon": 84.070513, "snapped_lat": 21.522728 }, "geometry": { "type": "Point", "coordinates": [ 84.070513, 21.522728 ] } },
{ "type": "Feature", "properties": { "Statename": "Odisha", "Districtname": "Sambalpur", "Subdistrictname": "Dhama", "Blockname": "Maneswar", "Healthblockname": "Maneswar", "Healthfacilitytype": "health sub centre", "Facilityname": "Mura", "NIN": 3838423535, "latitude": 21.52484, "longitude": 84.1947, "facility_type_standardized": "hsc", "snapped_lon": 84.190248, "snapped_lat": 21.540678 }, "geometry": { "type": "Point", "coordinates": [ 84.190248, 21.540678 ] } },
{ "type": "Feature", "properties": { "Statename": "Odisha", "Districtname": "Sambalpur", "Subdistrictname": "Jamankira", "Blockname": "Jamankira", "Healthblockname": "Jamanakera", "Healthfacilitytype": "health sub centre", "Facilityname": "Jamankira", "NIN": 1482382478, "latitude": 21.54096, "longitude": 84.38609, "facility_type_standardized": "hsc", "snapped_lon": 84.394771, "snapped_lat": 21.53336 }, "geometry": { "type": "Point", "coordinates": [ 84.394771, 21.53336 ] } },
{ "type": "Feature", "properties": { "Statename": "Odisha", "Districtname": "Sambalpur", "Subdistrictname": "Jamankira", "Blockname": "Jamankira", "Healthblockname": "Jamanakera", "Healthfacilitytype": "health sub centre", "Facilityname": "Tikilipada", "NIN": 5224622216, "latitude": 21.54142, "longitude": 84.43865, "facility_type_standardized": "hsc", "snapped_lon": 84.440225, "snapped_lat": 21.534668 }, "geometry": { "type": "Point", "coordinates": [ 84.440225, 21.534668 ] } },
{ "type": "Feature", "properties": { "Statename": "Odisha", "Districtname": "Sambalpur", "Subdistrictname": "Sambalpur (M)", "Blockname": "Dhankauda", "Healthblockname": "Dhankauda", "Healthfacilitytype": "health sub centre", "Facilityname": "A Katapali", "NIN": 8648645250, "latitude": 21.54204, "longitude": 84.04981, "facility_type_standardized": "hsc", "snapped_lon": 84.0476, "snapped_lat": 21.545323 }, "geometry": { "type": "Point", "coordinates": [ 84.0476, 21.545323 ] } },
{ "type": "Feature", "properties": { "Statename": "Odisha", "Districtname": "Sambalpur", "Subdistrictname": "Sadar", "Blockname": "Dhankauda", "Healthblockname": "Dhankauda", "Healthfacilitytype": "health sub centre", "Facilityname": "Debeipali", "NIN": 7618722842, "latitude": 21.54449, "longitude": 84.02567, "facility_type_standardized": "hsc", "snapped_lon": 84.023126, "snapped_lat": 21.546905 }, "geometry": { "type": "Point", "coordinates": [ 84.023126, 21.546905 ] } },
{ "type": "Feature", "properties": { "Statename": "Odisha", "Districtname": "Sambalpur", "Subdistrictname": "Dhama", "Blockname": "Maneswar", "Healthblockname": "Maneswar", "Healthfacilitytype": "health sub centre", "Facilityname": "Parmanpur", "NIN": 4743322861, "latitude": 21.54533, "longitude": 84.10778, "facility_type_standardized": "hsc", "snapped_lon": 84.110293, "snapped_lat": 21.547801 }, "geometry": { "type": "Point", "coordinates": [ 84.110293, 21.547801 ] } },
{ "type": "Feature", "properties": { "Statename": "Odisha", "Districtname": "Sambalpur", "Subdistrictname": "Sadar", "Blockname": "Dhankauda", "Healthblockname": "Dhankauda", "Healthfacilitytype": "health sub centre", "Facilityname": "Jamadarpali", "NIN": 1131516682, "latitude": 21.54834, "longitude": 83.96879, "facility_type_standardized": "hsc", "snapped_lon": 83.968192, "snapped_lat": 21.55148 }, "geometry": { "type": "Point", "coordinates": [ 83.968192, 21.55148 ] } },
{ "type": "Feature", "properties": { "Statename": "Odisha", "Districtname": "Sambalpur", "Subdistrictname": "Sadar", "Blockname": "Dhankauda", "Healthblockname": "Dhankauda", "Healthfacilitytype": "health sub centre", "Facilityname": "Sason", "NIN": 7822763376, "latitude": 21.5487, "longitude": 84.03625, "facility_type_standardized": "hsc", "snapped_lon": 84.036849, "snapped_lat": 21.550287 }, "geometry": { "type": "Point", "coordinates": [ 84.036849, 21.550287 ] } },
{ "type": "Feature", "properties": { "Statename": "Odisha", "Districtname": "Sambalpur", "Subdistrictname": "Sadar", "Blockname": "Dhankauda", "Healthblockname": "Dhankauda", "Healthfacilitytype": "health sub centre", "Facilityname": "Talab", "NIN": 6451866872, "latitude": 21.5504, "longitude": 84.00569, "facility_type_standardized": "hsc", "snapped_lon": 84.00296, "snapped_lat": 21.557141 }, "geometry": { "type": "Point", "coordinates": [ 84.00296, 21.557141 ] } },
{ "type": "Feature", "properties": { "Statename": "Odisha", "Districtname": "Sambalpur", "Subdistrictname": "Jamankira", "Blockname": "Jamankira", "Healthblockname": "Jamanakera", "Healthfacilitytype": "health sub centre", "Facilityname": "Ghosaraguda", "NIN": 7184548654, "latitude": 21.55585, "longitude": 84.45021, "facility_type_standardized": "hsc", "snapped_lon": 84.450286, "snapped_lat": 21.560727 }, "geometry": { "type": "Point", "coordinates": [ 84.450286, 21.560727 ] } },
{ "type": "Feature", "properties": { "Statename": "Odisha", "Districtname": "Sambalpur", "Subdistrictname": "Sadar", "Blockname": "Dhankauda", "Healthblockname": "Dhankauda", "Healthfacilitytype": "health sub centre", "Facilityname": "Bisalkhinda - I", "NIN": 2637348547, "latitude": 21.55645, "longitude": 84.09002, "facility_type_standardized": "hsc", "snapped_lon": 84.084797, "snapped_lat": 21.553264 }, "geometry": { "type": "Point", "coordinates": [ 84.084797, 21.553264 ] } },
{ "type": "Feature", "properties": { "Statename": "Odisha", "Districtname": "Sambalpur", "Subdistrictname": "Sadar", "Blockname": "Dhankauda", "Healthblockname": "Dhankauda", "Healthfacilitytype": "health sub centre", "Facilityname": "Balbaspur", "NIN": 4237188455, "latitude": 21.56761, "longitude": 83.99347, "facility_type_standardized": "hsc", "snapped_lon": 83.989718, "snapped_lat": 21.569098 }, "geometry": { "type": "Point", "coordinates": [ 83.989718, 21.569098 ] } },
{ "type": "Feature", "properties": { "Statename": "Odisha", "Districtname": "Sambalpur", "Subdistrictname": "Sadar", "Blockname": "Dhankauda", "Healthblockname": "Dhankauda", "Healthfacilitytype": "health sub centre", "Facilityname": "Bisalkhinda II", "NIN": 7864665638, "latitude": 21.57714, "longitude": 84.08961, "facility_type_standardized": "hsc", "snapped_lon": 84.085647, "snapped_lat": 21.577448 }, "geometry": { "type": "Point", "coordinates": [ 84.085647, 21.577448 ] } },
{ "type": "Feature", "properties": { "Statename": "Odisha", "Districtname": "Sambalpur", "Subdistrictname": "Rengali", "Blockname": "Rengali", "Healthblockname": "Rengali", "Healthfacilitytype": "health sub centre", "Facilityname": "Tabdabahal", "NIN": 8787625626, "latitude": 21.57776, "longitude": 84.11626, "facility_type_standardized": "hsc", "snapped_lon": 84.119768, "snapped_lat": 21.582061 }, "geometry": { "type": "Point", "coordinates": [ 84.119768, 21.582061 ] } },
{ "type": "Feature", "properties": { "Statename": "Odisha", "Districtname": "Sambalpur", "Subdistrictname": "Jamankira", "Blockname": "Jamankira", "Healthblockname": "Jamanakera", "Healthfacilitytype": "health sub centre", "Facilityname": "Kasada", "NIN": 2788475164, "latitude": 21.57831, "longitude": 84.33128, "facility_type_standardized": "hsc", "snapped_lon": 84.332931, "snapped_lat": 21.575172 }, "geometry": { "type": "Point", "coordinates": [ 84.332931, 21.575172 ] } },
{ "type": "Feature", "properties": { "Statename": "Odisha", "Districtname": "Sambalpur", "Subdistrictname": "Jamankira", "Blockname": "Jamankira", "Healthblockname": "Jamanakera", "Healthfacilitytype": "health sub centre", "Facilityname": "Katangpani", "NIN": 2848133647, "latitude": 21.5866, "longitude": 84.40094, "facility_type_standardized": "hsc", "snapped_lon": 84.398746, "snapped_lat": 21.589993 }, "geometry": { "type": "Point", "coordinates": [ 84.398746, 21.589993 ] } },
{ "type": "Feature", "properties": { "Statename": "Odisha", "Districtname": "Sambalpur", "Subdistrictname": "Rengali", "Blockname": "Rengali", "Healthblockname": "Rengali", "Healthfacilitytype": "health sub centre", "Facilityname": "Tamperkela", "NIN": 8533658731, "latitude": 21.59264, "longitude": 84.17564, "facility_type_standardized": "hsc", "snapped_lon": 84.18174, "snapped_lat": 21.594444 }, "geometry": { "type": "Point", "coordinates": [ 84.18174, 21.594444 ] } },
{ "type": "Feature", "properties": { "Statename": "Odisha", "Districtname": "Sambalpur", "Subdistrictname": "Jamankira", "Blockname": "Jamankira", "Healthblockname": "Jamanakera", "Healthfacilitytype": "health sub centre", "Facilityname": "Cakuliabahl", "NIN": 2542678475, "latitude": 21.59403, "longitude": 84.22689, "facility_type_standardized": "hsc", "snapped_lon": 84.222043, "snapped_lat": 21.591717 }, "geometry": { "type": "Point", "coordinates": [ 84.222043, 21.591717 ] } },
{ "type": "Feature", "properties": { "Statename": "Odisha", "Districtname": "Sambalpur", "Subdistrictname": "Jamankira", "Blockname": "Jamankira", "Healthblockname": "Jamanakera", "Healthfacilitytype": "health sub centre", "Facilityname": "Fasimal", "NIN": 2813842479, "latitude": 21.60219, "longitude": 84.27907, "facility_type_standardized": "hsc", "snapped_lon": 84.279371, "snapped_lat": 21.601767 }, "geometry": { "type": "Point", "coordinates": [ 84.279371, 21.601767 ] } },
{ "type": "Feature", "properties": { "Statename": "Odisha", "Districtname": "Sambalpur", "Subdistrictname": "Rengali", "Blockname": "Rengali", "Healthblockname": "Rengali", "Healthfacilitytype": "health sub centre", "Facilityname": "Golamal", "NIN": 7148476653, "latitude": 21.60281, "longitude": 84.15936, "facility_type_standardized": "hsc", "snapped_lon": 84.153409, "snapped_lat": 21.597779 }, "geometry": { "type": "Point", "coordinates": [ 84.153409, 21.597779 ] } },
{ "type": "Feature", "properties": { "Statename": "Odisha", "Districtname": "Sambalpur", "Subdistrictname": "Sadar", "Blockname": "Dhankauda", "Healthblockname": "Dhankauda", "Healthfacilitytype": "health sub centre", "Facilityname": "Kilasama", "NIN": 6283648712, "latitude": 21.60723, "longitude": 84.0371, "facility_type_standardized": "hsc", "snapped_lon": 84.036941, "snapped_lat": 21.606805 }, "geometry": { "type": "Point", "coordinates": [ 84.036941, 21.606805 ] } },
{ "type": "Feature", "properties": { "Statename": "Odisha", "Districtname": "Sambalpur", "Subdistrictname": "Jamankira", "Blockname": "Jamankira", "Healthblockname": "Jamanakera", "Healthfacilitytype": "health sub centre", "Facilityname": "Mendhabahal. Mardhbaha", "NIN": 4858517677, "latitude": 21.6126, "longitude": 84.18183, "facility_type_standardized": "hsc", "snapped_lon": 84.192434, "snapped_lat": 21.616437 }, "geometry": { "type": "Point", "coordinates": [ 84.192434, 21.616437 ] } },
{ "type": "Feature", "properties": { "Statename": "Odisha", "Districtname": "Sambalpur", "Subdistrictname": "Jamankira", "Blockname": "Jamankira", "Healthblockname": "Jamanakera", "Healthfacilitytype": "health sub centre", "Facilityname": "Tangrani", "NIN": 1326186119, "latitude": 21.61364, "longitude": 84.40901, "facility_type_standardized": "hsc", "snapped_lon": 84.410496, "snapped_lat": 21.609291 }, "geometry": { "type": "Point", "coordinates": [ 84.410496, 21.609291 ] } },
{ "type": "Feature", "properties": { "Statename": "Odisha", "Districtname": "Sambalpur", "Subdistrictname": "Jamankira", "Blockname": "Jamankira", "Healthblockname": "Jamanakera", "Healthfacilitytype": "health sub centre", "Facilityname": "Sirid", "NIN": 3382642779, "latitude": 21.61395, "longitude": 84.46513, "facility_type_standardized": "hsc", "snapped_lon": 84.465664, "snapped_lat": 21.616349 }, "geometry": { "type": "Point", "coordinates": [ 84.465664, 21.616349 ] } },
{ "type": "Feature", "properties": { "Statename": "Odisha", "Districtname": "Sambalpur", "Subdistrictname": "Jamankira", "Blockname": "Jamankira", "Healthblockname": "Jamanakera", "Healthfacilitytype": "health sub centre", "Facilityname": "Jamumal", "NIN": 1636866780, "latitude": 21.61772, "longitude": 84.35148, "facility_type_standardized": "hsc", "snapped_lon": 84.326417, "snapped_lat": 21.627899 }, "geometry": { "type": "Point", "coordinates": [ 84.326417, 21.627899 ] } },
{ "type": "Feature", "properties": { "Statename": "Odisha", "Districtname": "Sambalpur", "Subdistrictname": "Jamankira", "Blockname": "Jamankira", "Healthblockname": "Jamanakera", "Healthfacilitytype": "health sub centre", "Facilityname": "Gandruchuan", "NIN": 6131217231, "latitude": 21.63143, "longitude": 84.33301, "facility_type_standardized": "hsc", "snapped_lon": 84.326417, "snapped_lat": 21.627899 }, "geometry": { "type": "Point", "coordinates": [ 84.326417, 21.627899 ] } },
{ "type": "Feature", "properties": { "Statename": "Odisha", "Districtname": "Sambalpur", "Subdistrictname": "Rengali", "Blockname": "Rengali", "Healthblockname": "Rengali", "Healthfacilitytype": "health sub centre", "Facilityname": "Kurla", "NIN": 2458373764, "latitude": 21.6381, "longitude": 83.99944, "facility_type_standardized": "hsc", "snapped_lon": 83.996673, "snapped_lat": 21.641502 }, "geometry": { "type": "Point", "coordinates": [ 83.996673, 21.641502 ] } },
{ "type": "Feature", "properties": { "Statename": "Odisha", "Districtname": "Sambalpur", "Subdistrictname": "Rengali", "Blockname": "Rengali", "Healthblockname": "Rengali", "Healthfacilitytype": "health sub centre", "Facilityname": "Jhankarpali", "NIN": 8156777586, "latitude": 21.64185, "longitude": 84.16023, "facility_type_standardized": "hsc", "snapped_lon": 84.170991, "snapped_lat": 21.641117 }, "geometry": { "type": "Point", "coordinates": [ 84.170991, 21.641117 ] } },
{ "type": "Feature", "properties": { "Statename": "Odisha", "Districtname": "Sambalpur", "Subdistrictname": "Jamankira", "Blockname": "Jamankira", "Healthblockname": "Jamanakera", "Healthfacilitytype": "health sub centre", "Facilityname": "Bhoipali", "NIN": 4417832583, "latitude": 21.64496, "longitude": 84.27251, "facility_type_standardized": "hsc", "snapped_lon": 84.278997, "snapped_lat": 21.677587 }, "geometry": { "type": "Point", "coordinates": [ 84.278997, 21.677587 ] } },
{ "type": "Feature", "properties": { "Statename": "Odisha", "Districtname": "Sambalpur", "Subdistrictname": "Rengali", "Blockname": "Rengali", "Healthblockname": "Rengali", "Healthfacilitytype": "health sub centre", "Facilityname": "Rengali", "NIN": 4848252575, "latitude": 21.64854, "longitude": 84.0639, "facility_type_standardized": "hsc", "snapped_lon": 84.060794, "snapped_lat": 21.646729 }, "geometry": { "type": "Point", "coordinates": [ 84.060794, 21.646729 ] } },
{ "type": "Feature", "properties": { "Statename": "Odisha", "Districtname": "Sambalpur", "Subdistrictname": "Rengali", "Blockname": "Rengali", "Healthblockname": "Rengali", "Healthfacilitytype": "health sub centre", "Facilityname": "Katarbaga", "NIN": 6677184456, "latitude": 21.649, "longitude": 84.12009, "facility_type_standardized": "hsc", "snapped_lon": 84.121987, "snapped_lat": 21.647751 }, "geometry": { "type": "Point", "coordinates": [ 84.121987, 21.647751 ] } },
{ "type": "Feature", "properties": { "Statename": "Odisha", "Districtname": "Sambalpur", "Subdistrictname": "Jamankira", "Blockname": "Jamankira", "Healthblockname": "Jamanakera", "Healthfacilitytype": "health sub centre", "Facilityname": "Bhojpur", "NIN": 7237578815, "latitude": 21.64964, "longitude": 84.40895, "facility_type_standardized": "hsc", "snapped_lon": 84.403528, "snapped_lat": 21.653716 }, "geometry": { "type": "Point", "coordinates": [ 84.403528, 21.653716 ] } },
{ "type": "Feature", "properties": { "Statename": "Odisha", "Districtname": "Sambalpur", "Subdistrictname": "Jamankira", "Blockname": "Jamankira", "Healthblockname": "Jamanakera", "Healthfacilitytype": "health sub centre", "Facilityname": "Kenadhipa", "NIN": 2843747169, "latitude": 21.65226, "longitude": 84.24334, "facility_type_standardized": "hsc", "snapped_lon": 84.24316, "snapped_lat": 21.662588 }, "geometry": { "type": "Point", "coordinates": [ 84.24316, 21.662588 ] } },
{ "type": "Feature", "properties": { "Statename": "Odisha", "Districtname": "Sambalpur", "Subdistrictname": "Jamankira", "Blockname": "Jamankira", "Healthblockname": "Jamanakera", "Healthfacilitytype": "health sub centre", "Facilityname": "Subarnapali", "NIN": 4184417675, "latitude": 21.67675, "longitude": 84.3543, "facility_type_standardized": "hsc", "snapped_lon": 84.34783, "snapped_lat": 21.685929 }, "geometry": { "type": "Point", "coordinates": [ 84.34783, 21.685929 ] } },
{ "type": "Feature", "properties": { "Statename": "Odisha", "Districtname": "Sambalpur", "Subdistrictname": "Jamankira", "Blockname": "Jamankira", "Healthblockname": "Jamanakera", "Healthfacilitytype": "health sub centre", "Facilityname": "Dhudiapali", "NIN": 2412555621, "latitude": 21.68494, "longitude": 84.27123, "facility_type_standardized": "hsc", "snapped_lon": 84.2802, "snapped_lat": 21.68606 }, "geometry": { "type": "Point", "coordinates": [ 84.2802, 21.68606 ] } },
{ "type": "Feature", "properties": { "Statename": "Odisha", "Districtname": "Sambalpur", "Subdistrictname": "Jamankira", "Blockname": "Jamankira", "Healthblockname": "Jamanakera", "Healthfacilitytype": "health sub centre", "Facilityname": "Mahada", "NIN": 8153522126, "latitude": 21.68638, "longitude": 84.23655, "facility_type_standardized": "hsc", "snapped_lon": 84.236623, "snapped_lat": 21.690292 }, "geometry": { "type": "Point", "coordinates": [ 84.236623, 21.690292 ] } },
{ "type": "Feature", "properties": { "Statename": "Odisha", "Districtname": "Sambalpur", "Subdistrictname": "Rengali", "Blockname": "Rengali", "Healthblockname": "Rengali", "Healthfacilitytype": "health sub centre", "Facilityname": "Khuntalamal", "NIN": 4246462446, "latitude": 21.69099, "longitude": 84.20529, "facility_type_standardized": "hsc", "snapped_lon": 84.204185, "snapped_lat": 21.689936 }, "geometry": { "type": "Point", "coordinates": [ 84.204185, 21.689936 ] } },
{ "type": "Feature", "properties": { "Statename": "Odisha", "Districtname": "Sambalpur", "Subdistrictname": "Rengali", "Blockname": "Rengali", "Healthblockname": "Rengali", "Healthfacilitytype": "health sub centre", "Facilityname": "Kinaloi", "NIN": 7514385843, "latitude": 21.6961, "longitude": 84.1698, "facility_type_standardized": "hsc", "snapped_lon": 84.173347, "snapped_lat": 21.697172 }, "geometry": { "type": "Point", "coordinates": [ 84.173347, 21.697172 ] } },
{ "type": "Feature", "properties": { "Statename": "Odisha", "Districtname": "Sambalpur", "Subdistrictname": "Kochinda", "Blockname": "Kuchinda", "Healthblockname": "Kuchinda", "Healthfacilitytype": "health sub centre", "Facilityname": "Boxma", "NIN": 4324812785, "latitude": 21.69833, "longitude": 84.37796, "facility_type_standardized": "hsc", "snapped_lon": 84.380724, "snapped_lat": 21.701466 }, "geometry": { "type": "Point", "coordinates": [ 84.380724, 21.701466 ] } },
{ "type": "Feature", "properties": { "Statename": "Odisha", "Districtname": "Sambalpur", "Subdistrictname": "Kochinda", "Blockname": "Kuchinda", "Healthblockname": "Kuchinda", "Healthfacilitytype": "health sub centre", "Facilityname": "Chandanimal", "NIN": 6737468527, "latitude": 21.70592, "longitude": 84.31094, "facility_type_standardized": "hsc", "snapped_lon": 84.30763, "snapped_lat": 21.70641 }, "geometry": { "type": "Point", "coordinates": [ 84.30763, 21.70641 ] } },
{ "type": "Feature", "properties": { "Statename": "Odisha", "Districtname": "Sambalpur", "Subdistrictname": "Rengali", "Blockname": "Rengali", "Healthblockname": "Rengali", "Healthfacilitytype": "health sub centre", "Facilityname": "Bomaloi", "NIN": 6482457543, "latitude": 21.71264, "longitude": 84.05498, "facility_type_standardized": "hsc", "snapped_lon": 84.054162, "snapped_lat": 21.709115 }, "geometry": { "type": "Point", "coordinates": [ 84.054162, 21.709115 ] } },
{ "type": "Feature", "properties": { "Statename": "Odisha", "Districtname": "Sambalpur", "Subdistrictname": "Kochinda", "Blockname": "Kuchinda", "Healthblockname": "Kuchinda", "Healthfacilitytype": "health sub centre", "Facilityname": "Jaldihi", "NIN": 7373143838, "latitude": 21.72967, "longitude": 84.51318, "facility_type_standardized": "hsc", "snapped_lon": 84.511777, "snapped_lat": 21.762212 }, "geometry": { "type": "Point", "coordinates": [ 84.511777, 21.762212 ] } },
{ "type": "Feature", "properties": { "Statename": "Odisha", "Districtname": "Sambalpur", "Subdistrictname": "Rengali", "Blockname": "Rengali", "Healthblockname": "Rengali", "Healthfacilitytype": "health sub centre", "Facilityname": "Laida", "NIN": 1535527251, "latitude": 21.73346, "longitude": 84.22636, "facility_type_standardized": "hsc", "snapped_lon": 84.2217, "snapped_lat": 21.734485 }, "geometry": { "type": "Point", "coordinates": [ 84.2217, 21.734485 ] } },
{ "type": "Feature", "properties": { "Statename": "Odisha", "Districtname": "Sambalpur", "Subdistrictname": "Rengali", "Blockname": "Rengali", "Healthblockname": "Rengali", "Healthfacilitytype": "health sub centre", "Facilityname": "Lapanga", "NIN": 7781343244, "latitude": 21.73473, "longitude": 84.02361, "facility_type_standardized": "hsc", "snapped_lon": 84.02006, "snapped_lat": 21.726946 }, "geometry": { "type": "Point", "coordinates": [ 84.02006, 21.726946 ] } },
{ "type": "Feature", "properties": { "Statename": "Odisha", "Districtname": "Sambalpur", "Subdistrictname": "Kochinda", "Blockname": "Kuchinda", "Healthblockname": "Kuchinda", "Healthfacilitytype": "health sub centre", "Facilityname": "Purunapani", "NIN": 7143324486, "latitude": 21.73528, "longitude": 84.27713, "facility_type_standardized": "hsc", "snapped_lon": 84.275286, "snapped_lat": 21.733658 }, "geometry": { "type": "Point", "coordinates": [ 84.275286, 21.733658 ] } },
{ "type": "Feature", "properties": { "Statename": "Odisha", "Districtname": "Sambalpur", "Subdistrictname": "Kochinda", "Blockname": "Kuchinda", "Healthblockname": "Kuchinda", "Healthfacilitytype": "health sub centre", "Facilityname": "Kuchinda", "NIN": 2447862455, "latitude": 21.73788, "longitude": 84.37858, "facility_type_standardized": "hsc", "snapped_lon": 84.380361, "snapped_lat": 21.747675 }, "geometry": { "type": "Point", "coordinates": [ 84.380361, 21.747675 ] } },
{ "type": "Feature", "properties": { "Statename": "Odisha", "Districtname": "Sambalpur", "Subdistrictname": "Rengali", "Blockname": "Rengali", "Healthblockname": "Rengali", "Healthfacilitytype": "health sub centre", "Facilityname": "Babu Khinda", "NIN": 7342457764, "latitude": 21.73993, "longitude": 83.99381, "facility_type_standardized": "hsc", "snapped_lon": 83.991792, "snapped_lat": 21.735176 }, "geometry": { "type": "Point", "coordinates": [ 83.991792, 21.735176 ] } },
{ "type": "Feature", "properties": { "Statename": "Odisha", "Districtname": "Sambalpur", "Subdistrictname": "Kochinda", "Blockname": "Kuchinda", "Healthblockname": "Kuchinda", "Healthfacilitytype": "health sub centre", "Facilityname": "Kuturachan", "NIN": 8354445630, "latitude": 21.74489, "longitude": 84.29096, "facility_type_standardized": "hsc", "snapped_lon": 84.296123, "snapped_lat": 21.74459 }, "geometry": { "type": "Point", "coordinates": [ 84.296123, 21.74459 ] } },
{ "type": "Feature", "properties": { "Statename": "Odisha", "Districtname": "Sambalpur", "Subdistrictname": "Kochinda", "Blockname": "Kuchinda", "Healthblockname": "Kuchinda", "Healthfacilitytype": "health sub centre", "Facilityname": "Laidaguna", "NIN": 6132721256, "latitude": 21.74503, "longitude": 84.44296, "facility_type_standardized": "hsc", "snapped_lon": 84.443808, "snapped_lat": 21.75226 }, "geometry": { "type": "Point", "coordinates": [ 84.443808, 21.75226 ] } },
{ "type": "Feature", "properties": { "Statename": "Odisha", "Districtname": "Sambalpur", "Subdistrictname": "Kochinda", "Blockname": "Kuchinda", "Healthblockname": "Kuchinda", "Healthfacilitytype": "health sub centre", "Facilityname": "K Jamenkira", "NIN": 5633282883, "latitude": 21.75098, "longitude": 84.50692, "facility_type_standardized": "hsc", "snapped_lon": 84.509656, "snapped_lat": 21.762296 }, "geometry": { "type": "Point", "coordinates": [ 84.509656, 21.762296 ] } },
{ "type": "Feature", "properties": { "Statename": "Odisha", "Districtname": "Sambalpur", "Subdistrictname": "Kochinda", "Blockname": "Kuchinda", "Healthblockname": "Kuchinda", "Healthfacilitytype": "health sub centre", "Facilityname": "Teleitilaimal", "NIN": 6153262610, "latitude": 21.75313, "longitude": 84.40387, "facility_type_standardized": "hsc", "snapped_lon": 84.404173, "snapped_lat": 21.753724 }, "geometry": { "type": "Point", "coordinates": [ 84.404173, 21.753724 ] } },
{ "type": "Feature", "properties": { "Statename": "Odisha", "Districtname": "Sambalpur", "Subdistrictname": "Kochinda", "Blockname": "Kuchinda", "Healthblockname": "Kuchinda", "Healthfacilitytype": "health sub centre", "Facilityname": "Salebhadi", "NIN": 1154354151, "latitude": 21.75342, "longitude": 84.57466, "facility_type_standardized": "hsc", "snapped_lon": 84.576071, "snapped_lat": 21.758221 }, "geometry": { "type": "Point", "coordinates": [ 84.576071, 21.758221 ] } },
{ "type": "Feature", "properties": { "Statename": "Odisha", "Districtname": "Sambalpur", "Subdistrictname": "Kochinda", "Blockname": "Kuchinda", "Healthblockname": "Kuchinda", "Healthfacilitytype": "health sub centre", "Facilityname": "Majhipada", "NIN": 8783222287, "latitude": 21.7597, "longitude": 84.38066, "facility_type_standardized": "hsc", "snapped_lon": 84.380361, "snapped_lat": 21.747675 }, "geometry": { "type": "Point", "coordinates": [ 84.380361, 21.747675 ] } },
{ "type": "Feature", "properties": { "Statename": "Odisha", "Districtname": "Sambalpur", "Subdistrictname": "Rengali", "Blockname": "Rengali", "Healthblockname": "Rengali", "Healthfacilitytype": "health sub centre", "Facilityname": "Ghichamura", "NIN": 8367717181, "latitude": 21.76862, "longitude": 84.10711, "facility_type_standardized": "hsc", "snapped_lon": 84.112495, "snapped_lat": 21.761253 }, "geometry": { "type": "Point", "coordinates": [ 84.112495, 21.761253 ] } },
{ "type": "Feature", "properties": { "Statename": "Odisha", "Districtname": "Sambalpur", "Subdistrictname": "Kochinda", "Blockname": "Kuchinda", "Healthblockname": "Kuchinda", "Healthfacilitytype": "health sub centre", "Facilityname": "Kindra", "NIN": 8741482239, "latitude": 21.76879, "longitude": 84.32031, "facility_type_standardized": "hsc", "snapped_lon": 84.317246, "snapped_lat": 21.76446 }, "geometry": { "type": "Point", "coordinates": [ 84.317246, 21.76446 ] } },
{ "type": "Feature", "properties": { "Statename": "Odisha", "Districtname": "Sambalpur", "Subdistrictname": "Kochinda", "Blockname": "Kuchinda", "Healthblockname": "Kuchinda", "Healthfacilitytype": "health sub centre", "Facilityname": "Kusumi", "NIN": 3126752124, "latitude": 21.77216, "longitude": 84.53048, "facility_type_standardized": "hsc", "snapped_lon": 84.524419, "snapped_lat": 21.764873 }, "geometry": { "type": "Point", "coordinates": [ 84.524419, 21.764873 ] } },
{ "type": "Feature", "properties": { "Statename": "Odisha", "Districtname": "Sambalpur", "Subdistrictname": "Kochinda", "Blockname": "Kuchinda", "Healthblockname": "Kuchinda", "Healthfacilitytype": "health sub centre", "Facilityname": "Karadakhman", "NIN": 2816782839, "latitude": 21.7802, "longitude": 84.47092, "facility_type_standardized": "hsc", "snapped_lon": 84.480238, "snapped_lat": 21.758089 }, "geometry": { "type": "Point", "coordinates": [ 84.480238, 21.758089 ] } },
{ "type": "Feature", "properties": { "Statename": "Odisha", "Districtname": "Sambalpur", "Subdistrictname": "Kochinda", "Blockname": "Kuchinda", "Healthblockname": "Kuchinda", "Healthfacilitytype": "health sub centre", "Facilityname": "Bandabahal", "NIN": 3285512152, "latitude": 21.78135, "longitude": 84.56196, "facility_type_standardized": "hsc", "snapped_lon": 84.559899, "snapped_lat": 21.781726 }, "geometry": { "type": "Point", "coordinates": [ 84.559899, 21.781726 ] } },
{ "type": "Feature", "properties": { "Statename": "Odisha", "Districtname": "Sambalpur", "Subdistrictname": "Kochinda", "Blockname": "Kuchinda", "Healthblockname": "Kuchinda", "Healthfacilitytype": "health sub centre", "Facilityname": "Hadipali", "NIN": 1272877448, "latitude": 21.78646, "longitude": 84.31496, "facility_type_standardized": "hsc", "snapped_lon": 84.309633, "snapped_lat": 21.796385 }, "geometry": { "type": "Point", "coordinates": [ 84.309633, 21.796385 ] } },
{ "type": "Feature", "properties": { "Statename": "Odisha", "Districtname": "Sambalpur", "Subdistrictname": "Kochinda", "Blockname": "Kuchinda", "Healthblockname": "Kuchinda", "Healthfacilitytype": "health sub centre", "Facilityname": "O Niktimal", "NIN": 5884737510, "latitude": 21.78874, "longitude": 84.43824, "facility_type_standardized": "hsc", "snapped_lon": 84.431662, "snapped_lat": 21.802217 }, "geometry": { "type": "Point", "coordinates": [ 84.431662, 21.802217 ] } },
{ "type": "Feature", "properties": { "Statename": "Odisha", "Districtname": "Sambalpur", "Subdistrictname": "Kochinda", "Blockname": "Kuchinda", "Healthblockname": "Kuchinda", "Healthfacilitytype": "health sub centre", "Facilityname": "Kuntara", "NIN": 7753371785, "latitude": 21.79532, "longitude": 84.53115, "facility_type_standardized": "hsc", "snapped_lon": 84.527601, "snapped_lat": 21.794559 }, "geometry": { "type": "Point", "coordinates": [ 84.527601, 21.794559 ] } },
{ "type": "Feature", "properties": { "Statename": "Odisha", "Districtname": "Sambalpur", "Subdistrictname": "Kochinda", "Blockname": "Kuchinda", "Healthblockname": "Kuchinda", "Healthfacilitytype": "health sub centre", "Facilityname": "Gochhara", "NIN": 1117123586, "latitude": 21.80124, "longitude": 84.40449, "facility_type_standardized": "hsc", "snapped_lon": 84.40478, "snapped_lat": 21.804392 }, "geometry": { "type": "Point", "coordinates": [ 84.40478, 21.804392 ] } },
{ "type": "Feature", "properties": { "Statename": "Odisha", "Districtname": "Sambalpur", "Subdistrictname": "Kochinda", "Blockname": "Kuchinda", "Healthblockname": "Kuchinda", "Healthfacilitytype": "health sub centre", "Facilityname": "Paruabahadi", "NIN": 4346765375, "latitude": 21.80227, "longitude": 84.36318, "facility_type_standardized": "hsc", "snapped_lon": 84.356003, "snapped_lat": 21.799522 }, "geometry": { "type": "Point", "coordinates": [ 84.356003, 21.799522 ] } },
{ "type": "Feature", "properties": { "Statename": "Odisha", "Districtname": "Sambalpur", "Subdistrictname": "Kochinda", "Blockname": "Kuchinda", "Healthblockname": "Kuchinda", "Healthfacilitytype": "health sub centre", "Facilityname": "Gopalpali", "NIN": 7618376672, "latitude": 21.80621, "longitude": 84.43462, "facility_type_standardized": "hsc", "snapped_lon": 84.436259, "snapped_lat": 21.804607 }, "geometry": { "type": "Point", "coordinates": [ 84.436259, 21.804607 ] } },
{ "type": "Feature", "properties": { "Statename": "Odisha", "Districtname": "Sambalpur", "Subdistrictname": "Kochinda", "Blockname": "Kuchinda", "Healthblockname": "Kuchinda", "Healthfacilitytype": "health sub centre", "Facilityname": "Bankay", "NIN": 3638767628, "latitude": 21.81661, "longitude": 84.4702, "facility_type_standardized": "hsc", "snapped_lon": 84.469231, "snapped_lat": 21.812231 }, "geometry": { "type": "Point", "coordinates": [ 84.469231, 21.812231 ] } },
{ "type": "Feature", "properties": { "Statename": "Odisha", "Districtname": "Sambalpur", "Subdistrictname": "Kochinda", "Blockname": "Kuchinda", "Healthblockname": "Kuchinda", "Healthfacilitytype": "health sub centre", "Facilityname": "Tureiniktimal", "NIN": 2728368818, "latitude": 21.82755, "longitude": 84.5008, "facility_type_standardized": "hsc", "snapped_lon": 84.500563, "snapped_lat": 21.820426 }, "geometry": { "type": "Point", "coordinates": [ 84.500563, 21.820426 ] } },
{ "type": "Feature", "properties": { "Statename": "Odisha", "Districtname": "Sambalpur", "Subdistrictname": "Kochinda", "Blockname": "Kuchinda", "Healthblockname": "Kuchinda", "Healthfacilitytype": "health sub centre", "Facilityname": "Bauriguda", "NIN": 3461734869, "latitude": 21.83363, "longitude": 84.33533, "facility_type_standardized": "hsc", "snapped_lon": 84.339162, "snapped_lat": 21.829056 }, "geometry": { "type": "Point", "coordinates": [ 84.339162, 21.829056 ] } },
{ "type": "Feature", "properties": { "Statename": "Odisha", "Districtname": "Sambalpur", "Subdistrictname": "Govindpur", "Blockname": "Bamra", "Healthblockname": "Bamara", "Healthfacilitytype": "health sub centre", "Facilityname": "Turei", "NIN": 7436748516, "latitude": 21.84811, "longitude": 84.48901, "facility_type_standardized": "hsc", "snapped_lon": 84.495218, "snapped_lat": 21.847527 }, "geometry": { "type": "Point", "coordinates": [ 84.495218, 21.847527 ] } },
{ "type": "Feature", "properties": { "Statename": "Odisha", "Districtname": "Sambalpur", "Subdistrictname": "Kochinda", "Blockname": "Kuchinda", "Healthblockname": "Kuchinda", "Healthfacilitytype": "health sub centre", "Facilityname": "Badbahal", "NIN": 4532768761, "latitude": 21.85008, "longitude": 84.35988, "facility_type_standardized": "hsc", "snapped_lon": 84.371525, "snapped_lat": 21.847054 }, "geometry": { "type": "Point", "coordinates": [ 84.371525, 21.847054 ] } },
{ "type": "Feature", "properties": { "Statename": "Odisha", "Districtname": "Sambalpur", "Subdistrictname": "Kochinda", "Blockname": "Kuchinda", "Healthblockname": "Kuchinda", "Healthfacilitytype": "health sub centre", "Facilityname": "Routbahal", "NIN": 7436617836, "latitude": 21.86295, "longitude": 84.37447, "facility_type_standardized": "hsc", "snapped_lon": 84.37247, "snapped_lat": 21.860321 }, "geometry": { "type": "Point", "coordinates": [ 84.37247, 21.860321 ] } },
{ "type": "Feature", "properties": { "Statename": "Odisha", "Districtname": "Sambalpur", "Subdistrictname": "Govindpur", "Blockname": "Bamra", "Healthblockname": "Bamara", "Healthfacilitytype": "health sub centre", "Facilityname": "Mahulpali", "NIN": 5677276478, "latitude": 21.86689, "longitude": 84.40947, "facility_type_standardized": "hsc", "snapped_lon": 84.410658, "snapped_lat": 21.866829 }, "geometry": { "type": "Point", "coordinates": [ 84.410658, 21.866829 ] } },
{ "type": "Feature", "properties": { "Statename": "Odisha", "Districtname": "Sambalpur", "Subdistrictname": "Govindpur", "Blockname": "Bamra", "Healthblockname": "Bamara", "Healthfacilitytype": "health sub centre", "Facilityname": "Babuniktimal", "NIN": 2882242478, "latitude": 21.87008, "longitude": 84.46052, "facility_type_standardized": "hsc", "snapped_lon": 84.45954, "snapped_lat": 21.853692 }, "geometry": { "type": "Point", "coordinates": [ 84.45954, 21.853692 ] } },
{ "type": "Feature", "properties": { "Statename": "Odisha", "Districtname": "Sambalpur", "Subdistrictname": "Govindpur", "Blockname": "Bamra", "Healthblockname": "Bamara", "Healthfacilitytype": "health sub centre", "Facilityname": "Tangarmunda", "NIN": 1738573862, "latitude": 21.8763, "longitude": 84.4118, "facility_type_standardized": "hsc", "snapped_lon": 84.403804, "snapped_lat": 21.874288 }, "geometry": { "type": "Point", "coordinates": [ 84.403804, 21.874288 ] } },
{ "type": "Feature", "properties": { "Statename": "Odisha", "Districtname": "Sambalpur", "Subdistrictname": "Govindpur", "Blockname": "Bamra", "Healthblockname": "Bamara", "Healthfacilitytype": "health sub centre", "Facilityname": "Mahapatrabalunda", "NIN": 5886452589, "latitude": 21.87813, "longitude": 84.44689, "facility_type_standardized": "hsc", "snapped_lon": 84.4411, "snapped_lat": 21.863653 }, "geometry": { "type": "Point", "coordinates": [ 84.4411, 21.863653 ] } },
{ "type": "Feature", "properties": { "Statename": "Odisha", "Districtname": "Sambalpur", "Subdistrictname": "Govindpur", "Blockname": "Bamra", "Healthblockname": "Bamara", "Healthfacilitytype": "health sub centre", "Facilityname": "Kabribahal", "NIN": 7713454747, "latitude": 21.8863, "longitude": 84.38342, "facility_type_standardized": "hsc", "snapped_lon": 84.378707, "snapped_lat": 21.884096 }, "geometry": { "type": "Point", "coordinates": [ 84.378707, 21.884096 ] } },
{ "type": "Feature", "properties": { "Statename": "Odisha", "Districtname": "Sambalpur", "Subdistrictname": "Govindpur", "Blockname": "Bamra", "Healthblockname": "Bamara", "Healthfacilitytype": "health sub centre", "Facilityname": "Keseibahal", "NIN": 8524387415, "latitude": 21.90885, "longitude": 84.39025, "facility_type_standardized": "hsc", "snapped_lon": 84.387401, "snapped_lat": 21.909615 }, "geometry": { "type": "Point", "coordinates": [ 84.387401, 21.909615 ] } },
{ "type": "Feature", "properties": { "Statename": "Odisha", "Districtname": "Sambalpur", "Subdistrictname": "Govindpur", "Blockname": "Bamra", "Healthblockname": "Bamara", "Healthfacilitytype": "health sub centre", "Facilityname": "Sargidihi", "NIN": 3787315831, "latitude": 21.94363, "longitude": 84.51142, "facility_type_standardized": "hsc", "snapped_lon": 84.482202, "snapped_lat": 21.932641 }, "geometry": { "type": "Point", "coordinates": [ 84.482202, 21.932641 ] } },
{ "type": "Feature", "properties": { "Statename": "Odisha", "Districtname": "Sambalpur", "Subdistrictname": "Govindpur", "Blockname": "Bamra", "Healthblockname": "Bamara", "Healthfacilitytype": "health sub centre", "Facilityname": "Jarabaga", "NIN": 8158375777, "latitude": 21.96455, "longitude": 84.45317, "facility_type_standardized": "hsc", "snapped_lon": 84.447079, "snapped_lat": 21.970172 }, "geometry": { "type": "Point", "coordinates": [ 84.447079, 21.970172 ] } },
{ "type": "Feature", "properties": { "Statename": "Odisha", "Districtname": "Sambalpur", "Subdistrictname": "Govindpur", "Blockname": "Bamra", "Healthblockname": "Bamara", "Healthfacilitytype": "health sub centre", "Facilityname": "Nuadihi", "NIN": 4741672440, "latitude": 21.98508, "longitude": 84.45584, "facility_type_standardized": "hsc", "snapped_lon": 84.448407, "snapped_lat": 21.981087 }, "geometry": { "type": "Point", "coordinates": [ 84.448407, 21.981087 ] } },
{ "type": "Feature", "properties": { "Statename": "Odisha", "Districtname": "Sambalpur", "Subdistrictname": "Govindpur", "Blockname": "Bamra", "Healthblockname": "Bamara", "Healthfacilitytype": "health sub centre", "Facilityname": "Lariapali", "NIN": 1383221155, "latitude": 22.00997, "longitude": 84.44023, "facility_type_standardized": "hsc", "snapped_lon": 84.434567, "snapped_lat": 21.990366 }, "geometry": { "type": "Point", "coordinates": [ 84.434567, 21.990366 ] } },
{ "type": "Feature", "properties": { "Statename": "Odisha", "Districtname": "Sambalpur", "Subdistrictname": "Govindpur", "Blockname": "Bamra", "Healthblockname": "Bamara", "Healthfacilitytype": "health sub centre", "Facilityname": "Rangiatikira", "NIN": 8585178547, "latitude": 22.03704, "longitude": 84.38187, "facility_type_standardized": "hsc", "snapped_lon": 84.38548, "snapped_lat": 22.034432 }, "geometry": { "type": "Point", "coordinates": [ 84.38548, 22.034432 ] } },
{ "type": "Feature", "properties": { "Statename": "Odisha", "Districtname": "Sambalpur", "Subdistrictname": "Govindpur", "Blockname": "Bamra", "Healthblockname": "Bamara", "Healthfacilitytype": "health sub centre", "Facilityname": "Bariha Garposh", "NIN": 2156711638, "latitude": 22.04772, "longitude": 84.3672, "facility_type_standardized": "hsc", "snapped_lon": 84.359568, "snapped_lat": 22.04288 }, "geometry": { "type": "Point", "coordinates": [ 84.359568, 22.04288 ] } },
{ "type": "Feature", "properties": { "Statename": "Odisha", "Districtname": "Sambalpur", "Subdistrictname": "Govindpur", "Blockname": "Bamra", "Healthblockname": "Bamara", "Healthfacilitytype": "health sub centre", "Facilityname": "Govindpur", "NIN": 4537388318, "latitude": 22.05189, "longitude": 84.27921, "facility_type_standardized": "hsc", "snapped_lon": 84.282634, "snapped_lat": 22.050016 }, "geometry": { "type": "Point", "coordinates": [ 84.282634, 22.050016 ] } },
{ "type": "Feature", "properties": { "Statename": "Odisha", "Districtname": "Sambalpur", "Subdistrictname": "Govindpur", "Blockname": "Bamra", "Healthblockname": "Bamara", "Healthfacilitytype": "health sub centre", "Facilityname": "Bamra", "NIN": 6835382679, "latitude": 22.05249, "longitude": 84.33118, "facility_type_standardized": "hsc", "snapped_lon": 84.329936, "snapped_lat": 22.04135 }, "geometry": { "type": "Point", "coordinates": [ 84.329936, 22.04135 ] } },
{ "type": "Feature", "properties": { "Statename": "Odisha", "Districtname": "Sambalpur", "Subdistrictname": "Govindpur", "Blockname": "Bamra", "Healthblockname": "Bamara", "Healthfacilitytype": "health sub centre", "Facilityname": "Kadlijharan", "NIN": 1166316719, "latitude": 22.06182, "longitude": 84.47168, "facility_type_standardized": "hsc", "snapped_lon": 84.474543, "snapped_lat": 22.06183 }, "geometry": { "type": "Point", "coordinates": [ 84.474543, 22.06183 ] } },
{ "type": "Feature", "properties": { "Statename": "Odisha", "Districtname": "Sambalpur", "Subdistrictname": "Govindpur", "Blockname": "Bamra", "Healthblockname": "Bamara", "Healthfacilitytype": "health sub centre", "Facilityname": "Gardega", "NIN": 5243883542, "latitude": 22.07049, "longitude": 84.41372, "facility_type_standardized": "hsc", "snapped_lon": 84.42093, "snapped_lat": 22.070623 }, "geometry": { "type": "Point", "coordinates": [ 84.42093, 22.070623 ] } },
{ "type": "Feature", "properties": { "Statename": "Odisha", "Districtname": "Sambalpur", "Subdistrictname": "Govindpur", "Blockname": "Bamra", "Healthblockname": "Bamara", "Healthfacilitytype": "health sub centre", "Facilityname": "Kechhupani", "NIN": 8642154481, "latitude": 22.07239, "longitude": 84.32376, "facility_type_standardized": "hsc", "snapped_lon": 84.326484, "snapped_lat": 22.074932 }, "geometry": { "type": "Point", "coordinates": [ 84.326484, 22.074932 ] } },
{ "type": "Feature", "properties": { "Statename": "Odisha", "Districtname": "Sambalpur", "Subdistrictname": "Govindpur", "Blockname": "Bamra", "Healthblockname": "Bamara", "Healthfacilitytype": "health sub centre", "Facilityname": "Nuapali", "NIN": 3488325451, "latitude": 22.07893, "longitude": 84.45051, "facility_type_standardized": "hsc", "snapped_lon": 84.455353, "snapped_lat": 22.077235 }, "geometry": { "type": "Point", "coordinates": [ 84.455353, 22.077235 ] } },
{ "type": "Feature", "properties": { "Statename": "Odisha", "Districtname": "Sambalpur", "Subdistrictname": "Govindpur", "Blockname": "Bamra", "Healthblockname": "Bamara", "Healthfacilitytype": "health sub centre", "Facilityname": "Gurla", "NIN": 8766177722, "latitude": 22.07979, "longitude": 84.28707, "facility_type_standardized": "hsc", "snapped_lon": 84.289445, "snapped_lat": 22.081961 }, "geometry": { "type": "Point", "coordinates": [ 84.289445, 22.081961 ] } },
{ "type": "Feature", "properties": { "Statename": "Odisha", "Districtname": "Sambalpur", "Subdistrictname": "Govindpur", "Blockname": "Bamra", "Healthblockname": "Bamara", "Healthfacilitytype": "health sub centre", "Facilityname": "Baunsenlaga", "NIN": 8432685751, "latitude": 22.08211, "longitude": 84.30531, "facility_type_standardized": "hsc", "snapped_lon": 84.289445, "snapped_lat": 22.081961 }, "geometry": { "type": "Point", "coordinates": [ 84.289445, 22.081961 ] } },
{ "type": "Feature", "properties": { "Statename": "Odisha", "Districtname": "Sambalpur", "Subdistrictname": "Govindpur", "Blockname": "Bamra", "Healthblockname": "Bamara", "Healthfacilitytype": "health sub centre", "Facilityname": "Garposh", "NIN": 5857466857, "latitude": 22.10975, "longitude": 84.41929, "facility_type_standardized": "hsc", "snapped_lon": 84.426537, "snapped_lat": 22.1122 }, "geometry": { "type": "Point", "coordinates": [ 84.426537, 22.1122 ] } },
{ "type": "Feature", "properties": { "Statename": "Odisha", "Districtname": "Sambalpur", "Subdistrictname": "Govindpur", "Blockname": "Bamra", "Healthblockname": "Bamara", "Healthfacilitytype": "health sub centre", "Facilityname": "Kutarimal", "NIN": 1512535640, "latitude": 22.10979, "longitude": 84.33818, "facility_type_standardized": "hsc", "snapped_lon": 84.362973, "snapped_lat": 22.094925 }, "geometry": { "type": "Point", "coordinates": [ 84.362973, 22.094925 ] } },
{ "type": "Feature", "properties": { "Statename": "Odisha", "Districtname": "Sambalpur", "Subdistrictname": "Govindpur", "Blockname": "Bamra", "Healthblockname": "Bamara", "Healthfacilitytype": "health sub centre", "Facilityname": "Kinabaga", "NIN": 6214777689, "latitude": 22.11233, "longitude": 84.47096, "facility_type_standardized": "hsc", "snapped_lon": 84.467748, "snapped_lat": 22.111777 }, "geometry": { "type": "Point", "coordinates": [ 84.467748, 22.111777 ] } },
{ "type": "Feature", "properties": { "Statename": "Odisha", "Districtname": "Sambalpur", "Subdistrictname": "Govindpur", "Blockname": "Bamra", "Healthblockname": "Bamara", "Healthfacilitytype": "health sub centre", "Facilityname": "Ghansara", "NIN": 8158718430, "latitude": 22.11747, "longitude": 84.42938, "facility_type_standardized": "hsc", "snapped_lon": 84.426537, "snapped_lat": 22.1122 }, "geometry": { "type": "Point", "coordinates": [ 84.426537, 22.1122 ] } },